~VERSION INFORMATION
 VERS.                 2.0:   CWLS LOG ASCII STANDARD -VERSION 2.0
 WRAP.                  NO:   ONE LINE PER DEPTH STEP
~WELL INFORMATION BLOCK
#MNEM.UNIT           DATA                    DESCRIPTION OF MNEMONIC
#---------    -------------------            -------------------------------
# Generated from Intellog Unique Number	CW_82_90/WELL/3061
WELL.         CHEVRON ET AL WABASCA 07-04    : Well_name    - WELL
LOC .         00/07-04-085-23W4/0            : Location     - LOCATION
UWI .         00/07-04-085-23W4/0            : Uwi          - UNIQUE WELL ID
ENTR.         JAYE                           : Entered      - ENTERED BY
SRVC.         SCHLUMBERGER                   : Scn          - SERVICE COMPANY
DATE.         10 JAN 74                      : Date         - LOG DATE
STRT.M        146.304                        : top_depth    - START DEPTH
STOP.M        381.054                        : bot_depth    - STOP DEPTH
STEP.M        0.25                           : increment    - STEP LENGTH
 NULL. -999.2500:NULL Value
~CURVE INFORMATION BLOCK
#MNEM UNIT       ERCB CURVE CODE    CURVE DESCRIPTION
#-----------   ------------------   ----------------------------------
DEPT.M        00 001 00 00         : DEPTH        - DEPTH
ILD .OHMM     00 120 00 00         : RESD         - DEEP RESISTIVITY (DIL)
GR  .API      00 310 00 00         : GR           - GAMMA RAY
NPHI.V/V      00 330 00 00         : PHIN         - NEUTRON POROSITY (SANDSTONE)
DPHI.V/V      00 890 00 00         : PHID         - DENSITY POROSITY (SANDSTONE)
~PARAMETER INFORMATION
#MNEM.UNIT           DATA             DESCRIPTION OF MNEMONIC
#---------         -----------     ------------------------------
GL  .M        572.628              : gl           - GROUND LEVEL ELEVATION
EREF.M        575.767              : kb           - ELEVATION OF DEPTH REFERENCE
DATM.M        572.628              : datum        - DATUM ELEVATION
TDD .M        382.219              : tdd          - TOTAL DEPTH DRILLER
RUN .         ONE                  : Run          - RUN NUMBER
ENG .         CHAUDHARY            : Engineer     - RECORDING ENGINEER
WIT .         COLL                 : Witness      - WITNESSED BY
BASE.         EDMONTON             : Branch       - HOME BASE OF LOGGING UNIT
MUD .         GEL                  : Mud_type     - MUD TYPE
MATR.         SANDSTONE            : Logunit      - NEUTRON MATRIX
TMAX.C        20.5556              : BHT          - MAXIMUM RECORDED TEMPERATURE
BHTD.M        382.219              : BHTDEP       - MAXIMUM RECORDED TEMPERATURE
RMT .C        -17.7778             : MDTP         - TEMPERATURE OF MUD
MUDD.KG/M     9500                 : MWT          - MUD DENSITY
NEUT.         1                    : NEUTRON      - NEUTRON TYPE
RESI.         0                    : RESIST       - RESISTIVITY TYPE
RM  .OHMM     0.25                 : RM           - RESISTIVITY OF MUD
RMC .OHMM     0.25                 : RMC          - RESISTIVITY OF MUD CAKE
RMF .OHMM     7.67                 : RMF          - RESISTIVITY OF MUD FILTRATE
SUFT.C        4                    : SUFT         - SURFACE TEMPERATURE
~A  DEPTH     RESD       GR     PHIN     PHID
  146.304    6.334   97.607    0.522    0.257
  146.554    6.907   97.270    0.508    0.259
  146.804    7.206   96.033    0.501    0.255
  147.054    7.381   94.502    0.495    0.263
  147.304    7.229   93.558    0.493    0.257
  147.554    6.520   94.121    0.495    0.245
  147.804    5.986   94.087    0.501    0.226
  148.054    5.814   91.656    0.522    0.199
  148.304    5.538   94.900    0.536    0.149
  148.554    5.325   97.249    0.547    0.127
  148.804    5.253   99.588    0.556    0.260
  149.054    5.433   99.857    0.537    0.273
  149.304    5.931   97.128    0.524    0.267
  149.554    8.726   89.027    0.511    0.258
  149.804   13.677   83.318    0.492    0.251
  150.054   18.212   78.504    0.465    0.247
  150.304   19.508   64.135    0.426    0.255
  150.554   18.743   46.181    0.381    0.271
  150.804   17.078   28.828    0.386    0.287
  151.054   13.946   25.208    0.393    0.298
  151.304   11.294   33.521    0.399    0.282
  151.554    9.310   36.770    0.413    0.284
  151.804    8.175   42.103    0.424    0.268
  152.054    8.447   48.923    0.433    0.254
  152.304    9.556   54.261    0.452    0.239
  152.554   11.012   61.385    0.488    0.244
  152.804   13.277   65.818    0.514    0.222
  153.054   15.427   62.799    0.503    0.221
  153.304   16.839   55.295    0.479    0.286
  153.554   18.702   49.875    0.469    0.295
  153.804   18.153   47.747    0.462    0.296
  154.054   17.284   45.917    0.444    0.296
  154.304   16.328   44.983    0.440    0.299
  154.554   14.726   44.348    0.445    0.301
  154.804   14.554   44.011    0.463    0.310
  155.054   17.699   43.967    0.466    0.318
  155.304   18.796   43.928    0.462    0.321
  155.554   31.383   44.178    0.456    0.309
  155.804   39.569   42.946    0.449    0.301
  156.054   45.189   41.718    0.444    0.309
  156.304   47.522   38.093    0.438    0.318
  156.554   46.967   34.767    0.437    0.327
  156.804   43.952   33.833    0.437    0.344
  157.054   40.016   31.700    0.438    0.355
  157.304   35.794   30.468    0.441    0.365
  157.554   27.938   31.324    0.445    0.361
  157.804   23.450   32.479    0.449    0.369
  158.054   21.928   33.336    0.452    0.354
  158.304   24.603   34.486    0.455    0.357
  158.554   33.661   35.636    0.455    0.365
  158.804   42.441   35.906    0.443    0.358
  159.054   36.616   35.265    0.437    0.350
  159.304   22.793   34.326    0.440    0.347
  159.554   18.952   36.680    0.445    0.355
  159.804   21.256   39.924    0.452    0.352
  160.054   24.718   42.571    0.455    0.340
  160.304   25.528   43.721    0.459    0.341
  160.554   23.684   41.290    0.457    0.326
  160.804   22.356   40.654    0.450    0.332
  161.054   22.899   42.411    0.449    0.350
  161.304   25.433   43.860    0.449    0.335
  161.554   29.308   44.119    0.447    0.330
  161.804   38.328   41.096    0.440    0.336
  162.054   40.703   36.576    0.431    0.340
  162.304   38.422   32.359    0.426    0.346
  162.554   31.117   29.928    0.426    0.349
  162.804   23.852   30.780    0.431    0.348
  163.054   26.007   31.940    0.434    0.327
  163.304   25.482   33.692    0.436    0.335
  163.554   23.410   35.145    0.433    0.351
  163.804   20.924   37.484    0.431    0.350
  164.054   21.823   40.126    0.427    0.339
  164.304   24.689   41.590    0.425    0.348
  164.554   29.244   42.740    0.423    0.312
  164.804   36.554   42.109    0.423    0.304
  165.054   33.281   39.374    0.423    0.307
  165.304   25.492   36.058    0.424    0.311
  165.554   23.438   31.528    0.424    0.327
  165.804   26.277   30.902    0.420    0.344
  166.054   24.581   32.649    0.417    0.352
  166.304   24.505   34.998    0.416    0.359
  166.554   25.110   37.939    0.416    0.339
  166.804   24.134   39.690    0.416    0.349
  167.054   23.206   39.955    0.416    0.333
  167.304   21.905   39.319    0.416    0.317
  167.554   18.386   39.868    0.416    0.310
  167.804   20.062   43.112    0.416    0.305
  168.054   19.634   46.361    0.417    0.296
  168.304   18.709   49.003    0.419    0.302
  168.554   17.660   49.263    0.420    0.313
  168.804   16.520   49.224    0.424    0.322
  169.054   15.454   49.185    0.426    0.307
  169.304   14.726   50.340    0.431    0.309
  169.554   14.282   51.789    0.436    0.287
  169.804   13.857   52.650    0.439    0.295
  170.054   13.319   53.800    0.442    0.308
  170.304   12.577   55.244    0.443    0.320
  170.554   11.664   56.404    0.444    0.305
  170.804   10.425   57.852    0.443    0.311
  171.054    9.495   59.306    0.439    0.294
  171.304    8.645   60.764    0.442    0.276
  171.554    7.874   62.809    0.449    0.274
  171.804    7.104   65.158    0.459    0.272
  172.054    7.082   67.810    0.468    0.266
  172.304    7.454   70.154    0.475    0.270
  172.554    8.432   71.314    0.478    0.277
  172.804    9.454   69.181    0.471    0.257
  173.054   10.591   65.561    0.463    0.253
  173.304   10.755   61.041    0.455    0.276
  173.554   10.726   54.139    0.451    0.294
  173.804   10.216   49.618    0.450    0.302
  174.054    9.305   47.789    0.450    0.292
  174.304    7.807   49.233    0.452    0.299
  174.554    7.372   52.482    0.456    0.298
  174.804    6.533   58.710    0.463    0.288
  175.054    5.685   62.849    0.470    0.268
  175.304    4.992   66.392    0.481    0.266
  175.554    4.502   70.522    0.494    0.259
  175.804    3.713   72.870    0.507    0.267
  176.054    3.602   74.632    0.520    0.256
  176.304    3.399   76.677    0.535    0.266
  176.554    3.210   77.832    0.559    0.271
  176.804    3.086   79.276    0.584    0.266
  177.054    2.860   79.839    0.603    0.271
  177.304    2.750   80.099    0.612    0.271
  177.554    2.717   80.363    0.611    0.284
  177.804    2.708   80.618    0.610    0.290
  178.054    2.725   81.768    0.606    0.266
  178.304    2.733   82.629    0.597    0.265
  178.554    2.779   81.392    0.591    0.279
  178.804    2.822   81.050    0.599    0.280
  179.054    2.866   82.802    0.607    0.291
  179.304    2.934   83.360    0.612    0.283
  179.554    3.031   82.132    0.609    0.287
  179.804    3.190   81.189    0.603    0.284
  180.054    3.359   81.150    0.591    0.284
  180.304    3.632   81.410    0.583    0.279
  180.554    3.493   80.471    0.578    0.273
  180.804    3.448   81.630    0.567    0.269
  181.054    3.377   81.885    0.557    0.286
  181.304    3.276   80.653    0.552    0.293
  181.554    3.205   78.520    0.557    0.281
  181.804    3.168   78.178    0.560    0.279
  182.054    3.212   78.448    0.566    0.271
  182.304    3.414   78.404    0.570    0.264
  182.554    3.898   78.365    0.578    0.257
  182.804    4.873   78.625    0.581    0.252
  183.054    5.613   79.477    0.586    0.263
  183.304    6.644   79.731    0.578    0.257
  183.554    7.653   78.802    0.564    0.253
  183.804    8.662   74.581    0.551    0.252
  184.054    9.978   69.767    0.523    0.250
  184.304   11.292   64.650    0.465    0.232
  184.554   14.110   65.507    0.482    0.208
  184.804   17.952   62.777    0.497    0.247
  185.054   20.317   57.963    0.497    0.280
  185.304   23.202   53.145    0.490    0.306
  185.554   25.547   49.818    0.484    0.325
  185.804   27.377   47.695    0.475    0.341
  186.054   27.292   45.260    0.471    0.355
  186.304   27.197   43.132    0.471    0.365
  186.554   26.617   41.606    0.470    0.374
  186.804   27.761   40.359    0.474    0.371
  187.054   29.493   40.031    0.480    0.353
  187.304   31.027   40.888    0.483    0.322
  187.554   32.045   41.734    0.484    0.296
  187.804   32.261   42.591    0.482    0.325
  188.054   32.453   43.154    0.481    0.369
  188.304   32.340   43.414    0.480    0.361
  188.554   32.227   43.072    0.480    0.355
  188.804   32.419   41.839    0.481    0.356
  189.054   32.612   40.299    0.480    0.365
  189.304   33.117   39.364    0.476    0.371
  189.554   35.129   39.032    0.476    0.379
