~VERSION INFORMATION
 VERS.                 2.0:   CWLS LOG ASCII STANDARD -VERSION 2.0
 WRAP.                  NO:   ONE LINE PER DEPTH STEP
~WELL INFORMATION BLOCK
#MNEM.UNIT           DATA                    DESCRIPTION OF MNEMONIC
#---------    -------------------            -------------------------------
# Generated from Intellog Unique Number	CW_76_78/WELL/2569
WELL.         NOVALTA PORTAGE                : Well_name    - WELL
LOC .         00/06-26-078-19W4/0            : Location     - LOCATION
UWI .         00/06-26-078-19W4/0            : Uwi          - UNIQUE WELL ID
ENTR.         MAX                            : Entered      - ENTERED BY
SRVC.         SCHLUMBERGER                   : Scn          - SERVICE COMPANY
STRT.M        190                            : top_depth    - START DEPTH
STOP.M        390                            : bot_depth    - STOP DEPTH
STEP.M        0.25                           : increment    - STEP LENGTH
 NULL. -999.2500:NULL Value
~CURVE INFORMATION BLOCK
#MNEM UNIT       ERCB CURVE CODE    CURVE DESCRIPTION
#-----------   ------------------   ----------------------------------
DEPT.M        00 001 00 00         : DEPTH        - DEPTH
ILD .OHMM     00 120 00 00         : RESD         - DEEP RESISTIVITY (DIL)
NPHI.V/V      00 330 00 00         : PHIN         - NEUTRON POROSITY (SANDSTONE)
DPHI.V/V      00 890 00 00         : PHID         - DENSITY POROSITY (SANDSTONE)
CALI.MM       00 280 01 00         : CAL          - CALIPER
GR  .API      00 310 00 00         : GR           - GAMMA RAY
~PARAMETER INFORMATION
#MNEM.UNIT           DATA             DESCRIPTION OF MNEMONIC
#---------         -----------     ------------------------------
GL  .M        556.74               : gl           - GROUND LEVEL ELEVATION
EREF.M        561.74               : kb           - ELEVATION OF DEPTH REFERENCE
DATM.M        556.74               : datum        - DATUM ELEVATION
TDD .M        391                  : tdd          - TOTAL DEPTH DRILLER
RUN .         ONE                  : Run          - RUN NUMBER
ENG .         BILL                 : Engineer     - RECORDING ENGINEER
WIT .         JIM                  : Witness      - WITNESSED BY
MUD .         GEL                  : Mud_type     - MUD TYPE
MATR.         SANDSTONE            : Logunit      - NEUTRON MATRIX
TMAX.C        27.8                 : BHT          - MAXIMUM RECORDED TEMPERATURE
BHTD.M        391                  : BHTDEP       - MAXIMUM RECORDED TEMPERATURE
RMT .C        23.3                 : MDTP         - TEMPERATURE OF MUD
MUDD.KG/M     1180                 : MWT          - MUD DENSITY
NEUT.         1                    : NEUTRON      - NEUTRON TYPE
RESI.         0                    : RESIST       - RESISTIVITY TYPE
RM  .OHMM     4.5                  : RM           - RESISTIVITY OF MUD
RMC .OHMM     0.25                 : RMC          - RESISTIVITY OF MUD CAKE
RMF .OHMM     4.8                  : RMF          - RESISTIVITY OF MUD FILTRATE
SUFT.C        -20                  : SUFT         - SURFACE TEMPERATURE
~A  DEPTH     RESD     PHIN     PHID      CAL       GR
# ...
  299.500    5.118    0.474    0.226  163.398  100.882
  299.750    5.070    0.480    0.214  163.913   97.332
  300.000    5.309    0.476    0.222  161.951   98.233
  300.250    5.559    0.456    0.243  160.986   95.873
  300.500    6.096    0.463    0.227  160.509   94.694
  300.750    6.442    0.469    0.216  160.529   94.707
  301.000    6.683    0.468    0.221  160.555   95.609
  301.250    6.870    0.471    0.216  160.570   98.593
  301.500    6.998    0.460    0.218  160.593   99.202
  301.750    7.062    0.458    0.218  160.614   98.918
  302.000    7.062    0.463    0.216  160.634  100.417
  302.250    7.062    0.485    0.212  160.660  100.723
  302.500    7.062    0.485    0.210  161.173   99.549
  302.750    7.061    0.491    0.203  161.191   94.512
  303.000    7.061    0.473    0.203  161.706   95.118
  303.250    7.126    0.481    0.206  162.225   96.618
  303.500    7.126    0.483    0.206  162.248   97.818
  303.750    7.191    0.469    0.209  162.268   98.124
  304.000    7.258    0.474    0.216  162.289   94.869
  304.250    7.258    0.484    0.214  161.814   90.723
  304.500    7.191    0.478    0.211  162.330   92.518
  304.750    7.059    0.481    0.204  162.848   96.096
  305.000    6.804    0.475    0.202  162.868  100.564
  305.250    6.618    0.464    0.206  163.387  102.064
  305.500    6.378    0.463    0.217  163.402   99.103
  305.750    5.925    0.473    0.216  163.422   96.740
  306.000    5.453    0.465    0.213  164.433  101.209
  306.250    4.882    0.465    0.215  165.449  105.381
  306.500    4.577    0.486    0.226  165.467  106.582
  306.750    4.662    0.496    0.228  164.002  111.944
  307.000    4.882    0.501    0.219  161.549  106.014
  307.250    5.452    0.505    0.223  160.577  101.272
  307.500    6.260    0.466    0.210  160.602   83.161
  307.750    7.187    0.295    0.147  160.602   81.093
  308.000    8.252    0.413    0.165  160.151   82.888
  308.250    9.048    0.444    0.169  159.676   88.843
  308.500   10.013    0.452    0.163  159.691   89.748
  308.750   10.581    0.409    0.105  159.712   77.280
  309.000   10.978    0.350    0.021  160.233   72.837
  309.250   10.292    0.295    0.090  160.746   81.168
  309.500    8.881    0.428    0.156  160.766   96.929
  309.750    7.951    0.453    0.195  161.282   96.940
  310.000    7.806    0.466    0.210  161.302   96.955
  310.250    7.878    0.456    0.231  161.328   99.047
  310.500    8.024    0.459    0.226  161.841  101.138
  310.750    8.173    0.446    0.207  161.366   99.962
  311.000    8.248    0.442    0.209  160.396   97.005
  311.250    8.324    0.461    0.218  159.922   94.939
  311.500    8.401    0.459    0.226  159.452   96.734
  311.750    8.401    0.435    0.231  159.970   97.933
  312.000    8.478    0.425    0.227  160.481   97.055
  312.250    8.478    0.438    0.216  160.501   93.204
  312.500    8.556    0.435    0.210  160.527   89.355
  312.750    8.556    0.435    0.217  161.040   94.715
  313.000    8.556    0.458    0.217  161.063   97.700
  313.250    8.634    0.477    0.214  161.579   97.415
  313.500    8.634    0.464    0.210  162.094   92.969
  313.750    8.245    0.461    0.194  162.613   91.199
  314.000    7.873    0.479    0.191  162.613   94.186
  314.250    7.801    0.488    0.193  163.157  100.436
  314.500    7.946    0.474    0.193  162.674  102.231
  314.750    8.019    0.446    0.198  161.704  101.054
  315.000    7.945    0.436    0.193  161.227   99.584
  315.250    7.800    0.450    0.182  161.248  100.488
  315.500    7.517    0.474    0.196  161.271  102.580
  315.750    7.448    0.463    0.214  161.291  104.076
  316.000    7.586    0.458    0.218  161.314  104.090
  316.250    7.871    0.462    0.221  161.335  101.131
  316.500    8.091    0.458    0.204  161.850   96.091
  316.750    8.091    0.437    0.202  161.871   96.998
  317.000    8.016    0.422    0.224  162.384   99.090
  317.250    8.016    0.421    0.224  161.917  102.666
  317.500    8.016    0.420    0.211  161.935  105.354
  317.750    8.015    0.422    0.194  161.953  105.366
  318.000    8.015    0.437    0.185  161.973  101.813
  318.250    8.089    0.446    0.175  161.996  103.015
  318.500    8.089    0.430    0.195  161.029  103.917
  318.750    8.014    0.411    0.220  159.071  100.962
  319.000    7.724    0.408    0.225  159.092  100.674
  319.250    7.583    0.420    0.212  159.602  100.391
  319.500    7.513    0.440    0.209  160.616   97.432
  319.750    7.582    0.452    0.198  160.634   96.850
  320.000    7.723    0.456    0.190  160.659   98.942
  320.250    7.723    0.466    0.184  161.172   99.550
  320.500    7.722    0.467    0.182  161.688   99.859
  320.750    7.722    0.464    0.181  162.204  101.656
  321.000    7.722    0.455    0.197  163.712  103.451
  321.250    7.721    0.440    0.196  164.723  103.465
  321.500    7.650    0.444    0.184  164.746  103.474
  321.750    7.580    0.446    0.176  163.776  104.080
  322.000    7.441    0.430    0.199  162.804  104.987
  322.250    7.172    0.421    0.204  162.329  106.188
  322.500    6.723    0.425    0.191  161.854  107.983
  322.750    6.601    0.456    0.193  161.883  109.182
  323.000    6.600    0.464    0.202  161.898  110.681
  323.250    6.848    0.465    0.208  161.918  108.320
  323.500    7.304    0.451    0.219  161.944  105.954
  323.750    7.790    0.433    0.221  161.959  101.508
  324.000    7.790    0.417    0.202  161.987   92.905
  324.250    7.718    0.421    0.183  162.501   94.699
  324.500    7.236    0.430    0.193  162.519  100.059
  324.750    6.538    0.427    0.199  162.544  106.312
  325.000    7.002    0.402    0.199  155.366  100.930
  325.250    6.821    0.387    0.205  155.946   98.587
  325.500    6.765    0.413    0.205  156.019   95.347
  325.750    6.897    0.439    0.221  155.107   88.526
  326.000    7.295    0.427    0.221  154.664   85.883
  326.250    7.858    0.418    0.177  153.273   88.017
  326.500    8.703    0.409    0.138  152.848   85.374
  326.750    9.377    0.391    0.159  153.898   80.344
  327.000   10.194    0.431    0.210  154.976   76.209
  327.250   11.604    0.396    0.190  155.040   68.791
  327.500   13.331    0.326    0.143  155.629   60.173
  327.750   15.598    0.244    0.103  156.191   53.053
  328.000   18.591    0.198    0.047  156.762   54.893
  328.250   21.357    0.200    0.035  157.333   54.047
  328.500   22.800    0.198    0.022  157.434   49.304
  328.750   22.204    0.164    0.013  157.498   47.867
  329.000   19.726    0.154    0.031  158.060   50.592
  329.250   15.696    0.160    0.062  158.640   54.815
  329.500   11.188    0.247    0.159  158.713   60.237
  329.750    9.321    0.368    0.245  155.820   65.356
  330.000    8.206    0.387    0.259  153.397   67.793
  330.250    7.493    0.403    0.257  151.489   67.539
  330.500    7.365    0.433    0.252  152.042   69.076
  330.750    7.579    0.436    0.248  155.607   75.394
  331.000    8.165    0.421    0.222  157.670   79.915
  331.250    8.959    0.397    0.146  158.241   77.273
  331.500   10.875    0.354    0.105  158.333   64.481
  331.750   12.045    0.281    0.075  158.388   57.975
  332.000   13.836    0.245    0.065  158.480   58.008
  332.250   15.893    0.235    0.056  158.056   59.849
  332.500   18.260    0.222    0.039  158.120   63.170
  332.750   18.789    0.198    0.024  157.696   60.528
  333.000   16.846    0.181    0.028  157.272   52.806
  333.250   13.907    0.165    0.054  156.857   49.284
  333.500   10.767    0.226    0.203  155.935   49.317
  333.750    9.390    0.312    0.232  155.520   56.824
  334.000    8.578    0.388    0.250  155.584   60.754
  334.250    8.578    0.438    0.256  155.676   70.051
  334.500    8.289    0.450    0.263  155.731   72.190
  334.750    7.850    0.447    0.271  155.832   67.160
  335.000    7.714    0.439    0.275  155.905   69.603
  335.250    7.512    0.440    0.271  155.970   69.337
  335.500    7.451    0.438    0.261  155.546   68.198
  335.750    7.391    0.437    0.268  155.131   66.755
