~VERSION INFORMATION
 VERS.                 2.0:   CWLS LOG ASCII STANDARD -VERSION 2.0
 WRAP.                  NO:   ONE LINE PER DEPTH STEP
~WELL INFORMATION BLOCK
#MNEM.UNIT           DATA                    DESCRIPTION OF MNEMONIC
#---------    -------------------            -------------------------------
# Generated from Intellog Unique Number	nealta/WELL/2301
WELL.         AMOCO BRINTNELL                : Well_name    - WELL
LOC .         05-24-080-23W4                 : Location     - LOCATION
UWI .         00/05-24-080-23W4/0            : Uwi          - UNIQUE WELL ID
ENTR.         MAX                            : Entered      - ENTERED BY
SRVC.         COMPUTALOG                     : Scn          - SERVICE COMPANY
STRT.M        215                            : top_depth    - START DEPTH
STOP.M        445                            : bot_depth    - STOP DEPTH
STEP.M        0.25                           : increment    - STEP LENGTH
 NULL. -999.2500:NULL Value
~CURVE INFORMATION BLOCK
#MNEM UNIT       ERCB CURVE CODE    CURVE DESCRIPTION
#-----------   ------------------   ----------------------------------
DEPT.M        00 001 00 00         : DEPTH        - DEPTH
NPHI.V/V      00 330 00 00         : PHIN         - NEUTRON POROSITY (SANDSTONE)
CALI.MM       00 280 01 00         : CAL          - CALIPER
ILD .OHMM     00 120 00 00         : RESD         - DEEP RESISTIVITY (DIL)
GR  .API      00 310 00 00         : GR           - GAMMA RAY
DPHI.V/V      00 890 00 00         : PHID         - DENSITY POROSITY (SANDSTONE)
~PARAMETER INFORMATION
#MNEM.UNIT           DATA             DESCRIPTION OF MNEMONIC
#---------         -----------     ------------------------------
GL  .M        583                  : gl           - GROUND LEVEL ELEVATION
EREF.M        587.65               : kb           - ELEVATION OF DEPTH REFERENCE
DATM.M        583                  : datum        - DATUM ELEVATION
TDD .M        444                  : tdd          - TOTAL DEPTH DRILLER
RUN .         ONE                  : Run          - RUN NUMBER
ENG .         BILL                 : Engineer     - RECORDING ENGINEER
WIT .         JIM                  : Witness      - WITNESSED BY
MUD .         GEL                  : Mud_type     - MUD TYPE
MATR.         SANDSTONE            : Logunit      - NEUTRON MATRIX
TMAX.C        29                   : BHT          - MAXIMUM RECORDED TEMPERATURE
BHTD.M        444                  : BHTDEP       - MAXIMUM RECORDED TEMPERATURE
MATR.         1                    : LOGUNIT      - NEUTRON MATRIX
RMT .C        10                   : MDTP         - TEMPERATURE OF MUD
NEUT.         1                    : NEUTRON      - NEUTRON TYPE
RESI.         0                    : RESIST       - RESISTIVITY TYPE
RMC .OHMM     10.2                 : RMC          - RESISTIVITY OF MUD CAKE
RMF .OHMM     5.9                  : RMF          - RESISTIVITY OF MUD FILTRATE
SUFT.C        -20                  : SUFT         - SURFACE TEMPERATURE
~A  DEPTH     PHIN      CAL     RESD       GR     PHID
# ...
  288.000    0.409  223.841    9.561   77.158    0.281
  288.250    0.407  223.872    9.632   78.789    0.283
  288.500    0.404  223.899    9.634   80.824    0.286
  288.750    0.411  223.518    9.634   80.596    0.290
  289.000    0.413  223.442    9.636   79.460    0.292
  289.250    0.411  223.468    9.743   78.627    0.294
  289.500    0.410  223.594    9.905   78.400    0.296
  289.750    0.418  224.112    9.892   78.177    0.293
  290.000    0.419  224.557    9.819   78.191    0.283
  290.250    0.411  224.991    9.679   78.689    0.273
  290.500    0.410  224.812    9.593   79.009    0.233
  290.750    0.409  224.631    9.698   79.388    0.191
  291.000    0.408  224.552   10.037   79.765    0.176
  291.250    0.412  223.928   10.735   78.370    0.235
  291.500    0.407  222.696   11.675   71.324    0.279
  291.750    0.395  221.918   12.817   68.678    0.307
  292.000    0.395  222.043   13.788   66.755    0.328
  292.250    0.401  222.873   14.821   64.349    0.342
  292.500    0.404  223.904   15.925   61.038    0.352
  292.750    0.397  224.336   16.739   57.184    0.359
  293.000    0.390  224.360   17.257   57.197    0.362
  293.250    0.389  223.586   17.385   56.727    0.353
  293.500    0.392  223.105   17.325   55.713    0.350
  293.750    0.392  223.329   17.013   54.759    0.348
  294.000    0.388  224.059   16.181   54.653    0.344
  294.250    0.386  224.494   13.997   57.324    0.334
  294.500    0.394  224.523   11.803   62.130    0.324
  294.750    0.398  224.549    8.156   68.681    0.320
  295.000    0.400  224.268    6.725   74.325    0.315
  295.250    0.413  224.088    5.799   80.271    0.306
  295.500    0.436  224.416    5.125   86.155    0.296
  295.750    0.459  225.663    4.657   91.054    0.290
  296.000    0.473  225.682    4.165   96.113    0.287
  296.250    0.505  225.708    3.987   97.582    0.294
  296.500    0.507  225.431    3.988   93.966    0.299
  296.750    0.485  225.051    4.191   89.865    0.301
  297.000    0.454  224.772    4.597   87.582    0.304
  297.250    0.430  224.801    5.259   86.966    0.314
  297.500    0.415  224.833    5.990   86.222    0.323
  297.750    0.409  224.456    6.812   83.331    0.326
  298.000    0.410  224.377    7.873   80.625    0.330
  298.250    0.405  224.199    8.902   78.825    0.335
  298.500    0.398  223.924    9.603   78.112    0.340
  298.750    0.419  223.955    9.976   78.179    0.347
  299.000    0.465  223.979   10.053   78.447    0.352
  299.250    0.471  224.004   10.127   82.095    0.354
  299.500    0.457  224.026   10.313   82.653    0.350
  299.750    0.445  224.050   10.691   78.673    0.344
  300.000    0.442  224.077   11.328   72.879    0.338
  300.250    0.438  224.105   12.513   72.122    0.338
  300.500    0.410  224.129   13.820   71.883    0.337
  300.750    0.403  224.967   14.227   68.510    0.334
  301.000    0.398  224.887   14.412   65.136    0.330
  301.250    0.413  224.707   14.361   62.730    0.328
  301.500    0.439  224.733   14.078   62.381    0.331
  301.750    0.438  224.764   13.540   65.960    0.342
  302.000    0.417  224.790   13.339   69.258    0.351
  302.250    0.414  224.813   13.341   69.999    0.346
  302.500    0.412  224.852   12.982   71.465    0.337
  302.750    0.411  224.877   12.051   73.535    0.335
  303.000    0.420  224.889   10.708   76.817    0.340
  303.250    0.464  224.918    9.038   83.956    0.342
  303.500    0.504  224.947    7.963   90.528    0.339
  303.750    0.510  224.572    7.679   93.449    0.342
  304.000    0.499  224.493    7.612   89.651    0.343
  304.250    0.481  224.515    7.613   84.581    0.343
  304.500    0.466  224.539    7.696   80.966    0.343
  304.750    0.462  224.572    8.160   78.603    0.349
  305.000    0.459  224.596    8.806   77.614    0.349
  305.250    0.452  224.622    9.463   76.177    0.341
  305.500    0.440  224.648    9.643   75.283    0.343
  305.750    0.428  224.270    9.853   74.571    0.349
  306.000    0.419  223.690   10.296   74.161    0.355
  306.250    0.414  223.717   10.806   75.269    0.360
  306.500    0.413  223.742   11.056   78.311    0.364
  306.750    0.436  223.364   10.898   78.325    0.361
  307.000    0.448  222.986   10.684   77.612    0.357
  307.250    0.451  222.608   10.456   76.659    0.353
  307.500    0.447  222.330   10.232   76.130    0.351
  307.750    0.440  222.275    9.968   77.329    0.346
  308.000    0.441  221.884    9.747   79.613    0.342
  308.250    0.446  221.504    9.748   79.869    0.335
  308.500    0.443  221.428    9.750   80.672    0.333
  308.750    0.439  221.253    9.787   81.535    0.338
  309.000    0.440  220.977    9.859   81.972    0.347
  309.250    0.444  221.087    9.933   81.203    0.345
  309.500    0.440  221.534    9.934   79.707    0.341
  309.750    0.430  221.559   10.008   78.028    0.342
  310.000    0.429  221.888    9.919   77.073    0.342
  310.250    0.424  222.317    9.489   77.451    0.341
  310.500    0.415  222.647    8.561   79.343    0.338
  310.750    0.418  222.767    6.894   83.414    0.328
  311.000    0.435  223.200    5.771   87.969    0.303
  311.250    0.442  223.629    5.247   90.645    0.292
  311.500    0.457  223.754    4.992   92.778    0.277
  311.750    0.459  223.778    5.185   94.972    0.267
  312.000    0.448  223.804    5.902   95.653    0.264
  312.250    0.433  223.834    7.394   89.357    0.280
  312.500    0.408  223.858    9.773   80.800    0.314
  312.750    0.282  223.886   12.492   75.489    0.285
  313.000    0.225  224.213   16.348   70.723    0.169
  313.250    0.202  224.438   22.084   66.381    0.089
  313.500    0.191  224.462   29.072   62.705    0.074
  313.750    0.196  224.577   29.953   60.202    0.055
  314.000    0.229  225.027   28.001   59.714    0.059
  314.250    0.265  225.053   20.750   67.715    0.136
  314.500    0.369  225.381   16.909   76.626    0.217
  314.750    0.437  225.606   12.698   83.782    0.254
  315.000    0.434  225.628    9.464   86.944    0.246
  315.250    0.386  225.493    7.911   82.886    0.229
  315.500    0.344  224.680    8.094   75.842    0.193
  315.750    0.330  224.297    8.760   68.353    0.095
  316.000    0.381  223.919    9.584   75.568    0.140
  316.250    0.416  223.742    9.992   84.419    0.195
  316.500    0.416  223.768    9.739   89.880    0.209
  316.750    0.430  223.729    9.125   95.336    0.210
  317.000    0.443  223.317    8.789   97.120    0.212
  317.250    0.447  223.345    8.791   99.309    0.218
  317.500    0.450  223.370    8.888  101.503    0.224
  317.750    0.450  223.393    9.051  100.913    0.227
  318.000    0.442  223.416    9.219   97.841    0.229
  318.250    0.421  223.447    9.288   95.982    0.234
  318.500    0.432  223.474    9.289   97.511    0.239
  318.750    0.433  223.500    9.291   95.106    0.241
  319.000    0.435  223.525    9.292   95.606    0.240
  319.250    0.445  223.550    9.226   97.074    0.237
  319.500    0.460  223.574    9.094   97.513    0.233
  319.750    0.468  223.607    8.938   94.870    0.228
  320.000    0.455  223.631    8.806   94.884    0.225
  320.250    0.437  223.251    8.743   97.318    0.225
  320.500    0.421  223.177    8.681  101.207    0.227
  320.750    0.421  222.999    8.619  103.522    0.229
  321.000    0.432  222.417    8.527  103.415    0.233
  321.250    0.432  221.158    8.345  101.163    0.250
  321.500    0.437  220.762    8.347   95.882    0.254
  321.750    0.449  220.783    8.348   92.268    0.251
  322.000    0.457  220.807    8.394   93.555    0.244
  322.250    0.458  220.835    8.457   94.294    0.238
  322.500    0.451  220.864    8.504   93.159    0.237
  322.750    0.439  220.892    8.493   93.392    0.248
  323.000    0.432  220.916    8.430   95.675    0.252
  323.250    0.419  221.347    8.190   96.901    0.251
  323.500    0.415  221.471    8.044   97.036    0.247
  323.750    0.421  221.697    7.987   96.325    0.245
  324.000    0.431  222.027    8.017   94.646    0.243
  324.250    0.429  222.057    8.209   91.566    0.244
