~VERSION INFORMATION
 VERS.                 2.0:   CWLS LOG ASCII STANDARD -VERSION 2.0
 WRAP.                  NO:   ONE LINE PER DEPTH STEP
~WELL INFORMATION BLOCK
#MNEM.UNIT           DATA                    DESCRIPTION OF MNEMONIC
#---------    -------------------            -------------------------------
# Generated from Intellog Unique Number	nealta/WELL/2301
WELL.         AMOCO BRINTNELL                : Well_name    - WELL
LOC .         05-24-080-23W4                 : Location     - LOCATION
UWI .         00/05-24-080-23W4/0            : Uwi          - UNIQUE WELL ID
ENTR.         MAX                            : Entered      - ENTERED BY
SRVC.         COMPUTALOG                     : Scn          - SERVICE COMPANY
STRT.M        215                            : top_depth    - START DEPTH
STOP.M        445                            : bot_depth    - STOP DEPTH
STEP.M        0.25                           : increment    - STEP LENGTH
 NULL. -999.2500:NULL Value
~CURVE INFORMATION BLOCK
#MNEM UNIT       ERCB CURVE CODE    CURVE DESCRIPTION
#-----------   ------------------   ----------------------------------
DEPT.M        00 001 00 00         : DEPTH        - DEPTH
NPHI.V/V      00 330 00 00         : PHIN         - NEUTRON POROSITY (SANDSTONE)
CALI.MM       00 280 01 00         : CAL          - CALIPER
ILD .OHMM     00 120 00 00         : RESD         - DEEP RESISTIVITY (DIL)
GR  .API      00 310 00 00         : GR           - GAMMA RAY
DPHI.V/V      00 890 00 00         : PHID         - DENSITY POROSITY (SANDSTONE)
~PARAMETER INFORMATION
#MNEM.UNIT           DATA             DESCRIPTION OF MNEMONIC
#---------         -----------     ------------------------------
GL  .M        583                  : gl           - GROUND LEVEL ELEVATION
EREF.M        587.65               : kb           - ELEVATION OF DEPTH REFERENCE
DATM.M        583                  : datum        - DATUM ELEVATION
TDD .M        444                  : tdd          - TOTAL DEPTH DRILLER
RUN .         ONE                  : Run          - RUN NUMBER
ENG .         BILL                 : Engineer     - RECORDING ENGINEER
WIT .         JIM                  : Witness      - WITNESSED BY
MUD .         GEL                  : Mud_type     - MUD TYPE
MATR.         SANDSTONE            : Logunit      - NEUTRON MATRIX
TMAX.C        29                   : BHT          - MAXIMUM RECORDED TEMPERATURE
BHTD.M        444                  : BHTDEP       - MAXIMUM RECORDED TEMPERATURE
MATR.         1                    : LOGUNIT      - NEUTRON MATRIX
RMT .C        10                   : MDTP         - TEMPERATURE OF MUD
NEUT.         1                    : NEUTRON      - NEUTRON TYPE
RESI.         0                    : RESIST       - RESISTIVITY TYPE
RMC .OHMM     10.2                 : RMC          - RESISTIVITY OF MUD CAKE
RMF .OHMM     5.9                  : RMF          - RESISTIVITY OF MUD FILTRATE
SUFT.C        -20                  : SUFT         - SURFACE TEMPERATURE
~A  DEPTH     PHIN      CAL     RESD       GR     PHID
  215.000    0.502  261.675    7.152   95.314    0.334
  215.250    0.523  262.537    6.783   90.793    0.332
  215.500    0.499  263.335    6.569   87.904    0.334
  215.750    0.473  263.361    6.358   86.345    0.335
  216.000    0.467  262.476    6.144   86.056    0.335
  216.250    0.485  261.126    5.979   86.265    0.339
  216.500    0.476  260.312    6.026   86.029    0.337
  216.750    0.466  260.739    6.293   83.380    0.321
  217.000    0.460  260.865    7.174   79.461    0.313
  217.250    0.447  260.288    8.587   73.304    0.318
  217.500    0.422  259.006   10.441   64.787    0.332
  217.750    0.390  257.506   13.007   53.881    0.335
  218.000    0.376  257.945   15.767   50.115    0.333
  218.250    0.361  259.180   19.748   47.224    0.344
  218.500    0.356  259.511   22.704   43.608    0.349
  218.750    0.362  259.535   24.197   40.113    0.348
  219.000    0.375  259.759   24.645   37.768    0.345
  219.250    0.379  260.683   24.904   38.240    0.343
  219.500    0.377  261.127   25.287   40.526    0.343
  219.750    0.377  261.559   25.663   43.690    0.341
  220.000    0.376  265.012   26.040   43.400    0.337
  220.250    0.365  272.297   26.706   41.597    0.336
  220.500    0.342  282.710   27.889   40.039    0.332
  220.750    0.312  297.401   30.354   40.249    0.303
  221.000    0.280  314.234   33.524   40.012    0.274
  221.250    0.244  295.700   37.062   40.513    0.223
  221.500    0.182  282.008   43.131   42.100    0.173
  221.750    0.154  278.202   50.858   43.326    0.179
  222.000    0.171  282.061   57.779   43.645    0.233
  222.250    0.194  285.786   60.114   43.570    0.256
  222.500    0.199  294.220   61.038   44.344    0.233
  222.750    0.181  288.998   61.938   45.084    0.196
  223.000    0.171  289.531   62.512   44.917    0.165
  223.250    0.172  291.171   63.203   44.327    0.169
  223.500    0.179  291.294   64.251   43.433    0.201
  223.750    0.179  289.312   65.680   41.950    0.217
  224.000    0.195  289.334   65.691   41.717    0.191
  224.250    0.209  292.181   64.751   41.730    0.174
  224.500    0.201  291.701   63.129   40.109    0.184
  224.750    0.198  296.368   61.787   37.582    0.209
  225.000    0.216  310.212   61.019   35.965    0.261
  225.250    0.261  328.291   60.679   38.262    0.376
  225.500    0.252  305.624   61.148   38.779    0.358
  225.750    0.226  297.985   61.158   38.798    0.326
  226.000    0.206  305.776   61.166   39.719    0.331
  226.250    0.203  309.433   61.397   40.822    0.341
  226.500    0.218  304.515   61.965   41.501    0.332
  226.750    0.242  300.373   63.257   41.328    0.281
  227.000    0.251  293.678   65.215   41.596    0.265
  227.250    0.224  291.684   67.136   41.370    0.212
  227.500    0.197  290.901   69.489   40.053    0.177
  227.750    0.188  291.129   72.574   38.857    0.168
  228.000    0.196  292.066   75.847   38.388    0.182
  228.250    0.202  293.892   76.326   38.800    0.208
  228.500    0.180  296.855   70.823   39.575    0.204
  228.750    0.186  356.590   60.655   39.596    0.200
  229.000    0.274  380.923   56.032   40.152    0.236
  229.250    0.367  382.159   55.455   41.373    0.363
  229.500    0.402  371.493   57.914   42.960    0.512
  229.750    0.319  357.503   62.858   44.288    0.483
  230.000    0.252  349.968   68.360   44.810    0.428
  230.250    0.249  364.111   75.046   43.370    0.354
  230.500    0.224  327.119   77.353   40.843    0.243
  230.750    0.197  298.500   73.082   40.011    0.196
  231.000    0.196  298.125   64.467   41.722    0.238
  231.250    0.268  304.369   55.111   45.645    0.324
  231.500    0.336  295.148   53.089   49.441    0.341
  231.750    0.366  283.479   52.326   54.298    0.340
  232.000    0.373  278.766   52.428   57.156    0.339
  232.250    0.378  277.377   54.141   58.140    0.338
  232.500    0.386  277.499   57.591   57.490    0.339
  232.750    0.392  279.645   63.058   56.628    0.349
  233.000    0.408  282.193   69.109   61.939    0.358
  233.250    0.424  283.429   72.695   59.292    0.362
  233.500    0.403  287.386   74.058   55.191    0.361
  233.750    0.377  294.068   73.798   53.027    0.371
  234.000    0.370  308.214   73.013   53.103    0.392
  234.250    0.401  341.326   73.782   52.234    0.413
  234.500    0.426  351.441   77.823   50.233    0.444
  234.750    0.443  345.816   76.710   50.731    0.451
  235.000    0.449  288.451   64.761   52.502    0.438
  235.250    0.425  246.112   53.351   55.059    0.395
  235.500    0.383  237.464   45.074   58.281    0.344
  235.750    0.371  232.133   38.302   62.265    0.334
  236.000    0.404  227.540   34.759   61.520    0.336
  236.250    0.416  225.142   32.791   59.358    0.351
  236.500    0.409  224.260   31.985   57.922    0.360
  236.750    0.398  224.487   32.560   57.694    0.361
  237.000    0.394  225.319   33.907   58.798    0.356
  237.250    0.408  226.070   34.160   61.449    0.351
  237.500    0.429  225.676   34.165   63.734    0.354
  237.750    0.440  225.293   34.669   66.171    0.358
  238.000    0.442  225.521   36.325   66.790    0.360
  238.250    0.444  225.550   37.829   64.382    0.359
  238.500    0.447  225.073   38.390   59.858    0.358
  238.750    0.447  224.212   38.062   55.841    0.356
  239.000    0.444  223.813   37.781   53.841    0.355
  239.250    0.424  223.838   36.703   54.341    0.358
  239.500    0.412  223.866   35.854   57.562    0.359
  239.750    0.409  223.687   34.698   60.119    0.359
  240.000    0.411  223.507   33.039   60.317    0.359
  240.250    0.418  223.945   30.442   57.953    0.358
  240.500    0.417  223.967   28.038   56.959    0.362
  240.750    0.428  223.586   25.871   59.152    0.362
  241.000    0.438  223.512   23.076   61.164    0.358
  241.250    0.445  223.538   20.643   61.058    0.353
  241.500    0.443  223.764   18.922   58.895    0.348
  241.750    0.426  224.604   17.967   56.634    0.347
  242.000    0.406  224.631   17.834   56.144    0.350
  242.250    0.399  225.055   18.759   58.338    0.352
  242.500    0.420  225.483   20.472   61.623    0.354
  242.750    0.443  225.709   21.974   62.971    0.356
  243.000    0.447  225.833   22.630   61.653    0.357
  243.250    0.419  226.353   22.798   59.046    0.355
  243.500    0.419  226.805   22.801   58.055    0.348
  243.750    0.441  227.229   22.640   58.311    0.342
  244.000    0.452  227.352   22.972   58.568    0.342
  244.250    0.450  227.175   23.397   59.431    0.356
  244.500    0.441  226.798   23.700   60.657    0.380
  244.750    0.439  226.595   23.913   61.160    0.392
  245.000    0.433  227.456   24.098   61.171    0.381
  245.250    0.432  234.340   24.630   59.250    0.369
  245.500    0.440  241.527   24.904   60.415    0.370
  245.750    0.445  247.807   25.089   59.825    0.370
  246.000    0.437  251.767   25.321   56.874    0.364
  246.250    0.408  251.124   25.773   55.604    0.354
  246.500    0.399  247.791   26.169   57.638    0.344
  246.750    0.394  237.323   26.173   60.315    0.349
  247.000    0.407  230.791   26.177   60.813    0.350
  247.250    0.409  227.389   25.704   61.312    0.351
  247.500    0.399  226.105   24.979   61.811    0.358
  247.750    0.391  225.728   24.914   59.732    0.378
  248.000    0.391  225.750   25.490   57.731    0.379
  248.250    0.398  225.372   24.582   56.534    0.358
  248.500    0.411  224.692   23.446   55.701    0.336
  248.750    0.419  223.508   22.456   55.231    0.322
  249.000    0.418  222.022   21.941   55.489    0.326
  249.250    0.416  220.754   22.497   57.555    0.356
  249.500    0.423  220.363   23.728   59.336    0.368
  249.750    0.412  220.794   24.604   59.592    0.372
  250.000    0.400  220.615   24.566   59.484    0.377
  250.250    0.401  220.439   23.680   59.500    0.378
  250.500    0.409  220.568   22.396   59.516    0.372
  250.750    0.399  220.997   21.298   58.606    0.357
  251.000    0.400  221.021   21.298   57.611    0.345
  251.250    0.410  220.239   21.151   55.933    0.343
