~VERSION INFORMATION
 VERS.                 2.0:   CWLS LOG ASCII STANDARD -VERSION 2.0
 WRAP.                  NO:   ONE LINE PER DEPTH STEP
~WELL INFORMATION BLOCK
#MNEM.UNIT           DATA                    DESCRIPTION OF MNEMONIC
#---------    -------------------            -------------------------------
# Generated from Intellog Unique Number	nealta/WELL/2301
WELL.         AMOCO BRINTNELL                : Well_name    - WELL
LOC .         05-24-080-23W4                 : Location     - LOCATION
UWI .         00/05-24-080-23W4/0            : Uwi          - UNIQUE WELL ID
ENTR.         MAX                            : Entered      - ENTERED BY
SRVC.         COMPUTALOG                     : Scn          - SERVICE COMPANY
STRT.M        215                            : top_depth    - START DEPTH
STOP.M        445                            : bot_depth    - STOP DEPTH
STEP.M        0.25                           : increment    - STEP LENGTH
 NULL. -999.2500:NULL Value
~CURVE INFORMATION BLOCK
#MNEM UNIT       ERCB CURVE CODE    CURVE DESCRIPTION
#-----------   ------------------   ----------------------------------
DEPT.M        00 001 00 00         : DEPTH        - DEPTH
NPHI.V/V      00 330 00 00         : PHIN         - NEUTRON POROSITY (SANDSTONE)
CALI.MM       00 280 01 00         : CAL          - CALIPER
ILD .OHMM     00 120 00 00         : RESD         - DEEP RESISTIVITY (DIL)
GR  .API      00 310 00 00         : GR           - GAMMA RAY
DPHI.V/V      00 890 00 00         : PHID         - DENSITY POROSITY (SANDSTONE)
~PARAMETER INFORMATION
#MNEM.UNIT           DATA             DESCRIPTION OF MNEMONIC
#---------         -----------     ------------------------------
GL  .M        583                  : gl           - GROUND LEVEL ELEVATION
EREF.M        587.65               : kb           - ELEVATION OF DEPTH REFERENCE
DATM.M        583                  : datum        - DATUM ELEVATION
TDD .M        444                  : tdd          - TOTAL DEPTH DRILLER
RUN .         ONE                  : Run          - RUN NUMBER
ENG .         BILL                 : Engineer     - RECORDING ENGINEER
WIT .         JIM                  : Witness      - WITNESSED BY
MUD .         GEL                  : Mud_type     - MUD TYPE
MATR.         SANDSTONE            : Logunit      - NEUTRON MATRIX
TMAX.C        29                   : BHT          - MAXIMUM RECORDED TEMPERATURE
BHTD.M        444                  : BHTDEP       - MAXIMUM RECORDED TEMPERATURE
MATR.         1                    : LOGUNIT      - NEUTRON MATRIX
RMT .C        10                   : MDTP         - TEMPERATURE OF MUD
NEUT.         1                    : NEUTRON      - NEUTRON TYPE
RESI.         0                    : RESIST       - RESISTIVITY TYPE
RMC .OHMM     10.2                 : RMC          - RESISTIVITY OF MUD CAKE
RMF .OHMM     5.9                  : RMF          - RESISTIVITY OF MUD FILTRATE
SUFT.C        -20                  : SUFT         - SURFACE TEMPERATURE
~A  DEPTH     PHIN      CAL     RESD       GR     PHID
# ...
  324.500    0.427  222.078    8.592   91.834    0.247
  324.750    0.431  222.104    9.038   91.124    0.264
  325.000    0.431  221.825    9.559   88.234    0.269
  325.250    0.430  221.446    9.812   85.948    0.271
  325.500    0.428  221.168    9.689   85.720    0.271
  325.750    0.423  221.197    9.283   87.978    0.265
  326.000    0.420  221.226    8.678   89.506    0.265
  326.250    0.422  221.252    8.369   90.730    0.260
  326.500    0.424  221.276    8.206   93.227    0.249
  326.750    0.429  221.301    8.059   94.695    0.239
  327.000    0.432  221.227    7.887   94.225    0.232
  327.250    0.428  220.852    7.696   92.611    0.228
  327.500    0.430  220.879    7.582   94.137    0.227
  327.750    0.433  220.902    7.638   96.332    0.241
  328.000    0.424  221.229    7.778   95.439    0.259
  328.250    0.412  221.254    8.119   90.975    0.277
  328.500    0.406  220.874    8.656   84.696    0.288
  328.750    0.415  220.418    9.274   80.651    0.287
  329.000    0.405  220.027    9.781   80.919    0.280
  329.250    0.398  220.048    9.998   83.594    0.276
  329.500    0.401  219.771   10.164   83.188    0.277
  329.750    0.408  219.393   10.314   80.298    0.273
  330.000    0.410  219.115   10.447   76.620    0.262
  330.250    0.405  219.146   10.525   75.096    0.248
  330.500    0.399  219.172   10.527   75.868    0.284
  330.750    0.397  219.195   10.452   77.818    0.284
  331.000    0.404  219.220   10.265   78.862    0.278
  331.250    0.412  219.247    9.971   78.877    0.274
  331.500    0.419  219.274    9.618   77.499    0.273
  331.750    0.425  219.301    9.164   74.784    0.265
  332.000    0.411  219.323    8.631   78.078    0.251
  332.250    0.395  219.323    8.083   82.692    0.249
  332.500    0.401  219.365    7.699   86.761    0.254
  332.750    0.414  219.202    7.427   90.286    0.258
  333.000    0.423  218.921    7.243   93.267    0.260
  333.250    0.420  218.868    7.129   95.657    0.264
  333.500    0.418  218.474    7.077   95.421    0.273
  333.750    0.412  218.497    7.078   92.045    0.270
  334.000    0.435  218.823    7.117   88.853    0.240
  334.250    0.452  219.654    7.118   89.352    0.221
  334.500    0.452  221.092    7.055   93.481    0.225
  334.750    0.448  223.561    6.934   97.564    0.234
  335.000    0.443  225.694    6.831   97.327    0.232
  335.250    0.439  226.922    6.684   94.922    0.241
  335.500    0.439  227.230    6.578   92.879    0.254
  335.750    0.442  227.457    6.508   92.168    0.263
  336.000    0.448  227.502    6.485   92.545    0.264
  336.250    0.452  225.986    6.572   91.909    0.260
  336.500    0.436  224.332    6.775   88.644    0.254
  336.750    0.311  222.338    7.758   82.609    0.172
  337.000    0.264  221.255    9.620   75.300    0.118
  337.250    0.252  220.677   11.921   69.748    0.091
  337.500    0.255  220.399   13.647   67.707    0.092
  337.750    0.302  220.424   14.150   70.971    0.127
  338.000    0.402  220.448   13.630   77.543    0.161
  338.250    0.435  220.474   12.209   87.240    0.253
  338.500    0.441  220.503   10.694   91.128    0.280
  338.750    0.438  220.527    9.467   91.263    0.280
  339.000    0.435  220.547    8.649   89.464    0.274
  339.250    0.435  220.579    8.247   87.505    0.260
  339.500    0.430  220.608    8.063   88.530    0.253
  339.750    0.415  221.037    7.833   88.302    0.255
  340.000    0.427  221.464    7.652   90.799    0.247
  340.250    0.440  222.095    7.571   94.325    0.239
  340.500    0.445  222.829    7.571   96.881    0.235
  340.750    0.454  223.345    7.562   95.162    0.239
  341.000    0.462  223.784    7.506   90.137    0.242
  341.250    0.447  224.617    7.345   89.424    0.249
  341.500    0.436  225.147    7.227   91.076    0.250
  341.750    0.429  225.577    7.177   92.906    0.251
  342.000    0.430  226.108    7.178   93.948    0.253
  342.250    0.446  227.027    7.179   93.796    0.251
  342.500    0.442  227.474    7.180   90.534    0.246
  342.750    0.448  228.710    7.181   89.823    0.237
  343.000    0.452  229.642    7.182   91.108    0.237
  343.250    0.451  230.271    7.235   93.181    0.242
  343.500    0.445  230.800    7.355   94.770    0.250
  343.750    0.437  231.889    7.574   94.445    0.262
  344.000    0.432  233.182    7.868   93.958    0.275
  344.250    0.454  230.779    8.336   93.728    0.275
  344.500    0.451  226.871    8.973   90.049    0.276
  344.750    0.429  223.267    9.819   83.527    0.280
  345.000    0.399  220.670   10.895   76.160    0.286
  345.250    0.381  218.512   12.430   70.530    0.295
  345.500    0.381  217.696   13.942   66.510    0.292
  345.750    0.382  217.318   15.413   62.169    0.279
  346.000    0.374  217.544   17.759   59.098    0.235
  346.250    0.383  218.173   18.908   57.055    0.209
  346.500    0.410  218.804   17.683   59.973    0.220
  346.750    0.429  218.837   15.161   79.951    0.254
  347.000    0.428  218.861   13.457   99.887    0.255
  347.250    0.363  218.890   13.265   84.654    0.220
  347.500    0.315  219.215   13.725   76.861    0.190
  347.750    0.287  219.439   14.743   71.430    0.159
  348.000    0.277  219.465   16.239   66.907    0.134
  348.250    0.283  219.579   18.264   65.674    0.134
  348.500    0.315  220.024   19.711   66.697    0.163
  348.750    0.359  219.646   19.430   72.521    0.212
  349.000    0.392  218.056   17.502   79.435    0.243
  349.250    0.414  216.669   14.992   84.898    0.256
  349.500    0.428  216.092   12.861   87.153    0.257
  349.750    0.436  215.895   10.725   86.408    0.257
  350.000    0.442  214.781    7.893   92.300    0.245
  350.250    0.438  214.865    7.790   92.098    0.235
  350.500    0.430  214.344    7.985   91.363    0.248
  350.750    0.424  213.819    8.203   89.357    0.261
  351.000    0.424  213.692    8.303   86.441    0.261
  351.250    0.436  214.274    8.328   84.437    0.246
  351.500    0.447  214.790    8.403   86.243    0.234
  351.750    0.445  215.269    8.476   92.100    0.246
  352.000    0.439  215.760    8.594   93.240    0.258
  352.250    0.431  216.247    8.700   91.962    0.260
  352.500    0.424  216.828    8.743   90.501    0.252
  352.750    0.415  218.070    8.653   90.935    0.243
  353.000    0.399  219.829    8.471   90.483    0.239
  353.250    0.414  221.534    8.180   88.351    0.236
  353.500    0.417  222.918    7.855   88.762    0.231
  353.750    0.418  223.998    7.614   90.993    0.225
  354.000    0.417  224.982    7.474   93.284    0.220
  354.250    0.404  226.381    7.368   92.603    0.224
  354.500    0.399  226.906    7.321   91.395    0.229
  354.750    0.419  226.973    7.331   92.409    0.227
  355.000    0.426  226.447    7.301   95.059    0.226
  355.250    0.425  225.724    7.206   97.892    0.226
  355.500    0.423  225.000    7.047  100.059    0.227
  355.750    0.433  224.202    6.816  100.724    0.228
  356.000    0.445  223.869    6.622   97.746    0.228
  356.250    0.436  223.138    6.632   95.614    0.231
  356.500    0.428  223.030    6.748   93.852    0.235
  356.750    0.431  223.320    7.004   92.450    0.245
  357.000    0.441  223.899    7.288   90.439    0.258
  357.250    0.441  224.799    7.356   85.494    0.262
  357.500    0.416  224.886    7.717   83.529    0.277
  357.750    0.394  225.356    9.160   79.462    0.282
  358.000    0.383  225.543   10.358   76.490    0.281
  358.250    0.383  225.635   11.708   75.569    0.273
  358.500    0.387  225.721   13.330   76.158    0.263
  358.750    0.388  225.805   14.344   76.171    0.255
  359.000    0.379  225.892   14.806   75.961    0.250
  359.250    0.381  225.993   14.717   77.231    0.244
  359.500    0.389  226.062   14.473   77.401    0.235
  359.750    0.385  226.133   14.851   74.419    0.209
  360.000    0.342  226.116   16.280   68.109    0.158
  360.250    0.219  225.815   19.242   59.726    0.074
  360.500    0.186  225.911   20.314   57.510    0.053
  360.750    0.171  225.978   23.124   59.737    0.030
