~VERSION INFORMATION
 VERS.                 2.0:   CWLS LOG ASCII STANDARD -VERSION 2.0
 WRAP.                  NO:   ONE LINE PER DEPTH STEP
~WELL INFORMATION BLOCK
#MNEM.UNIT           DATA                    DESCRIPTION OF MNEMONIC
#---------    -------------------            -------------------------------
# Generated from Intellog Unique Number	nealta/WELL/2301
WELL.         AMOCO BRINTNELL                : Well_name    - WELL
LOC .         05-24-080-23W4                 : Location     - LOCATION
UWI .         00/05-24-080-23W4/0            : Uwi          - UNIQUE WELL ID
ENTR.         MAX                            : Entered      - ENTERED BY
SRVC.         COMPUTALOG                     : Scn          - SERVICE COMPANY
STRT.M        215                            : top_depth    - START DEPTH
STOP.M        445                            : bot_depth    - STOP DEPTH
STEP.M        0.25                           : increment    - STEP LENGTH
 NULL. -999.2500:NULL Value
~CURVE INFORMATION BLOCK
#MNEM UNIT       ERCB CURVE CODE    CURVE DESCRIPTION
#-----------   ------------------   ----------------------------------
DEPT.M        00 001 00 00         : DEPTH        - DEPTH
NPHI.V/V      00 330 00 00         : PHIN         - NEUTRON POROSITY (SANDSTONE)
CALI.MM       00 280 01 00         : CAL          - CALIPER
ILD .OHMM     00 120 00 00         : RESD         - DEEP RESISTIVITY (DIL)
GR  .API      00 310 00 00         : GR           - GAMMA RAY
DPHI.V/V      00 890 00 00         : PHID         - DENSITY POROSITY (SANDSTONE)
~PARAMETER INFORMATION
#MNEM.UNIT           DATA             DESCRIPTION OF MNEMONIC
#---------         -----------     ------------------------------
GL  .M        583                  : gl           - GROUND LEVEL ELEVATION
EREF.M        587.65               : kb           - ELEVATION OF DEPTH REFERENCE
DATM.M        583                  : datum        - DATUM ELEVATION
TDD .M        444                  : tdd          - TOTAL DEPTH DRILLER
RUN .         ONE                  : Run          - RUN NUMBER
ENG .         BILL                 : Engineer     - RECORDING ENGINEER
WIT .         JIM                  : Witness      - WITNESSED BY
MUD .         GEL                  : Mud_type     - MUD TYPE
MATR.         SANDSTONE            : Logunit      - NEUTRON MATRIX
TMAX.C        29                   : BHT          - MAXIMUM RECORDED TEMPERATURE
BHTD.M        444                  : BHTDEP       - MAXIMUM RECORDED TEMPERATURE
MATR.         1                    : LOGUNIT      - NEUTRON MATRIX
RMT .C        10                   : MDTP         - TEMPERATURE OF MUD
NEUT.         1                    : NEUTRON      - NEUTRON TYPE
RESI.         0                    : RESIST       - RESISTIVITY TYPE
RMC .OHMM     10.2                 : RMC          - RESISTIVITY OF MUD CAKE
RMF .OHMM     5.9                  : RMF          - RESISTIVITY OF MUD FILTRATE
SUFT.C        -20                  : SUFT         - SURFACE TEMPERATURE
~A  DEPTH     PHIN      CAL     RESD       GR     PHID
# ...
  397.500    0.385  223.772   13.202   84.787    0.208
  397.750    0.372  223.939   12.392   85.936    0.199
  398.000    0.378  224.438   12.392   89.013    0.203
  398.250    0.393  225.336   12.245   92.940    0.213
  398.500    0.395  226.518   11.827   94.871    0.217
  398.750    0.391  227.606   11.551   95.405    0.217
  399.000    0.386  228.503   11.482   95.390    0.212
  399.250    0.379  229.493   11.399   96.635    0.198
  399.500    0.370  229.991   11.328  100.216    0.186
  399.750    0.379  230.470   11.267  100.503    0.181
  400.000    0.382  230.659   11.258   99.705    0.177
  400.250    0.379  230.747   11.229  100.121    0.171
  400.500    0.375  230.727   11.184  102.229    0.164
  400.750    0.388  230.499   11.149  105.052    0.166
  401.000    0.405  230.998   10.916  106.869    0.166
  401.250    0.409  231.081   10.849  106.929    0.165
  401.500    0.409  231.159   10.785  107.160    0.166
  401.750    0.410  231.440   10.762  106.960    0.169
  402.000    0.412  231.927   10.759  106.037    0.175
  402.250    0.415  232.431   10.647  104.156    0.182
  402.500    0.419  232.519   10.424  102.948    0.181
  402.750    0.413  231.393   10.139  102.989    0.168
  403.000    0.404  230.563   10.070  104.310    0.158
  403.250    0.397  231.054   10.046  107.385    0.159
  403.500    0.393  232.454   10.013  111.909    0.169
  403.750    0.392  232.851   10.061  116.158    0.184
  404.000    0.391  232.527   10.226  112.928    0.197
  404.250    0.386  231.006   10.617  109.345    0.186
  404.500    0.391  231.584   10.905  107.578    0.180
  404.750    0.400  233.272   11.080  108.352    0.182
  405.000    0.409  235.672   11.135  111.243    0.189
  405.250    0.409  238.995   11.023  114.997    0.195
  405.500    0.407  239.100   10.789  116.557    0.193
  405.750    0.386  237.957   10.569  114.425    0.188
  406.000    0.375  235.314   10.585  111.029    0.175
  406.250    0.374  233.172   10.631  109.749    0.162
  406.500    0.378  232.839   10.695  111.491    0.159
  406.750    0.384  235.127   11.124  114.452    0.181
  407.000    0.408  236.063   12.019  113.229    0.205
  407.250    0.405  235.348   12.478  108.435    0.221
  407.500    0.399  233.103   12.953  103.644    0.216
  407.750    0.383  230.754   13.589   98.611    0.206
  408.000    0.362  229.317   14.568   92.728    0.200
  408.250    0.350  229.328   16.629   84.538    0.200
  408.500    0.353  229.004   19.410   82.075    0.203
  408.750    0.354  228.281   20.879   84.292    0.203
  409.000    0.355  228.150   22.236   92.873    0.198
  409.250    0.360  229.242   22.522  100.064    0.192
  409.500    0.366  231.454   21.463  103.199    0.189
  409.750    0.367  234.386   19.187  104.762    0.181
  410.000    0.371  236.574   16.928  105.067    0.160
  410.250    0.394  240.278   16.928  103.176    0.167
  410.500    0.397  243.996   16.237   95.486    0.193
  410.750    0.379  245.088   15.812   84.882    0.225
  411.000    0.352  239.920   16.444   72.939    0.252
  411.250    0.344  223.032   20.134   58.365    0.271
  411.500    0.346  218.918   23.862   50.598    0.283
  411.750    0.332  217.784   27.551   45.809    0.292
  412.000    0.324  217.563   31.526   42.472    0.297
  412.250    0.322  217.445   37.809   40.584    0.296
  412.500    0.323  217.125   48.570   39.783    0.294
  412.750    0.322  216.823   64.393   39.209    0.299
  413.000    0.329  216.910   78.133   38.505    0.305
  413.250    0.334  216.179   81.111   38.066    0.304
  413.500    0.331  215.750   79.327   38.353    0.301
  413.750    0.324  215.834   77.705   40.095    0.297
  414.000    0.322  216.428   77.184   42.870    0.293
  414.250    0.343  217.584   74.264   44.913    0.293
  414.500    0.345  218.915   70.046   43.942    0.299
  414.750    0.340  219.805   67.617   41.819    0.301
  415.000    0.344  220.701   64.211   43.685    0.300
  415.250    0.349  221.596   59.530   46.637    0.298
  415.500    0.349  222.383   55.622   49.105    0.296
  415.750    0.350  222.877   53.201   51.018    0.292
  416.000    0.370  222.956   43.689   51.811    0.291
  416.250    0.385  223.451   40.355   53.555    0.298
  416.500    0.382  223.625   37.715   56.932    0.300
  416.750    0.376  223.911   35.648   62.916    0.295
  417.000    0.375  224.408   34.128   69.869    0.289
  417.250    0.376  224.901   32.852   73.963    0.287
  417.500    0.371  224.971   31.209   76.031    0.282
  417.750    0.358  225.054   29.697   74.862    0.266
  418.000    0.344  225.075   28.262   70.793    0.245
  418.250    0.338  225.159   26.697   70.843    0.201
  418.500    0.342  225.203   24.804   76.340    0.150
  418.750    0.359  224.808   21.718   85.961    0.150
  419.000    0.371  224.475   18.604  101.147    0.186
  419.250    0.368  224.156   14.129  104.105    0.184
  419.500    0.369  223.836   11.851  103.239    0.187
  419.750    0.397  223.722   10.478   98.197    0.192
  420.000    0.436  223.707    9.709   94.919    0.194
  420.250    0.419  223.388    9.575  105.030    0.191
  420.500    0.390  223.476    9.507  102.047    0.197
  420.750    0.377  223.559    9.800   79.102    0.238
  421.000    0.365  223.643   10.978   69.953    0.260
  421.250    0.369  223.718   12.749   67.702    0.272
  421.500    0.379  223.790   14.929   68.414    0.276
  421.750    0.351  223.892   18.586   72.902    0.253
  422.000    0.324  223.988   24.594   81.781    0.213
  422.250    0.338  224.467   25.167   91.993    0.115
  422.500    0.372  224.643   15.897  101.662    0.135
  422.750    0.392  224.525   12.561  109.214    0.169
  423.000    0.387  224.210   12.353  111.683    0.181
  423.250    0.366  223.814   12.549   99.730    0.208
  423.500    0.362  223.472   12.549   74.823    0.236
  423.750    0.358  222.749   14.506   66.154    0.268
  424.000    0.355  220.508   19.929   59.664    0.283
  424.250    0.350  218.974   27.329   56.447    0.288
  424.500    0.344  218.755   31.691   56.077    0.286
  424.750    0.336  218.857   35.715   57.070    0.285
  425.000    0.329  218.944   40.415   59.391    0.285
  425.250    0.337  219.027   39.603   62.339    0.281
  425.500    0.348  219.111   34.028   64.755    0.276
  425.750    0.357  219.187   30.751   65.894    0.272
  426.000    0.363  219.358   30.126   66.483    0.269
  426.250    0.366  219.950   30.181   69.129    0.264
  426.500    0.369  220.475   30.249   71.198    0.258
  426.750    0.354  220.937   30.262   72.206    0.250
  427.000    0.341  221.122   29.967   73.588    0.242
  427.250    0.332  221.210   29.472   74.246    0.236
  427.500    0.327  221.394   28.935   73.751    0.231
  427.750    0.330  221.895   28.427   72.202    0.224
  428.000    0.337  221.965   27.828   71.493    0.218
  428.250    0.344  222.048   27.687   72.995    0.213
  428.500    0.342  221.836   27.210   74.679    0.204
  428.750    0.334  221.311   26.924   75.941    0.199
  429.000    0.325  220.779   26.798   76.538    0.195
  429.250    0.324  220.887   26.309   76.593    0.177
  429.500    0.331  220.965   26.332   76.640    0.163
  429.750    0.335  220.646   24.687   80.562    0.181
  430.000    0.376  220.622   20.495   87.931    0.194
  430.250    0.413  220.303   16.017   96.214    0.204
  430.500    0.429  219.683   11.427  102.864    0.212
  430.750    0.438  219.366    6.881  106.045    0.219
  431.000    0.448  219.462    5.292  109.626    0.220
  431.250    0.463  219.545    5.223  112.579    0.205
  431.500    0.459  219.616    5.353  110.638    0.186
  431.750    0.441  219.696    5.637  110.080    0.170
  432.000    0.419  219.885    6.016  112.905    0.168
  432.250    0.409  220.297    6.444  116.786    0.192
  432.500    0.410  219.964    6.753  116.581    0.197
  432.750    0.450  220.056    6.864  108.889    0.254
  433.000    0.479  220.740    7.160   99.555    0.307
  433.250    0.488  221.824    7.724   93.435    0.341
  433.500    0.480  222.907    8.539   91.857    0.361
  433.750    0.480  223.321    9.487   93.086    0.389
