~VERSION INFORMATION
 VERS.                 2.0:   CWLS LOG ASCII STANDARD -VERSION 2.0
 WRAP.                  NO:   ONE LINE PER DEPTH STEP
~WELL INFORMATION BLOCK
#MNEM.UNIT           DATA                    DESCRIPTION OF MNEMONIC
#---------    -------------------            -------------------------------
# Generated from Intellog Unique Number	CW_82_90/WELL/3061
WELL.         CHEVRON ET AL WABASCA 07-04    : Well_name    - WELL
LOC .         00/07-04-085-23W4/0            : Location     - LOCATION
UWI .         00/07-04-085-23W4/0            : Uwi          - UNIQUE WELL ID
ENTR.         JAYE                           : Entered      - ENTERED BY
SRVC.         SCHLUMBERGER                   : Scn          - SERVICE COMPANY
DATE.         10 JAN 74                      : Date         - LOG DATE
STRT.M        146.304                        : top_depth    - START DEPTH
STOP.M        381.054                        : bot_depth    - STOP DEPTH
STEP.M        0.25                           : increment    - STEP LENGTH
 NULL. -999.2500:NULL Value
~CURVE INFORMATION BLOCK
#MNEM UNIT       ERCB CURVE CODE    CURVE DESCRIPTION
#-----------   ------------------   ----------------------------------
DEPT.M        00 001 00 00         : DEPTH        - DEPTH
ILD .OHMM     00 120 00 00         : RESD         - DEEP RESISTIVITY (DIL)
GR  .API      00 310 00 00         : GR           - GAMMA RAY
NPHI.V/V      00 330 00 00         : PHIN         - NEUTRON POROSITY (SANDSTONE)
DPHI.V/V      00 890 00 00         : PHID         - DENSITY POROSITY (SANDSTONE)
~PARAMETER INFORMATION
#MNEM.UNIT           DATA             DESCRIPTION OF MNEMONIC
#---------         -----------     ------------------------------
GL  .M        572.628              : gl           - GROUND LEVEL ELEVATION
EREF.M        575.767              : kb           - ELEVATION OF DEPTH REFERENCE
DATM.M        572.628              : datum        - DATUM ELEVATION
TDD .M        382.219              : tdd          - TOTAL DEPTH DRILLER
RUN .         ONE                  : Run          - RUN NUMBER
ENG .         CHAUDHARY            : Engineer     - RECORDING ENGINEER
WIT .         COLL                 : Witness      - WITNESSED BY
BASE.         EDMONTON             : Branch       - HOME BASE OF LOGGING UNIT
MUD .         GEL                  : Mud_type     - MUD TYPE
MATR.         SANDSTONE            : Logunit      - NEUTRON MATRIX
TMAX.C        20.5556              : BHT          - MAXIMUM RECORDED TEMPERATURE
BHTD.M        382.219              : BHTDEP       - MAXIMUM RECORDED TEMPERATURE
RMT .C        -17.7778             : MDTP         - TEMPERATURE OF MUD
MUDD.KG/M     9500                 : MWT          - MUD DENSITY
NEUT.         1                    : NEUTRON      - NEUTRON TYPE
RESI.         0                    : RESIST       - RESISTIVITY TYPE
RM  .OHMM     0.25                 : RM           - RESISTIVITY OF MUD
RMC .OHMM     0.25                 : RMC          - RESISTIVITY OF MUD CAKE
RMF .OHMM     7.67                 : RMF          - RESISTIVITY OF MUD FILTRATE
SUFT.C        4                    : SUFT         - SURFACE TEMPERATURE
~A  DEPTH     RESD       GR     PHIN     PHID
# ...
  276.804   21.141   54.355    0.413    0.211
  277.054   21.112   54.350    0.413    0.222
  277.304   22.656   53.761    0.420    0.211
  277.554   25.442   53.465    0.424    0.199
  277.804   28.570   53.751    0.413    0.232
  278.054   30.110   54.036    0.388    0.251
  278.304   29.001   54.323    0.371    0.261
  278.554   26.688   54.318    0.367    0.225
  278.804   24.124   53.439    0.384    0.144
  279.054   21.412   52.266    0.417    0.141
  279.304   20.798   52.844    0.445    0.152
  279.554   20.958   53.422    0.455    0.164
  279.804   22.092   54.872    0.457    0.184
  280.054   23.712   56.033    0.427    0.242
  280.304   25.222   57.485    0.403    0.268
  280.554   23.425   57.479    0.397    0.269
  280.804   18.994   56.600    0.393    0.240
  281.054   13.694   56.303    0.401    0.203
  281.304   11.617   56.589    0.406    0.185
  281.554   10.790   57.749    0.417    0.176
  281.804   10.295   59.200    0.436    0.179
  282.054   10.095   60.943    0.450    0.248
  282.304   10.168   63.850    0.458    0.279
  282.554   10.526   67.049    0.467    0.279
  282.804   11.096   70.248    0.475    0.267
  283.054   11.696   72.865    0.482    0.241
  283.304   12.894   75.773    0.477    0.245
  283.554   13.968   76.058    0.448    0.256
  283.804   15.407   74.888    0.438    0.248
  284.054   16.838   74.009    0.428    0.249
  284.304   18.066   72.255    0.410    0.254
  284.554   17.879   70.502    0.393    0.254
  284.804   17.217   68.458    0.385    0.264
  285.054   16.424   66.704    0.388    0.307
  285.304   16.108   64.077    0.398    0.347
  285.554   15.509   61.450    0.420    0.328
  285.804   15.070   60.863    0.426    0.343
  286.054   14.774   61.147    0.438    0.359
  286.304   14.751   60.268    0.450    0.325
  286.554   14.723   59.681    0.457    0.299
  286.804   14.573   59.967    0.455    0.279
  287.054   14.417   60.253    0.454    0.291
  287.304   14.262   61.121    0.456    0.326
  287.554   13.987   62.282    0.460    0.326
  287.804   13.715   64.024    0.461    0.310
  288.054   12.966   65.184    0.464    0.306
  288.304   12.594   62.557    0.464    0.319
  288.554   12.562   62.551    0.464    0.296
  288.804   12.333   64.876    0.464    0.281
  289.054   12.093   68.366    0.464    0.309
  289.304   12.074   71.566    0.465    0.302
  289.554   11.839   74.765    0.467    0.273
  289.804   11.091   73.012    0.468    0.269
  290.054   10.302   72.423    0.470    0.265
  290.304    9.922   73.583    0.474    0.260
  290.554    9.995   74.742    0.478    0.258
  290.804   10.533   75.029    0.488    0.260
  291.054   11.206   72.985    0.489    0.273
  291.304   11.808   74.727    0.480    0.266
  291.554   12.335   75.305    0.469    0.249
  291.804   12.771   72.094    0.463    0.234
  292.054   12.296   69.177    0.456    0.229
  292.304   10.063   65.966    0.452    0.236
  292.554    8.086   66.252    0.452    0.220
  292.804    7.578   68.285    0.457    0.230
  293.054    7.844   69.446    0.463    0.266
  293.304    8.574   71.189    0.475    0.264
  293.554    9.371   73.222    0.488    0.263
  293.804   10.428   73.509    0.497    0.267
  294.054   11.292   72.920    0.482    0.270
  294.304   11.585   70.875    0.471    0.270
  294.554   11.566   68.540    0.468    0.260
  294.804   10.736   67.079    0.475    0.236
  295.054   10.158   66.489    0.483    0.203
  295.304   10.230   66.484    0.486    0.211
  295.554   10.402   65.895    0.481    0.239
  295.804   10.576   65.308    0.474    0.240
  296.054   10.462   64.429    0.464    0.240
  296.304   10.165   64.132    0.455    0.246
  296.554    9.700   63.543    0.444    0.232
  296.804    9.424   62.665    0.462    0.216
  297.054    9.325   63.533    0.489    0.190
  297.304    9.325   64.986    0.495    0.157
  297.554    9.296   68.475    0.487    0.192
  297.804    9.449   71.092    0.484    0.218
  298.054    9.691   73.417    0.482    0.221
  298.304    9.853   75.160    0.481    0.224
  298.554   10.202   76.610    0.481    0.211
  298.804   10.561   76.605    0.475    0.224
  299.054   10.933   75.726    0.469    0.226
  299.304   11.421   76.304    0.466    0.216
  299.554   11.820   78.628    0.469    0.203
  299.804   12.236   80.371    0.473    0.192
  300.054   12.551   84.153    0.471    0.198
  300.304   12.876   85.313    0.468    0.231
  300.554   13.327   85.016    0.460    0.227
  300.804   13.677   83.554    0.454    0.222
  301.054   14.545   81.510    0.449    0.224
  301.304   15.747   79.173    0.443    0.225
  301.554   16.750   77.711    0.437    0.243
  301.804   17.346   76.541    0.435    0.255
  302.054   18.954   75.661    0.436    0.256
  302.304   20.907   75.365    0.437    0.265
  302.554   25.234   75.069    0.435    0.263
  302.804   28.854   72.442    0.431    0.247
  303.054   28.809   66.610    0.385    0.231
  303.304   25.575   61.943    0.333    0.215
  303.554   21.307   58.151    0.357    0.176
  303.804   18.738   54.941    0.411    0.137
  304.054   17.721   56.392    0.424    0.060
  304.304   16.911   58.135    0.440    0.059
  304.554   16.139   60.168    0.450    0.085
  304.804   16.703   63.367    0.454    0.128
  305.054   18.255   67.441    0.457    0.279
  305.304   20.878   73.844    0.459    0.255
  305.554   25.433   76.752    0.450    0.206
  305.804   30.702   80.534    0.440    0.172
  306.054   37.746   80.819    0.416    0.206
  306.304   42.371   72.367    0.378    0.233
  306.554   45.077   63.330    0.363    0.216
  306.804   45.819   56.916    0.340    0.187
  307.054   43.341   52.250    0.281    0.145
  307.304   34.827   51.952    0.334    0.074
  307.554   27.985   53.112    0.324    0.074
  307.804   20.543   54.564    0.327    0.093
  308.054   18.901   57.471    0.416    0.122
  308.304   19.216   60.088    0.449    0.100
  308.554   20.256   62.995    0.448    0.050
  308.804   21.741   65.320    0.425    0.065
  309.054   23.542   67.355    0.414    0.205
  309.304   24.593   67.641    0.395    0.240
  309.554   24.559   67.635    0.393    0.208
  309.804   24.516   67.047    0.401    0.174
  310.054   23.823   66.459    0.410    0.152
  310.304   22.521   66.163    0.421    0.149
  310.554   21.107   67.032    0.429    0.153
  310.804   20.889   68.191    0.442    0.142
  311.054   20.848   69.642    0.449    0.180
  311.304   21.013   69.345    0.456    0.187
  311.554   21.553   69.631    0.454    0.189
  311.804   21.515   69.625    0.446    0.204
  312.054   20.911   69.621    0.429    0.205
  312.304   19.952   69.324    0.424    0.188
  312.554   19.213   69.319    0.440    0.158
  312.804   19.180   69.605    0.429    0.143
  313.054   19.142   69.600    0.422    0.167
  313.304   19.120   68.429    0.441    0.197
  313.554   19.086   70.753    0.453    0.178
  313.804   18.885   73.079    0.453    0.209
  314.054   18.514   74.239    0.456    0.215
  314.304   17.994   74.234    0.461    0.205
  314.554   17.637   74.228    0.466    0.191
  314.804   17.607   74.223    0.470    0.207
  315.054   17.579   74.509    0.470    0.220
  315.304   17.390   75.085    0.473    0.195
  315.554   17.052   75.663    0.470    0.178
  315.804   16.872   76.824    0.467    0.192
  316.054   16.698   77.983    0.466    0.215
  316.304   16.813   79.143    0.466    0.202
  316.554   17.104   79.137    0.467    0.174
  316.804   17.702   77.675    0.462    0.190
  317.054   17.832   77.087    0.457    0.176
  317.304   17.807   76.208    0.465    0.172
  317.554   16.991   75.037    0.473    0.175
  317.804   15.921   74.741    0.463    0.185
  318.054   15.899   74.736    0.440    0.168
  318.304   15.868   74.730    0.450    0.172
  318.554   15.419   74.724    0.465    0.197
  318.804   14.454   75.301    0.468    0.174
  319.054   13.914   76.754    0.468    0.177
  319.304   14.277   78.496    0.469    0.208
  319.554   14.911   76.161    0.469    0.215
  319.804   15.579   71.784    0.469    0.197
  320.054   17.020   72.654    0.462    0.176
