~VERSION INFORMATION
 VERS.                 2.0:   CWLS LOG ASCII STANDARD -VERSION 2.0
 WRAP.                  NO:   ONE LINE PER DEPTH STEP
~WELL INFORMATION BLOCK
#MNEM.UNIT           DATA                    DESCRIPTION OF MNEMONIC
#---------    -------------------            -------------------------------
# Generated from Intellog Unique Number	CW_76_78/WELL/2569
WELL.         NOVALTA PORTAGE                : Well_name    - WELL
LOC .         00/06-26-078-19W4/0            : Location     - LOCATION
UWI .         00/06-26-078-19W4/0            : Uwi          - UNIQUE WELL ID
ENTR.         MAX                            : Entered      - ENTERED BY
SRVC.         SCHLUMBERGER                   : Scn          - SERVICE COMPANY
STRT.M        190                            : top_depth    - START DEPTH
STOP.M        390                            : bot_depth    - STOP DEPTH
STEP.M        0.25                           : increment    - STEP LENGTH
 NULL. -999.2500:NULL Value
~CURVE INFORMATION BLOCK
#MNEM UNIT       ERCB CURVE CODE    CURVE DESCRIPTION
#-----------   ------------------   ----------------------------------
DEPT.M        00 001 00 00         : DEPTH        - DEPTH
ILD .OHMM     00 120 00 00         : RESD         - DEEP RESISTIVITY (DIL)
NPHI.V/V      00 330 00 00         : PHIN         - NEUTRON POROSITY (SANDSTONE)
DPHI.V/V      00 890 00 00         : PHID         - DENSITY POROSITY (SANDSTONE)
CALI.MM       00 280 01 00         : CAL          - CALIPER
GR  .API      00 310 00 00         : GR           - GAMMA RAY
~PARAMETER INFORMATION
#MNEM.UNIT           DATA             DESCRIPTION OF MNEMONIC
#---------         -----------     ------------------------------
GL  .M        556.74               : gl           - GROUND LEVEL ELEVATION
EREF.M        561.74               : kb           - ELEVATION OF DEPTH REFERENCE
DATM.M        556.74               : datum        - DATUM ELEVATION
TDD .M        391                  : tdd          - TOTAL DEPTH DRILLER
RUN .         ONE                  : Run          - RUN NUMBER
ENG .         BILL                 : Engineer     - RECORDING ENGINEER
WIT .         JIM                  : Witness      - WITNESSED BY
MUD .         GEL                  : Mud_type     - MUD TYPE
MATR.         SANDSTONE            : Logunit      - NEUTRON MATRIX
TMAX.C        27.8                 : BHT          - MAXIMUM RECORDED TEMPERATURE
BHTD.M        391                  : BHTDEP       - MAXIMUM RECORDED TEMPERATURE
RMT .C        23.3                 : MDTP         - TEMPERATURE OF MUD
MUDD.KG/M     1180                 : MWT          - MUD DENSITY
NEUT.         1                    : NEUTRON      - NEUTRON TYPE
RESI.         0                    : RESIST       - RESISTIVITY TYPE
RM  .OHMM     4.5                  : RM           - RESISTIVITY OF MUD
RMC .OHMM     0.25                 : RMC          - RESISTIVITY OF MUD CAKE
RMF .OHMM     4.8                  : RMF          - RESISTIVITY OF MUD FILTRATE
SUFT.C        -20                  : SUFT         - SURFACE TEMPERATURE
~A  DEPTH     RESD     PHIN     PHID      CAL       GR
# ...
  336.000    7.332    0.431    0.269  155.204   66.788
  336.250    7.140    0.421    0.269  155.268   70.713
  336.500    6.890    0.425    0.265  155.342   76.434
  336.750    6.708    0.450    0.261  155.415   74.090
  337.000    6.593    0.464    0.276  155.498   74.139
  337.250    6.601    0.463    0.280  155.580   74.178
  337.500    6.792    0.438    0.271  155.663   72.133
  337.750    7.250    0.430    0.259  155.736   70.386
  338.000    8.330    0.436    0.225  155.791   68.948
  338.250    9.224    0.439    0.082  155.874   65.101
  338.500    9.320    0.357    0.020  155.947   57.981
  338.750    9.245    0.195    0.057  156.021   50.275
  339.000    8.287    0.236    0.173  156.094   51.502
  339.250    7.164    0.396    0.211  156.186   61.999
  339.500    6.787    0.406    0.268  156.259   74.287
  339.750    6.793    0.426    0.272  156.323   78.814
  340.000    7.119    0.449    0.265  156.397   74.988
  340.250    8.643    0.451    0.249  156.479   74.142
  340.500    9.396    0.446    0.233  157.050   72.976
  340.750   10.217    0.391    0.207  158.128   69.438
  341.000   10.513    0.369    0.165  159.196   60.223
  341.250   10.719    0.344    0.091  159.260   58.183
  341.500   10.729    0.319    0.060  158.348   65.994
  341.750   10.545    0.266    0.118  156.431   74.097
  342.000   10.461    0.425    0.199  154.515   76.833
  342.250    9.909    0.376    0.162  153.096   66.424
  342.500    8.967    0.281    0.112  153.666   65.871
  342.750    8.733    0.253    0.063  156.237   74.876
  343.000    8.583    0.291    0.117  156.817   75.224
  343.250    8.591    0.386    0.238  156.881   71.979
  343.500    8.923    0.423    0.223  156.457   70.541
  343.750    9.266    0.382    0.198  156.042   70.575
  344.000    9.536    0.328    0.167  156.115   70.934
  344.250    9.457    0.313    0.142  156.189   70.967
  344.500    9.042    0.338    0.154  157.257   71.011
  344.750    8.334    0.385    0.214  157.330   72.857
  345.000    7.681    0.425    0.249  156.915   73.802
  345.250    7.343    0.450    0.251  155.487   73.840
  345.500    7.087    0.461    0.235  154.575   74.780
  345.750    7.087    0.466    0.237  155.155   75.421
  346.000    7.038    0.443    0.246  156.711   75.769
  346.250    7.043    0.435    0.251  159.779   75.807
  346.500    7.051    0.439    0.238  159.862   76.454
  346.750    7.063    0.437    0.230  158.940   77.985
  347.000    7.197    0.433    0.227  158.009   81.323
  347.250    7.542    0.433    0.235  158.101   82.860
  347.500    7.904    0.429    0.236  158.184   82.898
  347.750    8.059    0.425    0.211  157.741   82.346
  348.000    8.143    0.432    0.201  157.824   82.694
  348.250    8.226    0.432    0.198  157.897   86.916
  348.500    8.159    0.406    0.190  158.956   91.742
  348.750    8.021    0.399    0.169  159.536   96.263
  349.000    7.740    0.395    0.166  159.619   96.606
  349.250    7.605    0.401    0.177  160.190  101.730
  349.500    7.338    0.417    0.179  160.263  102.670
  349.750    7.082    0.415    0.175  160.825  103.012
  350.000    6.834    0.409    0.179  161.405  107.539
  350.250    6.655    0.420    0.176  161.985  109.385
  350.500    6.602    0.423    0.161  162.049  107.926
  350.750    6.608    0.408    0.151  162.123  106.781
  351.000    6.675    0.398    0.172  161.210  108.616
  351.250    6.933    0.401    0.169  161.293  109.865
  351.500    7.537    0.399    0.177  160.869  109.301
  351.750    8.195    0.384    0.194  158.961  106.062
  352.000    8.993    0.376    0.194  157.524  109.395
  352.250    9.338    0.383    0.183  156.602  105.857
  352.500    9.790    0.401    0.180  156.685   98.135
  352.750    9.979    0.407    0.165  157.265   89.229
  353.000   10.175    0.391    0.139  157.329   89.572
  353.250   10.376    0.382    0.147  156.905   92.009
  353.500   10.479    0.385    0.185  155.983   91.152
  353.750   10.587    0.379    0.189  155.559   89.112
  354.000   10.699    0.360    0.161  155.153   89.156
  354.250   10.709    0.365    0.163  154.729   93.678
  354.500   10.817    0.377    0.159  154.812   95.214
  354.750   10.828    0.377    0.151  154.379   97.950
  355.000   11.042    0.383    0.153  155.945  102.179
  355.250   11.258    0.389    0.140  158.017   99.531
  355.500   11.692    0.384    0.131  157.584   90.913
  355.750   12.252    0.369    0.123  157.169   83.495
  356.000   12.841    0.347    0.125  157.233   79.962
  356.250   13.213    0.341    0.141  156.827   86.573
  356.500   13.350    0.327    0.157  155.906   89.309
  356.750   13.243    0.325    0.150  154.975   91.741
  357.000   13.014    0.359    0.158  153.556   92.388
  357.250   12.557    0.379    0.167  153.141   93.626
  357.500   11.897    0.385    0.164  152.708   93.067
  357.750   11.271    0.373    0.159  153.297   95.505
  358.000   10.976    0.361    0.160  153.370   98.838
  358.250   10.888    0.352    0.158  152.937   99.777
  358.500   10.800    0.363    0.155  152.015  100.114
  358.750   10.714    0.371    0.150  152.098  104.641
  359.000   10.626    0.373    0.152  152.181  107.084
  359.250   10.540    0.378    0.152  152.751  105.332
  359.500   10.264    0.379    0.136  153.829  104.486
  359.750   10.086    0.390    0.118  154.897  106.614
  360.000    9.734    0.424    0.134  156.454  110.550
  360.250    9.391    0.406    0.168  158.517  113.275
  360.500    8.817    0.404    0.165  160.093  115.110
  360.750    8.353    0.413    0.148  160.654  112.467
  361.000    7.771    0.412    0.148  161.234  106.243
  361.250    7.163    0.392    0.164  160.810  102.705
  361.500    6.785    0.395    0.168  160.893  101.853
  361.750    6.253    0.393    0.165  160.957  104.882
  362.000    5.658    0.380    0.164  160.542  107.618
  362.250    4.981    0.408    0.171  159.630  105.871
  362.500    4.305    0.506    0.192  158.699  103.234
  362.750    3.394    0.576    0.246  157.280  101.786
  363.000    2.701    0.554    0.260  155.363  101.228
  363.250    2.805    0.475    0.221  154.451   97.098
  363.500    3.437    0.438    0.197  155.022   92.062
  363.750    4.209    0.389    0.182  155.602   76.579
  364.000    5.205    0.347    0.179  156.163   80.216
  364.250    6.377    0.354    0.183  155.739   81.459
  364.500    9.386    0.380    0.203  155.324   77.314
  364.750   12.489    0.391    0.223  154.891   66.910
  365.000   16.316    0.367    0.200  154.476   66.368
  365.250   16.945    0.326    0.163  153.573   72.968
  365.500   16.654    0.321    0.143  153.130   83.167
  365.750   15.776    0.344    0.139  152.716   88.589
  366.000   12.326    0.357    0.152  151.785   96.692
  366.250    8.626    0.382    0.159  150.872  101.220
  366.500    5.765    0.417    0.162  152.457  100.667
  366.750    4.938    0.402    0.151  155.497  101.009
  367.000    4.943    0.399    0.169  158.555  101.053
  367.250    5.086    0.425    0.183  158.647  100.804
  367.500    5.379    0.417    0.160  157.716   96.072
  367.750    6.412    0.373    0.125  156.803   89.549
  368.000    7.783    0.341    0.110  156.379   87.498
  368.250    8.461    0.334    0.091  155.964   90.240
  368.500    9.456    0.355    0.118  156.093  101.627
  368.750    9.641    0.386    0.139  156.120  112.422
  369.000    9.305    0.390    0.137  155.687  118.436
  369.250    7.752    0.382    0.142  155.272  119.077
  369.500    7.209    0.400    0.153  154.848  115.246
  369.750    5.897    0.429    0.164  154.922  114.693
  370.000    5.850    0.442    0.159  154.995  112.349
  370.250    6.187    0.404    0.130  155.068  106.125
  370.500    6.851    0.369    0.109  154.653  100.194
  370.750    9.634    0.346    0.102  153.732   96.965
  371.000   10.569    0.342    0.118  153.308   99.397
  371.250   11.287    0.356    0.121  152.884  101.824
  371.500   10.594    0.369    0.102  152.459  104.261
  371.750   10.035    0.378    0.114  152.533  107.296
  372.000    9.684    0.384    0.137  152.606  110.623
  372.250    9.784    0.394    0.144  152.680  113.956
