~VERSION INFORMATION
 VERS.                 2.0:   CWLS LOG ASCII STANDARD -VERSION 2.0
 WRAP.                  NO:   ONE LINE PER DEPTH STEP
~WELL INFORMATION BLOCK
#MNEM.UNIT           DATA                    DESCRIPTION OF MNEMONIC
#---------    -------------------            -------------------------------
# Generated from Intellog Unique Number	CW_76_78/WELL/2569
WELL.         NOVALTA PORTAGE                : Well_name    - WELL
LOC .         00/06-26-078-19W4/0            : Location     - LOCATION
UWI .         00/06-26-078-19W4/0            : Uwi          - UNIQUE WELL ID
ENTR.         MAX                            : Entered      - ENTERED BY
SRVC.         SCHLUMBERGER                   : Scn          - SERVICE COMPANY
STRT.M        190                            : top_depth    - START DEPTH
STOP.M        390                            : bot_depth    - STOP DEPTH
STEP.M        0.25                           : increment    - STEP LENGTH
 NULL. -999.2500:NULL Value
~CURVE INFORMATION BLOCK
#MNEM UNIT       ERCB CURVE CODE    CURVE DESCRIPTION
#-----------   ------------------   ----------------------------------
DEPT.M        00 001 00 00         : DEPTH        - DEPTH
ILD .OHMM     00 120 00 00         : RESD         - DEEP RESISTIVITY (DIL)
NPHI.V/V      00 330 00 00         : PHIN         - NEUTRON POROSITY (SANDSTONE)
DPHI.V/V      00 890 00 00         : PHID         - DENSITY POROSITY (SANDSTONE)
CALI.MM       00 280 01 00         : CAL          - CALIPER
GR  .API      00 310 00 00         : GR           - GAMMA RAY
~PARAMETER INFORMATION
#MNEM.UNIT           DATA             DESCRIPTION OF MNEMONIC
#---------         -----------     ------------------------------
GL  .M        556.74               : gl           - GROUND LEVEL ELEVATION
EREF.M        561.74               : kb           - ELEVATION OF DEPTH REFERENCE
DATM.M        556.74               : datum        - DATUM ELEVATION
TDD .M        391                  : tdd          - TOTAL DEPTH DRILLER
RUN .         ONE                  : Run          - RUN NUMBER
ENG .         BILL                 : Engineer     - RECORDING ENGINEER
WIT .         JIM                  : Witness      - WITNESSED BY
MUD .         GEL                  : Mud_type     - MUD TYPE
MATR.         SANDSTONE            : Logunit      - NEUTRON MATRIX
TMAX.C        27.8                 : BHT          - MAXIMUM RECORDED TEMPERATURE
BHTD.M        391                  : BHTDEP       - MAXIMUM RECORDED TEMPERATURE
RMT .C        23.3                 : MDTP         - TEMPERATURE OF MUD
MUDD.KG/M     1180                 : MWT          - MUD DENSITY
NEUT.         1                    : NEUTRON      - NEUTRON TYPE
RESI.         0                    : RESIST       - RESISTIVITY TYPE
RM  .OHMM     4.5                  : RM           - RESISTIVITY OF MUD
RMC .OHMM     0.25                 : RMC          - RESISTIVITY OF MUD CAKE
RMF .OHMM     4.8                  : RMF          - RESISTIVITY OF MUD FILTRATE
SUFT.C        -20                  : SUFT         - SURFACE TEMPERATURE
~A  DEPTH     RESD     PHIN     PHID      CAL       GR
# ...
  263.000   15.120    0.456    0.331  154.398   61.316
  263.250   15.401    0.461    0.338  153.919   60.731
  263.500   15.832    0.467    0.340  153.446   58.368
  263.750   16.578    0.493    0.345  153.467   59.272
  264.000   17.358    0.474    0.345  152.992   64.038
  264.250   17.680    0.470    0.332  153.510   61.676
  264.500   17.357    0.477    0.332  154.026   61.388
  264.750   17.197    0.477    0.334  154.047   64.373
  265.000   16.883    0.465    0.333  154.070   63.494
  265.250   16.574    0.452    0.323  153.097   65.883
  265.500   15.973    0.471    0.311  151.139   71.541
  265.750   15.395    0.470    0.312  150.662   71.556
  266.000   14.838    0.455    0.314  150.187   70.379
  266.250   14.974    0.460    0.311  150.706   70.094
  266.500   14.700    0.461    0.307  152.214   69.807
  266.750   14.565    0.463    0.302  153.723   67.444
  267.000   15.111    0.469    0.295  155.229   62.703
  267.250   16.722    0.455    0.284  155.740   54.099
  267.500   19.200    0.419    0.238  155.265   46.386
  267.750   19.556    0.355    0.083  154.790   45.806
  268.000   19.198    0.280    0.118  156.304   48.490
  268.250   18.333    0.302    0.175  157.807   63.360
  268.500   16.874    0.353    0.265  158.326   69.314
  268.750   15.107    0.425    0.276  157.846   71.408
  269.000   14.163    0.418    0.278  156.383   71.420
  269.250   13.904    0.431    0.283  155.911   72.920
  269.500   14.162    0.435    0.291  155.932   73.228
  269.750   14.162    0.442    0.281  155.952   70.269
  270.000   14.161    0.439    0.278  156.965   66.121
  270.250   13.774    0.442    0.291  158.471   69.701
  270.500   13.648    0.452    0.290  157.994   71.793
  270.750   13.647    0.449    0.291  157.525   70.914
  271.000   13.647    0.445    0.291  157.045   70.630
  271.250   13.521    0.440    0.286  156.573   72.128
  271.500   13.274    0.442    0.279  156.593   71.249
  271.750   13.274    0.433    0.281  156.118   69.480
  272.000   13.151    0.423    0.286  156.139   69.192
  272.250   12.675    0.430    0.295  156.159   70.099
  272.500   12.329    0.430    0.295  156.180   72.190
  272.750   11.882    0.420    0.279  156.200   76.064
  273.000   11.452    0.403    0.276  155.726   78.457
  273.250   10.836    0.405    0.271  155.254   80.844
  273.500   10.159    0.412    0.265  155.279   82.344
  273.750    9.179    0.428    0.264  155.792   82.652
  274.000    8.685    0.446    0.256  156.308   85.635
  274.250    8.143    0.451    0.242  156.328   88.618
  274.500    7.776    0.459    0.230  156.351   87.744
  274.750    7.357    0.468    0.232  156.865   87.456
  275.000    6.897    0.472    0.234  156.885   91.034
  275.250    6.648    0.462    0.231  157.896   95.206
  275.500    6.586    0.462    0.230  158.419   96.111
  275.750    6.709    0.479    0.237  158.435   92.855
  276.000    7.288    0.499    0.265  156.972   83.954
  276.250    7.774    0.496    0.278  155.504   77.727
  276.500    8.682    0.474    0.294  154.042   69.717
  276.750    9.432    0.454    0.302  153.072   64.678
  277.000    9.968    0.445    0.294  153.090   62.317
  277.250   10.342    0.445    0.296  153.110   61.139
  277.500   10.437    0.436    0.303  153.136   58.775
  277.750   10.437    0.414    0.315  153.652   59.383
  278.000   10.340    0.422    0.314  154.167   61.775
  278.250   10.058    0.439    0.297  154.185   64.159
  278.500    9.874    0.439    0.294  154.701   65.360
  278.750    9.694    0.446    0.301  154.727   64.483
  279.000    9.693    0.433    0.296  154.745   65.683
  279.250    9.693    0.428    0.284  154.768   67.777
  279.500    9.516    0.433    0.274  154.293   69.273
  279.750    9.341    0.424    0.262  154.311   70.771
  280.000    9.171    0.424    0.272  154.331   72.568
  280.250    9.170    0.418    0.291  154.357   74.960
  280.500    9.086    0.421    0.283  153.882   77.645
  280.750    9.085    0.458    0.288  153.900   79.141
  281.000    9.169    0.489    0.305  153.921   69.349
  281.250    9.513    0.449    0.308  154.436   64.607
  281.500    9.870    0.443    0.301  154.954   65.214
  281.750   10.053    0.464    0.298  155.473   63.148
  282.000    9.960    0.465    0.327  155.491   63.754
  282.250    9.688    0.434    0.328  155.511   68.223
  282.500    9.424    0.429    0.302  155.039   69.425
  282.750    9.337    0.458    0.253  155.059   70.331
  283.000    9.337    0.449    0.228  154.590   73.015
  283.250    9.251    0.422    0.190  154.605   77.187
  283.500    9.251    0.406    0.187  154.626   84.627
  283.750    9.422    0.418    0.196  155.147   86.125
  284.000    9.422    0.443    0.205  155.660   84.062
  284.250    9.335    0.450    0.278  156.175   79.020
  284.500    9.249    0.456    0.297  156.196   76.359
  284.750    9.249    0.453    0.309  155.721   78.155
  285.000    9.334    0.451    0.314  155.744   76.978
  285.250    9.864    0.485    0.300  156.260   69.859
  285.500   10.717    0.476    0.257  156.775   62.444
  285.750   11.325    0.441    0.095  156.799   56.811
  286.000   11.535    0.378    0.052  157.317   57.122
  286.250   11.118    0.258    0.086  157.337   64.859
  286.500   10.519    0.283    0.131  156.857   71.111
  286.750    8.994    0.388    0.184  156.883   75.282
  287.000    8.355    0.416    0.223  156.901   77.972
  287.250    7.978    0.444    0.267  156.921   80.361
  287.500    7.689    0.454    0.287  156.947   80.075
  287.750    7.411    0.435    0.257  156.962   79.791
  288.000    7.142    0.467    0.250  157.976   80.991
  288.250    6.948    0.469    0.270  157.994   82.490
  288.500    6.820    0.455    0.270  158.515   85.176
  288.750    6.947    0.467    0.274  158.042   86.971
  289.000    7.011    0.462    0.281  158.063   82.824
  289.250    6.883    0.459    0.278  158.083   81.648
  289.500    6.634    0.474    0.268  158.104   83.742
  289.750    6.393    0.472    0.265  159.115   85.835
  290.000    6.393    0.465    0.245  159.630   85.550
  290.250    6.276    0.474    0.234  160.146   87.641
  290.500    6.049    0.500    0.237  160.164   90.921
  290.750    5.993    0.513    0.250  160.187   92.719
  291.000    5.829    0.508    0.248  160.207   96.000
  291.250    5.776    0.499    0.252  159.735   91.554
  291.500    5.723    0.492    0.270  158.270   85.921
  291.750    5.775    0.477    0.273  158.291   85.636
  292.000    5.829    0.460    0.256  158.314   92.484
  292.250    5.937    0.469    0.247  158.829   89.822
  292.500    6.047    0.465    0.244  158.852   86.270
  292.750    6.216    0.451    0.245  158.873   85.393
  293.000    6.273    0.454    0.245  158.893   84.811
  293.250    6.273    0.498    0.243  158.911   83.335
  293.500    6.215    0.483    0.241  158.932   85.130
  293.750    6.215    0.467    0.237  159.448   89.899
  294.000    6.215    0.451    0.235  159.468   89.615
  294.250    6.272    0.445    0.244  159.491   90.518
  294.500    6.330    0.445    0.246  160.004   91.720
  294.750    6.272    0.466    0.234  160.025   92.918
  295.000    6.101    0.490    0.237  160.543   91.152
  295.250    6.100    0.482    0.256  160.566   89.972
  295.500    6.100    0.470    0.259  159.593   89.688
  295.750    6.156    0.467    0.263  159.119   90.591
  296.000    6.566    0.456    0.269  159.144   91.198
  296.250    6.939    0.421    0.242  160.155   89.726
  296.500    7.266    0.388    0.227  160.668   78.745
  296.750    7.333    0.397    0.179  161.189   76.975
  297.000    7.333    0.430    0.217  161.207   93.626
  297.250    7.265    0.475    0.216  161.225   93.938
  297.500    7.198    0.481    0.212  161.743   95.437
  297.750    7.132    0.467    0.207  162.259   97.229
  298.000    6.937    0.453    0.204  162.282   99.027
  298.250    6.748    0.477    0.204  161.312  100.226
  298.500    6.385    0.475    0.201  161.828   99.646
  298.750    6.041    0.465    0.210  161.846   99.658
  299.000    5.459    0.455    0.234  162.366  102.046
  299.250    5.213    0.461    0.235  162.387  104.732
