~VERSION INFORMATION
 VERS.                 2.0:   CWLS LOG ASCII STANDARD -VERSION 2.0
 WRAP.                  NO:   ONE LINE PER DEPTH STEP
~WELL INFORMATION BLOCK
#MNEM.UNIT           DATA                    DESCRIPTION OF MNEMONIC
#---------    -------------------            -------------------------------
# Generated from Intellog Unique Number	nealta/WELL/2301
WELL.         AMOCO BRINTNELL                : Well_name    - WELL
LOC .         05-24-080-23W4                 : Location     - LOCATION
UWI .         00/05-24-080-23W4/0            : Uwi          - UNIQUE WELL ID
ENTR.         MAX                            : Entered      - ENTERED BY
SRVC.         COMPUTALOG                     : Scn          - SERVICE COMPANY
STRT.M        215                            : top_depth    - START DEPTH
STOP.M        445                            : bot_depth    - STOP DEPTH
STEP.M        0.25                           : increment    - STEP LENGTH
 NULL. -999.2500:NULL Value
~CURVE INFORMATION BLOCK
#MNEM UNIT       ERCB CURVE CODE    CURVE DESCRIPTION
#-----------   ------------------   ----------------------------------
DEPT.M        00 001 00 00         : DEPTH        - DEPTH
NPHI.V/V      00 330 00 00         : PHIN         - NEUTRON POROSITY (SANDSTONE)
CALI.MM       00 280 01 00         : CAL          - CALIPER
ILD .OHMM     00 120 00 00         : RESD         - DEEP RESISTIVITY (DIL)
GR  .API      00 310 00 00         : GR           - GAMMA RAY
DPHI.V/V      00 890 00 00         : PHID         - DENSITY POROSITY (SANDSTONE)
~PARAMETER INFORMATION
#MNEM.UNIT           DATA             DESCRIPTION OF MNEMONIC
#---------         -----------     ------------------------------
GL  .M        583                  : gl           - GROUND LEVEL ELEVATION
EREF.M        587.65               : kb           - ELEVATION OF DEPTH REFERENCE
DATM.M        583                  : datum        - DATUM ELEVATION
TDD .M        444                  : tdd          - TOTAL DEPTH DRILLER
RUN .         ONE                  : Run          - RUN NUMBER
ENG .         BILL                 : Engineer     - RECORDING ENGINEER
WIT .         JIM                  : Witness      - WITNESSED BY
MUD .         GEL                  : Mud_type     - MUD TYPE
MATR.         SANDSTONE            : Logunit      - NEUTRON MATRIX
TMAX.C        29                   : BHT          - MAXIMUM RECORDED TEMPERATURE
BHTD.M        444                  : BHTDEP       - MAXIMUM RECORDED TEMPERATURE
MATR.         1                    : LOGUNIT      - NEUTRON MATRIX
RMT .C        10                   : MDTP         - TEMPERATURE OF MUD
NEUT.         1                    : NEUTRON      - NEUTRON TYPE
RESI.         0                    : RESIST       - RESISTIVITY TYPE
RMC .OHMM     10.2                 : RMC          - RESISTIVITY OF MUD CAKE
RMF .OHMM     5.9                  : RMF          - RESISTIVITY OF MUD FILTRATE
SUFT.C        -20                  : SUFT         - SURFACE TEMPERATURE
~A  DEPTH     PHIN      CAL     RESD       GR     PHID
# ...
  251.500    0.421  219.759   21.576   55.525    0.348
  251.750    0.430  219.786   22.450   56.871    0.355
  252.000    0.436  220.116   23.504   59.124    0.357
  252.250    0.442  220.227   24.276   59.706    0.345
  252.500    0.439  220.676   24.649   57.706    0.340
  252.750    0.434  220.700   24.653   57.722    0.346
  253.000    0.435  221.025   22.674   58.824    0.352
  253.250    0.436  221.452   18.321   60.775    0.356
  253.500    0.433  221.779   13.775   63.756    0.358
  253.750    0.430  221.815   10.329   69.534    0.356
  254.000    0.437  221.842    9.875   75.348    0.350
  254.250    0.441  221.862    9.949   83.595    0.304
  254.500    0.419  221.887   10.022   84.034    0.294
  254.750    0.399  221.912   10.313   82.596    0.293
  255.000    0.393  221.937   11.088   82.670    0.290
  255.250    0.401  222.133   12.892   85.566    0.296
  255.500    0.394  222.998   13.091   87.847    0.294
  255.750    0.394  223.023   12.349   90.766    0.272
  256.000    0.398  223.053   10.691   94.776    0.261
  256.250    0.403  223.281    9.888   98.180    0.254
  256.500    0.407  223.707    9.780   99.708    0.247
  256.750    0.397  224.053    9.035   98.668    0.241
  257.000    0.385  223.659    7.674   99.438    0.238
  257.250    0.397  223.682    6.773  101.633    0.239
  257.500    0.421  223.404    6.156  104.189    0.228
  257.750    0.447  223.231    5.730  107.230    0.213
  258.000    0.467  223.158    5.450  110.392    0.201
  258.250    0.476  222.864    5.296  112.883    0.197
  258.500    0.463  223.308    5.297  113.149    0.195
  258.750    0.461  223.334    5.183  115.826    0.209
  259.000    0.459  223.360    4.989  118.140    0.212
  259.250    0.460  223.385    4.830  120.213    0.225
  259.500    0.463  223.410    4.813  120.592    0.257
  259.750    0.452  223.355    5.243  114.688    0.306
  260.000    0.423  222.964    6.355  106.887    0.324
  260.250    0.400  222.985    8.513   96.734    0.335
  260.500    0.389  223.013   10.383   92.574    0.335
  260.750    0.394  223.040   11.859   94.164    0.323
  261.000    0.407  223.063   12.898   98.416    0.305
  261.250    0.410  223.175   12.821   99.401    0.290
  261.500    0.412  223.622   12.442   99.417    0.281
  261.750    0.416  223.645   12.354   97.738    0.282
  262.000    0.413  223.973   13.078   91.519    0.290
  262.250    0.415  224.201   14.502   83.665    0.309
  262.500    0.422  224.228   16.825   75.148    0.333
  262.750    0.426  224.256   21.552   64.495    0.343
  263.000    0.426  224.280   25.721   61.992    0.353
  263.250    0.423  224.303   29.043   62.006    0.357
  263.500    0.417  224.636   31.993   59.842    0.359
  263.750    0.408  224.865   33.833   57.073    0.360
  264.000    0.399  224.887   34.273   55.092    0.361
  264.250    0.401  224.917   33.631   55.511    0.363
  264.500    0.397  224.938   32.883   57.542    0.365
  264.750    0.393  224.966   31.480   58.526    0.364
  265.000    0.395  224.990   30.309   58.966    0.364
  265.250    0.402  225.016   29.668   60.192    0.364
  265.500    0.409  225.144   29.510   62.323    0.363
  265.750    0.403  225.575   29.422   64.731    0.360
  266.000    0.386  225.599   28.990   67.018    0.359
  266.250    0.380  225.627   28.163   66.306    0.360
  266.500    0.382  225.650   27.963   64.142    0.361
  266.750    0.389  225.674   27.764   61.011    0.361
  267.000    0.395  225.702   27.320   58.001    0.361
  267.250    0.392  225.732   26.739   56.810    0.363
  267.500    0.383  225.756   26.743   56.823    0.365
  267.750    0.386  225.782   26.556   56.837    0.371
  268.000    0.391  224.898   26.511   57.578    0.376
  268.250    0.393  224.317   26.417   58.803    0.378
  268.500    0.392  224.342   26.181   60.513    0.377
  268.750    0.400  224.287   25.770   63.102    0.372
  269.000    0.411  223.899   25.580   63.876    0.368
  269.250    0.408  223.922   25.580   64.858    0.368
  269.500    0.403  224.249   25.308   66.387    0.367
  269.750    0.399  224.474   24.857   67.250    0.368
  270.000    0.399  224.698   24.416   67.022    0.370
  270.250    0.403  225.538   24.244   65.921    0.371
  270.500    0.399  225.562   24.248   65.182    0.363
  270.750    0.388  225.182   24.428   63.983    0.356
  271.000    0.394  225.110   24.610   63.151    0.353
  271.250    0.401  225.135   24.702   62.683    0.353
  271.500    0.402  225.157   24.706   62.274    0.355
  271.750    0.401  225.185   24.784   61.422    0.359
  272.000    0.403  225.215   25.166   61.942    0.369
  272.250    0.406  225.240   25.169   64.136    0.367
  272.500    0.409  225.266   25.173   66.875    0.362
  272.750    0.408  225.089   24.994   68.585    0.355
  273.000    0.401  224.609   24.547   69.146    0.348
  273.250    0.385  223.666   23.743   70.192    0.345
  273.500    0.374  222.847   23.215   71.719    0.348
  273.750    0.394  222.467   22.387   70.038    0.347
  274.000    0.405  222.395   21.832   72.897    0.346
  274.250    0.409  222.625   21.287   76.060    0.347
  274.500    0.410  223.053   20.681   76.620    0.351
  274.750    0.410  223.653   19.972   72.604    0.358
  275.000    0.404  224.520   19.383   70.603    0.354
  275.250    0.404  224.543   19.106   70.620    0.351
  275.500    0.403  224.566   19.040   70.453    0.354
  275.750    0.406  224.791   19.042   70.466    0.358
  276.000    0.415  225.219   19.045   70.359    0.361
  276.250    0.432  225.658   19.048   68.007    0.360
  276.500    0.414  225.679   19.048   62.225    0.356
  276.750    0.400  225.299   18.915   62.963    0.348
  277.000    0.406  224.618   18.680   64.430    0.349
  277.250    0.419  224.242   18.413   64.809    0.355
  277.500    0.429  224.271   18.185   64.279    0.361
  277.750    0.427  224.212   18.029   65.024    0.360
  278.000    0.414  223.819   17.896   65.042    0.358
  278.250    0.405  223.040   18.159   67.719    0.356
  278.500    0.397  222.556   18.228   68.399    0.355
  278.750    0.388  222.176   18.231   68.171    0.355
  279.000    0.381  221.901   18.167   67.822    0.355
  279.250    0.387  222.018   17.909   67.744    0.360
  279.500    0.403  222.460   17.912   67.254    0.366
  279.750    0.407  223.295   17.912   67.266    0.365
  280.000    0.415  223.821   17.916   68.551    0.367
  280.250    0.420  224.248   17.984   70.139    0.368
  280.500    0.416  224.676   18.118   70.215    0.365
  280.750    0.402  225.192   18.281   65.563    0.359
  281.000    0.391  225.639   18.423   62.804    0.357
  281.250    0.390  225.665   18.559   64.759    0.359
  281.500    0.386  225.390   18.697   67.617    0.359
  281.750    0.390  225.012   18.903   70.656    0.359
  282.000    0.402  224.631   19.418   72.669    0.357
  282.250    0.413  224.172   21.046   71.406    0.348
  282.500    0.393  223.779   22.714   68.647    0.337
  282.750    0.368  222.995   22.553   62.854    0.252
  283.000    0.338  222.516   20.587   61.417    0.204
  283.250    0.349  222.139   17.167   62.642    0.213
  283.500    0.390  221.863   14.047   65.198    0.263
  283.750    0.388  222.057   12.040   68.424    0.296
  284.000    0.393  222.924   11.008   69.951    0.295
  284.250    0.396  223.355   10.384   74.080    0.299
  284.500    0.405  223.783    9.963   77.665    0.294
  284.750    0.414  224.211    9.717   79.376    0.288
  285.000    0.416  224.539    9.578   79.816    0.283
  285.250    0.402  224.570    9.414   81.779    0.285
  285.500    0.395  224.597    9.274   83.054    0.286
  285.750    0.402  224.620    9.274   84.041    0.284
  286.000    0.410  224.645    9.226   85.024    0.284
  286.250    0.411  224.669    9.161   86.006    0.284
  286.500    0.408  224.693    9.096   86.867    0.285
  286.750    0.417  224.642    9.032   87.368    0.284
  287.000    0.422  224.243    9.033   87.384    0.282
  287.250    0.415  223.464    9.100   85.465    0.278
  287.500    0.412  223.589    9.218   83.542    0.278
  287.750    0.411  223.815    9.387   80.288    0.279
