~VERSION INFORMATION
 VERS.                 2.0:   CWLS LOG ASCII STANDARD -VERSION 2.0
 WRAP.                  NO:   ONE LINE PER DEPTH STEP
~WELL INFORMATION BLOCK
#MNEM.UNIT           DATA                    DESCRIPTION OF MNEMONIC
#---------    -------------------            -------------------------------
# Generated from Intellog Unique Number	CW_76_78/WELL/2569
WELL.         NOVALTA PORTAGE                : Well_name    - WELL
LOC .         00/06-26-078-19W4/0            : Location     - LOCATION
UWI .         00/06-26-078-19W4/0            : Uwi          - UNIQUE WELL ID
ENTR.         MAX                            : Entered      - ENTERED BY
SRVC.         SCHLUMBERGER                   : Scn          - SERVICE COMPANY
STRT.M        190                            : top_depth    - START DEPTH
STOP.M        390                            : bot_depth    - STOP DEPTH
STEP.M        0.25                           : increment    - STEP LENGTH
 NULL. -999.2500:NULL Value
~CURVE INFORMATION BLOCK
#MNEM UNIT       ERCB CURVE CODE    CURVE DESCRIPTION
#-----------   ------------------   ----------------------------------
DEPT.M        00 001 00 00         : DEPTH        - DEPTH
ILD .OHMM     00 120 00 00         : RESD         - DEEP RESISTIVITY (DIL)
NPHI.V/V      00 330 00 00         : PHIN         - NEUTRON POROSITY (SANDSTONE)
DPHI.V/V      00 890 00 00         : PHID         - DENSITY POROSITY (SANDSTONE)
CALI.MM       00 280 01 00         : CAL          - CALIPER
GR  .API      00 310 00 00         : GR           - GAMMA RAY
~PARAMETER INFORMATION
#MNEM.UNIT           DATA             DESCRIPTION OF MNEMONIC
#---------         -----------     ------------------------------
GL  .M        556.74               : gl           - GROUND LEVEL ELEVATION
EREF.M        561.74               : kb           - ELEVATION OF DEPTH REFERENCE
DATM.M        556.74               : datum        - DATUM ELEVATION
TDD .M        391                  : tdd          - TOTAL DEPTH DRILLER
RUN .         ONE                  : Run          - RUN NUMBER
ENG .         BILL                 : Engineer     - RECORDING ENGINEER
WIT .         JIM                  : Witness      - WITNESSED BY
MUD .         GEL                  : Mud_type     - MUD TYPE
MATR.         SANDSTONE            : Logunit      - NEUTRON MATRIX
TMAX.C        27.8                 : BHT          - MAXIMUM RECORDED TEMPERATURE
BHTD.M        391                  : BHTDEP       - MAXIMUM RECORDED TEMPERATURE
RMT .C        23.3                 : MDTP         - TEMPERATURE OF MUD
MUDD.KG/M     1180                 : MWT          - MUD DENSITY
NEUT.         1                    : NEUTRON      - NEUTRON TYPE
RESI.         0                    : RESIST       - RESISTIVITY TYPE
RM  .OHMM     4.5                  : RM           - RESISTIVITY OF MUD
RMC .OHMM     0.25                 : RMC          - RESISTIVITY OF MUD CAKE
RMF .OHMM     4.8                  : RMF          - RESISTIVITY OF MUD FILTRATE
SUFT.C        -20                  : SUFT         - SURFACE TEMPERATURE
~A  DEPTH     RESD     PHIN     PHID      CAL       GR
# ...
  226.500   10.912    0.465    0.300  157.278   94.538
  226.750   10.517    0.439    0.300  157.799   99.898
  227.000   10.811    0.414    0.290  158.315  101.992
  227.250   11.216    0.412    0.282  158.825   95.169
  227.500   11.530    0.422    0.295  158.848   89.536
  227.750   11.530    0.437    0.304  158.871   92.820
  228.000   11.319    0.439    0.307  158.397   95.803
  228.250   11.010    0.447    0.306  158.417   98.787
  228.500   10.514    0.462    0.291  158.933  101.769
  228.750   10.514    0.471    0.273  159.944  110.399
  229.000   10.226    0.444    0.255  161.450  114.868
  229.250    9.856    0.428    0.248  160.975  105.669
  229.500   10.320    0.425    0.264  159.510   83.993
  229.750   11.316    0.418    0.312  158.540   75.686
  230.000   12.294    0.415    0.335  157.573   75.104
  230.250   12.873    0.407    0.335  157.101   76.007
  230.500   13.479    0.403    0.329  157.116   75.722
  230.750   14.509    0.422    0.329  156.649   74.251
  231.000   15.334    0.447    0.325  156.172   71.589
  231.250   16.506    0.427    0.309  156.190   67.442
  231.500   17.443    0.434    0.289  156.705   62.106
  231.750   17.767    0.444    0.271  157.224   60.933
  232.000   17.603    0.420    0.266  156.746   60.348
  232.250   17.123    0.420    0.305  156.274   58.282
  232.500   16.809    0.450    0.341  156.297   55.619
  232.750   16.351    0.452    0.354  156.318   54.148
  233.000   16.052    0.441    0.349  156.336   54.458
  233.250   16.051    0.441    0.321  157.352   55.064
  233.500   16.050    0.441    0.315  158.362   55.671
  233.750   15.612    0.449    0.334  158.876   56.573
  234.000   15.468    0.455    0.339  158.401   58.964
  234.250   15.326    0.440    0.336  157.929   61.353
  234.500   15.185    0.433    0.333  157.952   62.554
  234.750   15.184    0.444    0.321  157.972   61.377
  235.000   15.044    0.444    0.333  158.488   57.230
  235.250   14.906    0.427    0.334  158.506   56.949
  235.500   14.633    0.424    0.331  159.021   56.069
  235.750   14.366    0.415    0.336  159.042   56.080
  236.000   13.973    0.410    0.339  159.065   58.471
  236.250   13.344    0.414    0.344  159.085   57.888
  236.500   12.510    0.419    0.342  159.106   54.337
  236.750   11.200    0.426    0.338  159.126   54.645
  237.000   10.028    0.432    0.341  159.150   57.036
  237.250    8.733    0.436    0.346  159.167   59.722
  237.500    8.187    0.449    0.343  159.188   63.001
  237.750    8.263    0.488    0.304  158.716   67.769
  238.000    8.416    0.476    0.258  158.736   66.000
  238.250    8.732    0.428    0.235  158.262   62.744
  238.500    8.976    0.413    0.274  158.282   64.539
  238.750    8.976    0.443    0.308  158.303   68.115
  239.000    8.111    0.456    0.316  158.328   71.992
  239.250    6.095    0.465    0.323  158.349   75.274
  239.500    5.358    0.486    0.310  158.369   78.850
  239.750    5.358    0.503    0.295  158.392   83.319
  240.000    5.259    0.519    0.270  158.413   89.273
  240.250    5.357    0.528    0.243  158.431   97.606
  240.500    5.928    0.507    0.231  159.444   79.495
  240.750    7.062    0.475    0.282  159.467   74.458
  241.000    8.259    0.438    0.298  158.992   77.737
  241.250    8.890    0.443    0.283  159.008   82.206
  241.500    8.972    0.440    0.271  159.031   83.109
  241.750    9.223    0.440    0.298  158.556   76.884
  242.000    9.658    0.447    0.324  158.582   72.736
  242.250    9.657    0.460    0.332  158.600   72.157
  242.500    9.568    0.478    0.320  158.617   73.652
  242.750    9.137    0.473    0.297  158.638   77.528
  243.000    8.488    0.453    0.294  158.163   81.702
  243.250    7.599    0.469    0.295  157.691   84.981
  243.500    6.867    0.495    0.300  157.216   93.015
  243.750    6.320    0.495    0.293  156.742   98.376
  244.000    5.980    0.512    0.268  157.755  105.522
  244.250    5.980    0.504    0.248  160.747  106.127
  244.500    6.091    0.483    0.251  161.760   93.957
  244.750    6.261    0.529    0.296  160.292   85.059
  245.000    6.617    0.517    0.315  157.842   87.445
  245.250    7.057    0.487    0.324  157.857   94.291
  245.500    7.738    0.486    0.325  158.373   97.278
  245.750    9.832    0.505    0.309  158.891   80.056
  246.000   10.390    0.494    0.300  159.407   72.938
  246.250   11.820    0.492    0.329  160.916   65.522
  246.500   13.201    0.506    0.347  154.499   61.673
  246.750   13.823    0.510    0.362  153.031   59.307
  247.000   14.079    0.469    0.334  151.073   54.864
  247.250   14.079    0.432    0.339  152.087   55.768
  247.500   14.209    0.423    0.337  152.605   57.266
  247.750   14.340    0.431    0.337  153.116   59.954
  248.000   14.339    0.427    0.347  154.129   64.124
  248.250   14.339    0.425    0.346  154.152   63.542
  248.500   14.471    0.425    0.347  154.170   63.257
  248.750   14.470    0.424    0.350  153.698   66.242
  249.000   14.469    0.434    0.355  153.721   65.663
  249.250   14.469    0.441    0.361  153.741   63.297
  249.500   14.469    0.437    0.364  153.759   60.933
  249.750   14.602    0.437    0.360  153.780   61.836
  250.000   14.601    0.439    0.348  153.805   64.818
  250.250   14.601    0.448    0.342  153.821   63.644
  250.500   14.601    0.451    0.340  153.841   59.795
  250.750   14.333    0.426    0.348  153.864   60.697
  251.000   14.201    0.429    0.355  154.382   60.709
  251.250   13.942    0.456    0.357  155.388   59.236
  251.500   13.941    0.473    0.355  155.906   56.576
  251.750   13.941    0.461    0.344  155.432   52.130
  252.000   13.812    0.436    0.330  155.452   53.629
  252.250   13.812    0.424    0.329  155.968   55.723
  252.500   13.812    0.424    0.337  155.498   53.951
  252.750   13.684    0.424    0.343  155.026   53.666
  253.000   13.684    0.430    0.344  154.551   54.274
  253.250   13.433    0.460    0.347  154.567   53.694
  253.500   13.309    0.472    0.350  154.590   55.192
  253.750   13.187    0.466    0.349  154.608   54.608
  254.000   13.066    0.464    0.357  154.631   50.462
  254.250   12.945    0.456    0.359  154.159   52.553
  254.500   12.826    0.453    0.357  153.189   54.942
  254.750   12.708    0.475    0.359  152.712   56.441
  255.000   12.591    0.473    0.362  152.732   57.348
  255.250   12.475    0.460    0.356  152.758   56.765
  255.500   12.475    0.442    0.354  153.768   55.886
  255.750   12.474    0.431    0.357  154.282   56.789
  256.000   12.589    0.434    0.359  154.802   57.693
  256.250   12.705    0.448    0.354  154.325   55.923
  256.500   12.822    0.441    0.349  153.853   53.262
  256.750   13.060    0.441    0.350  153.871   55.355
  257.000   13.060    0.435    0.352  154.394   56.554
  257.250   13.059    0.445    0.350  154.407   59.836
  257.500   13.059    0.441    0.343  154.430   63.116
  257.750   13.058    0.441    0.341  153.460   62.237
  258.000   13.179    0.444    0.344  152.986   61.063
  258.250   13.178    0.457    0.348  153.006   61.668
  258.500   13.177    0.459    0.352  153.522   63.170
  258.750   13.177    0.449    0.354  154.535   64.666
  259.000   13.177    0.442    0.353  154.556   63.786
  259.250   13.298    0.454    0.349  154.576   60.827
  259.500   13.421    0.455    0.343  154.099   60.545
  259.750   13.544    0.449    0.345  153.634   59.070
  260.000   13.669    0.464    0.352  153.155   59.677
  260.250   13.795    0.460    0.351  153.175   65.334
  260.500   13.922    0.460    0.345  154.188   64.158
  260.750   13.922    0.449    0.337  155.194   62.391
  261.000   13.921    0.459    0.332  155.220   62.103
  261.250   14.180    0.479    0.333  155.240   59.740
  261.500   14.443    0.481    0.338  154.768   58.268
  261.750   14.576    0.463    0.340  154.291   57.982
  262.000   14.710    0.443    0.337  154.311   58.291
  262.250   14.710    0.457    0.335  153.837   60.383
  262.500   14.710    0.455    0.327  153.857   61.586
  262.750   14.845    0.452    0.321  153.878   60.409
