~VERSION INFORMATION
 VERS.                 2.0:   CWLS LOG ASCII STANDARD -VERSION 2.0
 WRAP.                  NO:   ONE LINE PER DEPTH STEP
~WELL INFORMATION BLOCK
#MNEM.UNIT           DATA                    DESCRIPTION OF MNEMONIC
#---------    -------------------            -------------------------------
# Generated from Intellog Unique Number	CW_82_90/WELL/3061
WELL.         CHEVRON ET AL WABASCA 07-04    : Well_name    - WELL
LOC .         00/07-04-085-23W4/0            : Location     - LOCATION
UWI .         00/07-04-085-23W4/0            : Uwi          - UNIQUE WELL ID
ENTR.         JAYE                           : Entered      - ENTERED BY
SRVC.         SCHLUMBERGER                   : Scn          - SERVICE COMPANY
DATE.         10 JAN 74                      : Date         - LOG DATE
STRT.M        146.304                        : top_depth    - START DEPTH
STOP.M        381.054                        : bot_depth    - STOP DEPTH
STEP.M        0.25                           : increment    - STEP LENGTH
 NULL. -999.2500:NULL Value
~CURVE INFORMATION BLOCK
#MNEM UNIT       ERCB CURVE CODE    CURVE DESCRIPTION
#-----------   ------------------   ----------------------------------
DEPT.M        00 001 00 00         : DEPTH        - DEPTH
ILD .OHMM     00 120 00 00         : RESD         - DEEP RESISTIVITY (DIL)
GR  .API      00 310 00 00         : GR           - GAMMA RAY
NPHI.V/V      00 330 00 00         : PHIN         - NEUTRON POROSITY (SANDSTONE)
DPHI.V/V      00 890 00 00         : PHID         - DENSITY POROSITY (SANDSTONE)
~PARAMETER INFORMATION
#MNEM.UNIT           DATA             DESCRIPTION OF MNEMONIC
#---------         -----------     ------------------------------
GL  .M        572.628              : gl           - GROUND LEVEL ELEVATION
EREF.M        575.767              : kb           - ELEVATION OF DEPTH REFERENCE
DATM.M        572.628              : datum        - DATUM ELEVATION
TDD .M        382.219              : tdd          - TOTAL DEPTH DRILLER
RUN .         ONE                  : Run          - RUN NUMBER
ENG .         CHAUDHARY            : Engineer     - RECORDING ENGINEER
WIT .         COLL                 : Witness      - WITNESSED BY
BASE.         EDMONTON             : Branch       - HOME BASE OF LOGGING UNIT
MUD .         GEL                  : Mud_type     - MUD TYPE
MATR.         SANDSTONE            : Logunit      - NEUTRON MATRIX
TMAX.C        20.5556              : BHT          - MAXIMUM RECORDED TEMPERATURE
BHTD.M        382.219              : BHTDEP       - MAXIMUM RECORDED TEMPERATURE
RMT .C        -17.7778             : MDTP         - TEMPERATURE OF MUD
MUDD.KG/M     9500                 : MWT          - MUD DENSITY
NEUT.         1                    : NEUTRON      - NEUTRON TYPE
RESI.         0                    : RESIST       - RESISTIVITY TYPE
RM  .OHMM     0.25                 : RM           - RESISTIVITY OF MUD
RMC .OHMM     0.25                 : RMC          - RESISTIVITY OF MUD CAKE
RMF .OHMM     7.67                 : RMF          - RESISTIVITY OF MUD FILTRATE
SUFT.C        4                    : SUFT         - SURFACE TEMPERATURE
~A  DEPTH     RESD       GR     PHIN     PHID
# ...
  320.304   17.622   72.065    0.444    0.211
  320.554   17.437   70.021    0.420    0.199
  320.804   16.640   69.142    0.431    0.166
  321.054   15.449   68.845    0.445    0.117
  321.304   15.015   69.423    0.454    0.112
  321.554   14.457   72.330    0.454    0.143
  321.804   14.301   76.985    0.452    0.172
  322.054   14.282   80.185    0.449    0.169
  322.304   14.511   81.928    0.449    0.217
  322.554   14.887   79.882    0.450    0.218
  322.804   15.411   78.421    0.456    0.211
  323.054   16.102   76.668    0.458    0.222
  323.304   17.127   75.206    0.458    0.214
  323.554   18.383   73.453    0.443    0.200
  323.804   19.203   71.991    0.434    0.156
  324.054   19.875   70.237    0.427    0.132
  324.304   19.848   71.688    0.428    0.101
  324.554   19.631   74.013    0.428    0.097
  324.804   19.246   76.339    0.427    0.159
  325.054   19.223   79.246    0.424    0.156
  325.304   19.182   80.989    0.422    0.223
  325.554   19.502   78.071    0.413    0.229
  325.804   19.656   76.026    0.387    0.238
  326.054   20.165   74.564    0.356    0.214
  326.304   20.675   73.685    0.366    0.178
  326.554   20.094   74.263    0.407    0.138
  326.804   18.328   78.334    0.432    0.078
  327.054   18.803   78.329    0.432    0.148
  327.304   19.638   77.159    0.426    0.218
  327.554   20.329   75.406    0.416    0.221
  327.804   20.860   72.778    0.398    0.227
  328.054   19.367   71.608    0.374    0.246
  328.304   17.829   70.146    0.375    0.210
  328.554   15.824   71.015    0.419    0.180
  328.804   14.301   76.544    0.432    0.137
  329.054   13.045   82.657    0.446    0.107
  329.304   11.474   86.439    0.458    0.210
  329.554   10.653   88.471    0.467    0.199
  329.804   10.636   89.049    0.478    0.208
  330.054   10.911   89.044    0.487    0.213
  330.304   11.296   87.291    0.488    0.218
  330.554   11.590   84.080    0.481    0.212
  330.804   11.994   80.871    0.469    0.198
  331.054   12.304   75.623    0.453    0.167
  331.304   12.509   80.860    0.483    0.102
  331.554   12.715   87.263    0.474    0.079
  331.804   12.927   89.298    0.459    0.188
  332.054   13.262   91.041    0.453    0.199
  332.304   13.729   89.578    0.452    0.208
  332.554   14.469   87.243    0.449    0.210
  332.804   15.254   85.198    0.446    0.216
  333.054   15.791   80.822    0.440    0.225
  333.304   15.764   77.904    0.439    0.231
  333.554   15.739   74.403    0.446    0.228
  333.804   15.430   72.941    0.428    0.203
  334.054   15.130   71.771    0.438    0.170
  334.304   14.836   72.930    0.466    0.126
  334.554   14.679   76.421    0.471    0.158
  334.804   14.653   77.581    0.465    0.207
  335.054   14.368   76.993    0.453    0.189
  335.304   14.217   80.192    0.446    0.158
  335.554   13.812   84.265    0.446    0.161
  335.804   13.181   86.007    0.451    0.203
  336.054   13.042   85.420    0.452    0.203
  336.304   13.020   84.249    0.451    0.171
  336.554   12.880   81.330    0.449    0.145
  336.804   12.746   78.703    0.453    0.126
  337.054   12.746   80.445    0.460    0.092
  337.304   12.583   83.936    0.462    0.133
  337.554   12.345   85.970    0.468    0.195
  337.804   12.321   83.925    0.465    0.171
  338.054   12.307   85.084    0.461    0.148
  338.304   12.392   87.119    0.454    0.132
  338.554   12.598   88.862    0.451    0.209
  338.804   12.813   89.730    0.445    0.196
  339.054   13.750   90.890    0.436    0.200
  339.304   14.892   90.302    0.404    0.203
  339.554   16.421   87.675    0.390    0.188
  339.804   17.157   83.591    0.417    0.164
  340.054   17.597   74.264    0.429    0.093
  340.304   17.894   77.171    0.426   -0.001
  340.554   17.863   82.410    0.404    0.068
  340.804   18.160   83.861    0.391    0.206
  341.054   21.144   80.360    0.374    0.198
  341.304   24.618   75.984    0.355    0.171
  341.554   25.950   73.940    0.328    0.129
  341.804   24.102   74.225    0.359    0.031
  342.054   21.199   76.551    0.388    0.032
  342.304   19.512   79.167    0.396    0.044
  342.554   19.122   80.037    0.395    0.147
  342.804   19.448   75.370    0.388    0.208
  343.054   20.308   76.239    0.381    0.207
  343.304   21.222   77.107    0.369    0.218
  343.554   23.400   74.188    0.360    0.213
  343.804   25.806   71.852    0.354    0.178
  344.054   28.718   70.973    0.344    0.137
  344.304   31.959   70.677    0.335    0.141
  344.554   35.566   68.049    0.330    0.180
  344.804   38.870   63.965    0.324    0.161
  345.054   43.257   61.922    0.324    0.136
  345.304   46.428   60.459    0.328    0.104
  345.554   45.116   61.619    0.345    0.078
  345.804   40.043   63.653    0.369    0.092
  346.054   36.857   66.560    0.376    0.091
  346.304   37.112   66.846    0.378    0.092
  346.554   38.080   66.550    0.382    0.132
  346.804   39.421   67.710    0.386    0.155
  347.054   40.801   66.246    0.384    0.182
  347.304   38.594   64.494    0.375    0.202
  347.554   34.886   64.198    0.362    0.225
  347.804   30.135   66.814    0.352    0.139
  348.054   24.435   70.013    0.392    0.075
  348.304   17.613   72.630    0.420    0.111
  348.554   17.741   75.537    0.441    0.195
  348.804   18.533   74.076    0.442    0.213
  349.054   20.443   73.779    0.433    0.208
  349.304   23.156   74.356    0.415    0.199
  349.554   24.198   71.146    0.397    0.165
  349.804   25.045   68.228    0.400    0.128
  350.054   25.228   69.388    0.415    0.055
  350.304   24.076   71.422    0.435    0.062
  350.554   20.805   73.747    0.447    0.114
  350.804   15.552   75.490    0.459    0.093
  351.054   13.556   77.523    0.464    0.093
  351.304   12.249   79.558    0.455    0.134
  351.554   11.584   81.590    0.446    0.190
  351.804   11.258   83.333    0.447    0.200
  352.054   11.234   84.785    0.448    0.201
  352.304   11.321   86.819    0.450    0.197
  352.554   11.510   87.978    0.447    0.191
  352.804   11.808   87.681    0.446    0.185
  353.054   12.002   85.929    0.448    0.179
  353.304   12.090   86.214    0.456    0.160
  353.554   12.181   86.791    0.458    0.146
  353.804   12.272   87.369    0.465    0.180
  354.054   12.143   87.655    0.469    0.204
  354.304   11.909   87.649    0.465    0.199
  354.554   11.363   87.644    0.458    0.175
  354.804   10.940   87.930    0.451    0.151
  355.054   10.727   89.381    0.446    0.120
  355.304   10.614   91.707    0.450    0.168
  355.554   10.692   93.740    0.450    0.196
  355.804   10.774   95.483    0.443    0.197
  356.054   11.051   97.225    0.440    0.208
  356.304   11.335   95.472    0.441    0.208
  356.554   11.840   91.971    0.427    0.198
  356.804   12.478   87.887    0.402    0.189
  357.054   13.040   81.764    0.403    0.204
  357.304   14.249   80.594    0.408    0.201
  357.554   15.573   80.588    0.409    0.177
  357.804   17.488   78.544    0.395    0.169
  358.054   20.174   70.382    0.386    0.198
  358.304   23.072   64.550    0.381    0.204
  358.554   26.863   63.670    0.373    0.202
  358.804   30.166   64.831    0.358    0.207
  359.054   34.806   61.329    0.350    0.241
  359.304   45.169   54.624    0.358    0.277
  359.554   49.824   52.579    0.382    0.335
  359.804   61.800   52.573    0.412    0.313
  360.054   75.281   53.151    0.427    0.296
  360.304   83.761   53.437    0.440    0.283
  360.554   86.693   51.683    0.443    0.277
  360.804   83.484   49.931    0.435    0.274
  361.054   70.212   47.886    0.428    0.262
  361.304   43.793   47.297    0.420    0.229
  361.554   34.242   49.040    0.441    0.171
  361.804   37.086   51.657    0.464    0.206
  362.054   40.540   52.816    0.465    0.261
  362.304   54.066   51.354    0.457    0.275
  362.554   71.443   43.193    0.456    0.298
  362.804   87.818   36.195    0.456    0.330
  363.054  109.916   35.607    0.451    0.328
  363.304  131.495   35.603    0.446    0.314
  363.554  130.109   35.013    0.443    0.316
