~VERSION INFORMATION
 VERS.                 2.0:   CWLS LOG ASCII STANDARD -VERSION 2.0
 WRAP.                  NO:   ONE LINE PER DEPTH STEP
~WELL INFORMATION BLOCK
#MNEM.UNIT           DATA                    DESCRIPTION OF MNEMONIC
#---------    -------------------            -------------------------------
# Generated from Intellog Unique Number	nealta/WELL/2301
WELL.         AMOCO BRINTNELL                : Well_name    - WELL
LOC .         05-24-080-23W4                 : Location     - LOCATION
UWI .         00/05-24-080-23W4/0            : Uwi          - UNIQUE WELL ID
ENTR.         MAX                            : Entered      - ENTERED BY
SRVC.         COMPUTALOG                     : Scn          - SERVICE COMPANY
STRT.M        215                            : top_depth    - START DEPTH
STOP.M        445                            : bot_depth    - STOP DEPTH
STEP.M        0.25                           : increment    - STEP LENGTH
 NULL. -999.2500:NULL Value
~CURVE INFORMATION BLOCK
#MNEM UNIT       ERCB CURVE CODE    CURVE DESCRIPTION
#-----------   ------------------   ----------------------------------
DEPT.M        00 001 00 00         : DEPTH        - DEPTH
NPHI.V/V      00 330 00 00         : PHIN         - NEUTRON POROSITY (SANDSTONE)
CALI.MM       00 280 01 00         : CAL          - CALIPER
ILD .OHMM     00 120 00 00         : RESD         - DEEP RESISTIVITY (DIL)
GR  .API      00 310 00 00         : GR           - GAMMA RAY
DPHI.V/V      00 890 00 00         : PHID         - DENSITY POROSITY (SANDSTONE)
~PARAMETER INFORMATION
#MNEM.UNIT           DATA             DESCRIPTION OF MNEMONIC
#---------         -----------     ------------------------------
GL  .M        583                  : gl           - GROUND LEVEL ELEVATION
EREF.M        587.65               : kb           - ELEVATION OF DEPTH REFERENCE
DATM.M        583                  : datum        - DATUM ELEVATION
TDD .M        444                  : tdd          - TOTAL DEPTH DRILLER
RUN .         ONE                  : Run          - RUN NUMBER
ENG .         BILL                 : Engineer     - RECORDING ENGINEER
WIT .         JIM                  : Witness      - WITNESSED BY
MUD .         GEL                  : Mud_type     - MUD TYPE
MATR.         SANDSTONE            : Logunit      - NEUTRON MATRIX
TMAX.C        29                   : BHT          - MAXIMUM RECORDED TEMPERATURE
BHTD.M        444                  : BHTDEP       - MAXIMUM RECORDED TEMPERATURE
MATR.         1                    : LOGUNIT      - NEUTRON MATRIX
RMT .C        10                   : MDTP         - TEMPERATURE OF MUD
NEUT.         1                    : NEUTRON      - NEUTRON TYPE
RESI.         0                    : RESIST       - RESISTIVITY TYPE
RMC .OHMM     10.2                 : RMC          - RESISTIVITY OF MUD CAKE
RMF .OHMM     5.9                  : RMF          - RESISTIVITY OF MUD FILTRATE
SUFT.C        -20                  : SUFT         - SURFACE TEMPERATURE
~A  DEPTH     PHIN      CAL     RESD       GR     PHID
# ...
  361.000    0.175  226.051   26.760   63.413    0.033
  361.250    0.199  225.929   26.039   67.575    0.046
  361.500    0.263  225.709   21.045   71.678    0.079
  361.750    0.401  225.717   15.902   76.668    0.184
  362.000    0.404  225.384   13.138   82.014    0.236
  362.250    0.414  225.880   11.437   85.698    0.237
  362.500    0.432  226.060   10.672   85.202    0.239
  362.750    0.436  226.140   10.613   83.919    0.236
  363.000    0.420  226.221   10.980   83.425    0.229
  363.250    0.389  226.230   11.239   83.788    0.233
  363.500    0.378  225.897   11.253   85.352    0.259
  363.750    0.378  225.569   11.109   86.607    0.262
  364.000    0.385  225.563   10.722   85.685    0.253
  364.250    0.395  225.852   10.086   84.770    0.245
  364.500    0.402  226.228    9.421   83.981    0.239
  364.750    0.394  226.316    8.992   81.530    0.229
  365.000    0.380  226.420    8.804   82.333    0.204
  365.250    0.374  226.093    8.814   84.551    0.205
  365.500    0.374  225.758    8.778   87.865    0.220
  365.750    0.377  225.632    8.600   91.303    0.229
  366.000    0.384  225.716    8.353   93.774    0.230
  366.250    0.395  225.815    8.244   93.828    0.234
  366.500    0.403  225.894    8.244   92.609    0.239
  366.750    0.409  225.977    8.266   92.186    0.231
  367.000    0.413  226.074    8.278   92.295    0.212
  367.250    0.413  225.956    8.408   91.491    0.197
  367.500    0.409  225.722    8.729   89.600    0.191
  367.750    0.406  225.817    9.391   88.136    0.191
  368.000    0.399  225.913   10.068   90.195    0.193
  368.250    0.391  225.988   10.526   94.842    0.200
  368.500    0.396  225.761   10.600   95.861    0.205
  368.750    0.394  225.437   10.422   95.303    0.209
  369.000    0.381  225.116   10.194   94.625    0.207
  369.250    0.368  224.641   10.121   94.840    0.191
  369.500    0.380  223.905   10.061   95.638    0.199
  369.750    0.400  223.577    9.931   96.898    0.218
  370.000    0.413  223.552    9.853   98.891    0.221
  370.250    0.420  223.429    9.794  100.275    0.216
  370.500    0.427  223.209    9.739  100.563    0.211
  370.750    0.443  223.301    9.659   99.886    0.216
  371.000    0.447  223.389    9.518   98.668    0.224
  371.250    0.438  223.472    9.518   97.997    0.227
  371.500    0.433  223.247    9.438   98.412    0.225
  371.750    0.438  223.129    9.389   99.911    0.221
  372.000    0.447  223.518    9.397  102.013    0.218
  372.250    0.442  224.899    9.415  103.159    0.219
  372.500    0.437  225.424    9.424  100.191    0.221
  372.750    0.429  225.491    9.577  100.484    0.225
  373.000    0.429  225.268    9.676  101.494    0.232
  373.250    0.423  224.944    9.758  101.542    0.236
  373.500    0.409  224.621    9.842  100.263    0.232
  373.750    0.398  224.325    9.929   98.520    0.223
  374.000    0.396  224.404    9.946   98.073    0.220
  374.250    0.405  224.512    9.957   98.365    0.221
  374.500    0.408  224.880   10.024   99.013    0.225
  374.750    0.406  225.144   10.074   99.784    0.229
  375.000    0.404  225.224   10.087  100.078    0.229
  375.250    0.408  225.332   10.101   98.831    0.221
  375.500    0.405  225.410   10.116   98.368    0.216
  375.750    0.407  225.091   10.129   98.907    0.217
  376.000    0.421  224.777   10.088   99.080    0.216
  376.250    0.434  224.453   10.066   99.493    0.214
  376.500    0.435  224.222   10.080  100.206    0.212
  376.750    0.425  224.406   10.095  101.044    0.209
  377.000    0.422  224.904   10.108  102.614    0.203
  377.250    0.423  225.794   10.049  104.358    0.209
  377.500    0.418  226.685   10.043  105.199    0.216
  377.750    0.414  227.369   10.056  104.402    0.218
  378.000    0.413  227.852   10.088  102.815    0.215
  378.250    0.409  228.363   10.161  103.478    0.213
  378.500    0.410  228.441   10.101  106.545    0.215
  378.750    0.411  229.323   10.040  108.294    0.214
  379.000    0.413  230.520    9.926  106.406    0.206
  379.250    0.415  231.411    9.862  104.636    0.201
  379.500    0.418  231.591    9.833  104.261    0.201
  379.750    0.411  230.638    9.720  104.235    0.203
  380.000    0.399  229.448    9.731  105.038    0.203
  380.250    0.400  229.128    9.886  102.427    0.204
  380.500    0.404  230.031   10.044  101.989    0.205
  380.750    0.408  231.531   10.168  103.123    0.203
  381.000    0.409  233.015   10.162  105.347    0.200
  381.250    0.413  233.824    9.813  108.262    0.205
  381.500    0.419  233.500    9.465  108.068    0.215
  381.750    0.414  232.357    9.338  105.693    0.212
  382.000    0.399  230.319    9.367  106.222    0.202
  382.250    0.389  228.794    9.549  108.450    0.195
  382.500    0.390  228.376    9.827  111.527    0.195
  382.750    0.400  229.033   10.062  115.477    0.202
  383.000    0.408  229.969   10.073  118.060    0.205
  383.250    0.412  230.045    9.870  112.773    0.208
  383.500    0.412  229.830    9.460  107.673    0.208
  383.750    0.410  228.305    9.172  104.457    0.198
  384.000    0.408  225.362    9.084  103.663    0.179
  384.250    0.404  222.161    9.098  105.442    0.167
  384.500    0.402  223.929    9.108  109.275    0.173
  384.750    0.409  226.818    9.188  111.503    0.191
  385.000    0.406  230.326    9.208  109.735    0.200
  385.250    0.395  231.825    9.255  104.457    0.203
  385.500    0.374  230.804    9.460   96.881    0.192
  385.750    0.333  228.713   10.161   88.145    0.136
  386.000    0.286  227.960   10.814   84.164    0.095
  386.250    0.275  229.648   11.716   85.661    0.077
  386.500    0.334  230.429   13.164   89.710    0.151
  386.750    0.389  230.316   15.599   91.698    0.209
  387.000    0.404  229.297   18.906   90.413    0.221
  387.250    0.377  226.770   20.431   87.292    0.227
  387.500    0.351  223.925   20.003   83.558    0.215
  387.750    0.343  223.194   19.742   78.764    0.179
  388.000    0.372  223.074   20.125   78.329    0.196
  388.250    0.403  223.154   21.036   81.646    0.232
  388.500    0.418  223.235   22.250   85.386    0.264
  388.750    0.412  223.348   23.276   83.007    0.269
  389.000    0.379  223.409   23.276   80.539    0.244
  389.250    0.324  223.501   23.679   80.100    0.176
  389.500    0.308  223.587   23.291   84.387    0.130
  389.750    0.316  223.267   21.639   90.124    0.117
  390.000    0.338  222.643   19.268   95.493    0.138
  390.250    0.373  222.250   16.340  100.605    0.191
  390.500    0.405  221.926   13.404  102.926    0.214
  390.750    0.412  221.985   12.753  105.879    0.223
  391.000    0.416  222.062   12.135  104.293    0.216
  391.250    0.414  221.944   11.723   98.772    0.209
  391.500    0.406  221.524   11.548   93.254    0.210
  391.750    0.395  220.901   11.554   95.261    0.217
  392.000    0.391  221.399   11.587   96.579    0.217
  392.250    0.391  221.895   11.772   94.205    0.216
  392.500    0.396  222.686   11.893   91.830    0.212
  392.750    0.405  223.366   11.950   92.728    0.206
  393.000    0.414  223.742   11.965   96.168    0.206
  393.250    0.420  223.852   11.969   96.626    0.225
  393.500    0.414  223.939   11.895   92.640    0.242
  393.750    0.404  224.409   11.738   87.362    0.241
  394.000    0.398  224.590   11.720   82.458    0.238
  394.250    0.404  224.472   11.735   79.847    0.238
  394.500    0.412  224.251   11.805   78.801    0.236
  394.750    0.381  224.345   12.192   74.796    0.211
  395.000    0.313  224.441   12.776   69.041    0.146
  395.250    0.304  224.113   14.955   63.768    0.111
  395.500    0.303  223.792   16.494   63.209    0.110
  395.750    0.297  223.275   17.878   64.107    0.112
  396.000    0.283  222.755   19.601   64.099    0.104
  396.250    0.263  222.754   21.858   62.288    0.078
  396.500    0.241  222.413   22.392   65.108    0.064
  396.750    0.276  222.496   19.785   73.873    0.124
  397.000    0.348  222.593   16.404   80.825    0.191
  397.250    0.390  223.088   14.294   84.260    0.220
