~VERSION INFORMATION
 VERS.                 2.0:   CWLS LOG ASCII STANDARD -VERSION 2.0
 WRAP.                  NO:   ONE LINE PER DEPTH STEP
~WELL INFORMATION BLOCK
#MNEM.UNIT           DATA                    DESCRIPTION OF MNEMONIC
#---------    -------------------            -------------------------------
# Generated from Intellog Unique Number	CW_82_90/WELL/3061
WELL.         CHEVRON ET AL WABASCA 07-04    : Well_name    - WELL
LOC .         00/07-04-085-23W4/0            : Location     - LOCATION
UWI .         00/07-04-085-23W4/0            : Uwi          - UNIQUE WELL ID
ENTR.         JAYE                           : Entered      - ENTERED BY
SRVC.         SCHLUMBERGER                   : Scn          - SERVICE COMPANY
DATE.         10 JAN 74                      : Date         - LOG DATE
STRT.M        146.304                        : top_depth    - START DEPTH
STOP.M        381.054                        : bot_depth    - STOP DEPTH
STEP.M        0.25                           : increment    - STEP LENGTH
 NULL. -999.2500:NULL Value
~CURVE INFORMATION BLOCK
#MNEM UNIT       ERCB CURVE CODE    CURVE DESCRIPTION
#-----------   ------------------   ----------------------------------
DEPT.M        00 001 00 00         : DEPTH        - DEPTH
ILD .OHMM     00 120 00 00         : RESD         - DEEP RESISTIVITY (DIL)
GR  .API      00 310 00 00         : GR           - GAMMA RAY
NPHI.V/V      00 330 00 00         : PHIN         - NEUTRON POROSITY (SANDSTONE)
DPHI.V/V      00 890 00 00         : PHID         - DENSITY POROSITY (SANDSTONE)
~PARAMETER INFORMATION
#MNEM.UNIT           DATA             DESCRIPTION OF MNEMONIC
#---------         -----------     ------------------------------
GL  .M        572.628              : gl           - GROUND LEVEL ELEVATION
EREF.M        575.767              : kb           - ELEVATION OF DEPTH REFERENCE
DATM.M        572.628              : datum        - DATUM ELEVATION
TDD .M        382.219              : tdd          - TOTAL DEPTH DRILLER
RUN .         ONE                  : Run          - RUN NUMBER
ENG .         CHAUDHARY            : Engineer     - RECORDING ENGINEER
WIT .         COLL                 : Witness      - WITNESSED BY
BASE.         EDMONTON             : Branch       - HOME BASE OF LOGGING UNIT
MUD .         GEL                  : Mud_type     - MUD TYPE
MATR.         SANDSTONE            : Logunit      - NEUTRON MATRIX
TMAX.C        20.5556              : BHT          - MAXIMUM RECORDED TEMPERATURE
BHTD.M        382.219              : BHTDEP       - MAXIMUM RECORDED TEMPERATURE
RMT .C        -17.7778             : MDTP         - TEMPERATURE OF MUD
MUDD.KG/M     9500                 : MWT          - MUD DENSITY
NEUT.         1                    : NEUTRON      - NEUTRON TYPE
RESI.         0                    : RESIST       - RESISTIVITY TYPE
RM  .OHMM     0.25                 : RM           - RESISTIVITY OF MUD
RMC .OHMM     0.25                 : RMC          - RESISTIVITY OF MUD CAKE
RMF .OHMM     7.67                 : RMF          - RESISTIVITY OF MUD FILTRATE
SUFT.C        4                    : SUFT         - SURFACE TEMPERATURE
~A  DEPTH     RESD       GR     PHIN     PHID
# ...
  189.804   36.323   39.884    0.476    0.385
  190.054   37.205   41.641    0.476    0.379
  190.304   38.124   43.392    0.473    0.376
  190.554   39.050   43.046    0.469    0.373
  190.804   39.639   41.818    0.466    0.370
  191.054   39.501   40.874    0.464    0.364
  191.304   38.311   40.537    0.460    0.370
  191.554   37.172   39.608    0.457    0.364
  191.804   35.728   38.077    0.448    0.363
  192.054   33.409   35.641    0.443    0.350
  192.304   31.822   35.010    0.450    0.316
  192.554   30.887   34.967    0.455    0.268
  192.804   30.252   36.714    0.453    0.275
  193.054   29.330   37.575    0.449    0.359
  193.304   28.727   37.531    0.454    0.374
  193.554   28.114   35.996    0.462    0.366
  193.804   27.515   34.768    0.469    0.366
  194.054   27.419   35.023    0.479    0.366
  194.304   28.318   36.183    0.487    0.364
  194.554   29.040   36.731    0.490    0.351
  194.804   30.003   35.792    0.493    0.341
  195.054   31.305   35.758    0.477    0.351
  195.304   32.946   35.724    0.477    0.357
  195.554   35.626   36.566    0.480    0.357
  195.804   39.567   36.836    0.472    0.356
  196.054   41.658   36.494    0.462    0.356
  196.304   42.270   35.560    0.457    0.352
  196.554   42.522   35.213    0.463    0.354
  196.804   42.390   35.776    0.464    0.354
  197.054   42.226   35.742    0.460    0.367
  197.304   42.494   35.405    0.456    0.359
  197.554   42.731   35.660    0.456    0.353
  197.804   42.598   34.417    0.456    0.353
  198.054   42.467   33.493    0.456    0.357
  198.304   42.319   32.843    0.462    0.363
  198.554   42.571   32.515    0.467    0.361
  198.804   42.423   31.880    0.472    0.359
  199.054   42.292   31.836    0.473    0.357
  199.304   42.161   31.489    0.470    0.362
  199.554   41.669   31.451    0.466    0.362
  199.804   41.540   31.720    0.460    0.357
  200.054   40.654   31.378    0.455    0.355
  200.304   39.803   31.637    0.454    0.356
  200.554   38.604   31.897    0.451    0.355
  200.804   37.455   32.754    0.451    0.352
  201.054   36.000   33.302    0.456    0.351
  201.304   30.205   32.662    0.462    0.348
  201.554   24.684   31.737    0.469    0.346
  201.804   17.603   31.082    0.474    0.349
  202.054   12.781   32.242    0.479    0.353
  202.304   16.866   34.004    0.481    0.357
  202.554   22.057   36.646    0.487    0.360
  202.804   26.834   38.990    0.495    0.355
  203.054   30.633   40.438    0.506    0.333
  203.304   34.035   40.410    0.500    0.304
  203.554   36.130   39.172    0.491    0.271
  203.804   37.344   38.840    0.489    0.319
  204.054   37.566   39.383    0.491    0.357
  204.304   36.435   39.648    0.491    0.350
  204.554   34.718   40.505    0.488    0.345
  204.804   33.082   40.769    0.487    0.342
  205.054   31.215   40.124    0.485    0.337
  205.304   28.442   40.085    0.483    0.342
  205.554   21.029   40.941    0.480    0.358
  205.804   12.977   41.798    0.476    0.351
  206.054   10.310   42.948    0.475    0.339
  206.304    9.913   43.805    0.475    0.348
  206.554    9.883   45.561    0.474    0.347
  206.804    9.938   51.193    0.474    0.326
  207.054   10.653   55.626    0.478    0.309
  207.304   12.609   58.278    0.487    0.277
  207.554   14.930   59.433    0.494    0.242
  207.804   19.880   59.380    0.498    0.210
  208.054   18.100   59.350    0.502    0.198
  208.304   15.469   59.013    0.500    0.270
  208.554   13.579   56.284    0.495    0.312
  208.804   12.593   54.455    0.492    0.326
  209.054   12.436   56.495    0.492    0.326
  209.304   14.208   59.152    0.492    0.318
  209.554   16.354   60.899    0.497    0.293
  209.804   15.874   59.965    0.498    0.231
  210.054   12.278   58.732    0.494    0.221
  210.304   10.685   56.301    0.491    0.282
  210.554    8.422   54.467    0.493    0.315
  210.804    5.845   56.219    0.498    0.332
  211.054    5.322   60.657    0.514    0.327
  211.304    6.771   66.293    0.534    0.319
  211.554    8.935   74.014    0.549    0.296
  211.804   13.146   80.540    0.563    0.260
  212.054   18.995   80.502    0.537    0.261
  212.304   24.841   74.191    0.526    0.276
  212.554   31.026   69.676    0.510    0.297
  212.804   32.372   65.449    0.497    0.307
  213.054   33.133   63.023    0.484    0.329
  213.304   33.056   60.895    0.476    0.337
  213.554   33.176   59.061    0.476    0.338
  213.804   33.111   57.535    0.480    0.350
  214.054   33.611   55.402    0.485    0.352
  214.304   33.798   53.871    0.488    0.349
  214.554   34.334   52.639    0.492    0.349
  214.804   34.839   51.401    0.479    0.362
  215.054   34.965   50.761    0.467    0.372
  215.304   35.575   50.424    0.448    0.375
  215.554   36.770   50.679    0.450    0.362
  215.804   37.648   51.242    0.453    0.369
  216.054   38.563   52.984    0.453    0.365
  216.304   39.145   54.442    0.452    0.352
  216.554   39.735   54.687    0.454    0.338
  216.804   39.956   54.663    0.458    0.348
  217.054   39.833   54.321    0.459    0.353
  217.304   39.694   53.093    0.458    0.356
  217.554   39.230   50.961    0.456    0.361
  217.804   38.758   49.728    0.453    0.352
  218.054   37.590   48.486    0.450    0.335
  218.304   36.458   47.552    0.449    0.328
  218.554   35.359   47.210    0.449    0.335
  218.804   34.619   47.465    0.452    0.351
  219.054   34.215   48.326    0.458    0.353
  219.304   33.789   49.476    0.465    0.344
  219.554   33.684   50.039    0.473    0.345
  219.804   33.567   50.299    0.479    0.350
  220.054   33.464   50.554    0.480    0.339
  220.304   33.360   50.520    0.480    0.341
  220.554   32.661   50.481    0.479    0.363
  220.804   31.965   50.442    0.477    0.360
  221.054   31.002   50.692    0.472    0.359
  221.304   30.080   51.251    0.468    0.362
  221.554   29.439   51.813    0.472    0.355
  221.804   28.552   52.964    0.474    0.340
  222.054   27.702   54.119    0.473    0.339
  222.304   26.868   57.959    0.472    0.336
  222.554   26.295   61.502    0.482    0.342
  222.804   25.764   64.746    0.494    0.344
  223.054   24.988   68.880    0.510    0.339
  223.304   24.235   74.517    0.519    0.337
  223.554   23.487   77.164    0.511    0.333
  223.804   22.601   69.958    0.504    0.331
  224.054   21.536   65.741    0.504    0.329
  224.304   20.154   63.007    0.504    0.328
  224.554   17.538   62.078    0.501    0.333
  224.804   13.080   62.328    0.500    0.346
  225.054   10.403   63.492    0.500    0.346
  225.304    7.352   67.328    0.501    0.352
  225.554    5.535   70.274    0.504    0.357
  225.804    4.949   73.811    0.506    0.357
  226.054    4.506   76.762    0.511    0.353
  226.304    4.141   77.917    0.512    0.340
  226.554    3.874   72.198    0.523    0.294
  226.804    3.621   76.342    0.516    0.243
  227.054    3.548   81.974    0.504    0.178
  227.304    3.497   88.207    0.512    0.256
  227.554    3.399   90.849    0.536    0.251
  227.804    3.297   91.701    0.564    0.249
  228.054    3.228   91.966    0.576    0.257
  228.304    3.159   92.524    0.576    0.260
  228.554    3.178   93.067    0.582    0.260
  228.804    3.168   93.303    0.590    0.253
  229.054    3.186   93.890    0.600    0.221
  229.304    3.235   95.339    0.609    0.228
  229.554    3.281   96.200    0.618    0.254
  229.804    3.331   95.564    0.615    0.242
  230.054    3.412   94.332    0.606    0.242
  230.304    3.493   93.388    0.596    0.240
  230.554    3.515   94.245    0.581    0.229
  230.804    3.498   94.808    0.571    0.216
  231.054    3.557   92.978    0.573    0.205
  231.304    3.642   90.846    0.580    0.195
  231.554    3.729   92.299    0.584    0.196
  231.804    3.855   93.752    0.588    0.230
  232.054    3.986   94.311    0.593    0.236
  232.304    4.349   94.267    0.597    0.247
  232.554    5.057   92.438    0.599    0.261
  232.804    7.239   88.216    0.592    0.263
  233.054    8.113   84.293    0.584    0.259
