~VERSION INFORMATION
 VERS.                 2.0:   CWLS LOG ASCII STANDARD -VERSION 2.0
 WRAP.                  NO:   ONE LINE PER DEPTH STEP
~WELL INFORMATION BLOCK
#MNEM.UNIT           DATA                    DESCRIPTION OF MNEMONIC
#---------    -------------------            -------------------------------
# Generated from Intellog Unique Number	CW_82_90/WELL/3061
WELL.         CHEVRON ET AL WABASCA 07-04    : Well_name    - WELL
LOC .         00/07-04-085-23W4/0            : Location     - LOCATION
UWI .         00/07-04-085-23W4/0            : Uwi          - UNIQUE WELL ID
ENTR.         JAYE                           : Entered      - ENTERED BY
SRVC.         SCHLUMBERGER                   : Scn          - SERVICE COMPANY
DATE.         10 JAN 74                      : Date         - LOG DATE
STRT.M        146.304                        : top_depth    - START DEPTH
STOP.M        381.054                        : bot_depth    - STOP DEPTH
STEP.M        0.25                           : increment    - STEP LENGTH
 NULL. -999.2500:NULL Value
~CURVE INFORMATION BLOCK
#MNEM UNIT       ERCB CURVE CODE    CURVE DESCRIPTION
#-----------   ------------------   ----------------------------------
DEPT.M        00 001 00 00         : DEPTH        - DEPTH
ILD .OHMM     00 120 00 00         : RESD         - DEEP RESISTIVITY (DIL)
GR  .API      00 310 00 00         : GR           - GAMMA RAY
NPHI.V/V      00 330 00 00         : PHIN         - NEUTRON POROSITY (SANDSTONE)
DPHI.V/V      00 890 00 00         : PHID         - DENSITY POROSITY (SANDSTONE)
~PARAMETER INFORMATION
#MNEM.UNIT           DATA             DESCRIPTION OF MNEMONIC
#---------         -----------     ------------------------------
GL  .M        572.628              : gl           - GROUND LEVEL ELEVATION
EREF.M        575.767              : kb           - ELEVATION OF DEPTH REFERENCE
DATM.M        572.628              : datum        - DATUM ELEVATION
TDD .M        382.219              : tdd          - TOTAL DEPTH DRILLER
RUN .         ONE                  : Run          - RUN NUMBER
ENG .         CHAUDHARY            : Engineer     - RECORDING ENGINEER
WIT .         COLL                 : Witness      - WITNESSED BY
BASE.         EDMONTON             : Branch       - HOME BASE OF LOGGING UNIT
MUD .         GEL                  : Mud_type     - MUD TYPE
MATR.         SANDSTONE            : Logunit      - NEUTRON MATRIX
TMAX.C        20.5556              : BHT          - MAXIMUM RECORDED TEMPERATURE
BHTD.M        382.219              : BHTDEP       - MAXIMUM RECORDED TEMPERATURE
RMT .C        -17.7778             : MDTP         - TEMPERATURE OF MUD
MUDD.KG/M     9500                 : MWT          - MUD DENSITY
NEUT.         1                    : NEUTRON      - NEUTRON TYPE
RESI.         0                    : RESIST       - RESISTIVITY TYPE
RM  .OHMM     0.25                 : RM           - RESISTIVITY OF MUD
RMC .OHMM     0.25                 : RMC          - RESISTIVITY OF MUD CAKE
RMF .OHMM     7.67                 : RMF          - RESISTIVITY OF MUD FILTRATE
SUFT.C        4                    : SUFT         - SURFACE TEMPERATURE
~A  DEPTH     RESD       GR     PHIN     PHID
# ...
  233.304   10.329   80.976    0.562    0.253
  233.554   14.526   74.660    0.504    0.224
  233.804   20.229   69.250    0.479    0.211
  234.054   20.901   64.138    0.473    0.231
  234.304   20.844   59.314    0.486    0.244
  234.554   20.577   56.595    0.487    0.279
  234.804   20.336   53.562    0.492    0.359
  235.054   19.903   52.334    0.496    0.357
  235.304   18.458   51.997    0.502    0.354
  235.554   16.362   52.252    0.500    0.350
  235.804   11.988   50.114    0.484    0.343
  236.054   10.062   49.479    0.483    0.356
  236.304    9.241   50.942    0.473    0.345
  236.554    8.966   54.171    0.470    0.333
  236.804    9.101   54.739    0.473    0.333
  237.054    9.841   55.297    0.478    0.322
  237.304   10.922   56.751    0.490    0.303
  237.554   11.608   57.906    0.498    0.298
  237.804   12.444   58.454    0.498    0.283
  238.054   13.826   58.719    0.491    0.255
  238.304   15.092   59.277    0.484    0.314
  238.554   15.883   58.044    0.484    0.321
  238.804   16.417   57.399    0.485    0.306
  239.054   16.962   57.365    0.484    0.282
  239.304   17.525   57.625    0.473    0.263
  239.554   18.436   58.770    0.467    0.318
  239.804   19.765   59.030    0.472    0.321
  240.054   21.381   58.399    0.477    0.323
  240.304   24.188   57.455    0.472    0.328
  240.554   28.382   56.824    0.450    0.328
  240.804   33.290   56.781    0.428    0.327
  241.054   37.676   56.449    0.393    0.328
  241.304   41.860   55.505    0.373    0.323
  241.554   39.498   54.575    0.387    0.314
  241.804   32.572   54.238    0.448    0.261
  242.054   23.227   55.389    0.453    0.192
  242.304   18.628   57.737    0.457    0.203
  242.554   16.813   61.270    0.463    0.317
  242.804   16.913   63.330    0.468    0.320
  243.054   17.475   63.590    0.471    0.274
  243.304   16.955   61.760    0.478    0.242
  243.554   16.438   60.821    0.484    0.307
  243.804   15.955   60.474    0.483    0.303
  244.054   15.197   60.593    0.480    0.315
  244.304   15.008   60.297    0.479    0.325
  244.554   15.659   59.999    0.479    0.306
  244.804   15.889   59.994    0.478    0.308
  245.054   15.840   59.989    0.479    0.313
  245.304   15.363   59.984    0.485    0.314
  245.554   14.248   60.270    0.491    0.313
  245.804   12.516   60.846    0.496    0.313
  246.054   10.888   61.424    0.504    0.320
  246.304    9.824   63.165    0.511    0.320
  246.554    9.614   64.618    0.511    0.312
  246.804    9.502   66.361    0.517    0.300
  247.054    9.380   68.685    0.521    0.286
  247.304    9.180   70.719    0.492    0.275
  247.554    8.591   70.713    0.485    0.270
  247.804    8.116   70.709    0.478    0.267
  248.054    7.062   70.704    0.474    0.274
  248.304    5.979   71.279    0.471    0.269
  248.554    5.446   72.732    0.503    0.254
  248.804    5.376   75.057    0.524    0.249
  249.054    5.511   75.051    0.537    0.254
  249.304    5.746   73.881    0.546    0.267
  249.554    6.047   73.002    0.548    0.292
  249.804    6.536   72.705    0.544    0.291
  250.054    6.944   72.700    0.540    0.289
  250.304    7.369   72.985    0.538    0.289
  250.554    7.691   72.397    0.538    0.291
  250.804    8.022   70.061    0.531    0.292
  251.054    8.593   68.016    0.517    0.293
  251.304    9.208   65.681    0.510    0.300
  251.554    9.868   62.471    0.512    0.314
  251.804   10.671   62.465    0.515    0.308
  252.054   11.431   62.752    0.516    0.321
  252.304   11.717   63.330    0.512    0.325
  252.554   11.787   63.614    0.502    0.321
  252.804   11.746   63.319    0.501    0.310
  253.054   11.397   62.147    0.509    0.319
  253.304   10.958   60.976    0.499    0.315
  253.554   10.336   58.932    0.493    0.307
  253.804    9.673   57.469    0.499    0.301
  254.054    9.048   57.756    0.505    0.285
  254.304    8.241   60.372    0.510    0.269
  254.554    7.369   62.115    0.505    0.257
  254.804    6.770   63.275    0.502    0.264
  255.054    6.335   64.727    0.503    0.278
  255.304    5.982   67.051    0.509    0.269
  255.554    5.598   69.668    0.515    0.265
  255.804    5.188   72.285    0.518    0.270
  256.054    4.943   76.356    0.520    0.270
  256.304    4.971   77.518    0.503    0.254
  256.554    5.375   77.220    0.497    0.247
  256.804    5.975   76.050    0.509    0.253
  257.054    7.138   74.878    0.538    0.255
  257.304    8.684   74.873    0.557    0.260
  257.554   10.754   74.287    0.528    0.269
  257.804   11.734   71.368    0.485    0.268
  258.054   11.799   68.740    0.489    0.242
  258.304   11.243   66.405    0.495    0.246
  258.554    9.020   62.904    0.488    0.267
  258.804    7.369   61.733    0.495    0.283
  259.054    6.298   61.728    0.509    0.276
  259.304    5.382   62.888    0.528    0.252
  259.554    5.410   64.921    0.548    0.227
  259.804    6.016   67.537    0.567    0.217
  260.054    7.517   68.697    0.565    0.245
  260.304    9.062   70.149    0.543    0.298
  260.554   11.226   69.560    0.536    0.286
  260.804   12.700   67.808    0.524    0.298
  261.054   14.105   65.181    0.511    0.315
  261.304   14.844   60.223    0.502    0.313
  261.554   14.793   56.430    0.497    0.317
  261.804   14.096   54.095    0.494    0.328
  262.054   12.960   51.758    0.492    0.337
  262.304    9.582   52.043    0.495    0.338
  262.554    6.895   53.205    0.498    0.324
  262.804    5.735   55.530    0.498    0.303
  263.054    5.036   58.727    0.496    0.241
  263.304    4.585   61.054    0.499    0.260
  263.554    4.612   64.544    0.533    0.297
  263.804    5.609   68.326    0.547    0.277
  264.054    6.461   72.981    0.546    0.286
  264.304    7.179   75.597    0.533    0.288
  264.554    7.766   75.884    0.513    0.282
  264.804    8.322   75.588    0.505    0.260
  265.054    8.680   73.251    0.500    0.248
  265.304    8.336   73.828    0.490    0.225
  265.554    7.875   75.570    0.482    0.209
  265.804    7.504   75.857    0.478    0.225
  266.054    7.148   73.230    0.483    0.234
  266.304    6.998   72.058    0.490    0.240
  266.554    6.908   72.928    0.495    0.247
  266.804    7.146   72.923    0.497    0.252
  267.054    7.586   72.334    0.501    0.244
  267.304    7.767   72.912    0.508    0.232
  267.554    7.795   71.740    0.516    0.213
  267.804    8.152   71.444    0.527    0.225
  268.054    8.576   72.022    0.517    0.223
  268.304    8.788   72.891    0.501    0.232
  268.554    9.001   73.758    0.485    0.238
  268.804    9.217   74.918    0.484    0.231
  269.054    9.788   76.079    0.485    0.219
  269.304   10.588   78.403    0.476    0.236
  269.554   12.419   79.272    0.468    0.252
  269.804   14.838   76.937    0.456    0.242
  270.054   18.045   73.435    0.439    0.244
  270.304   24.913   70.225    0.417    0.236
  270.554   30.308   67.889    0.391    0.220
  270.804   32.773   63.515    0.360    0.200
  271.054   18.141   55.644    0.316    0.160
  271.304   13.172   55.637    0.353    0.066
  271.554    9.225   57.672    0.380    0.032
  271.804    7.536   59.415    0.431    0.039
  272.054    6.499   61.449    0.455    0.055
  272.304    6.533   64.065    0.468    0.084
  272.554    6.940   67.264    0.471    0.124
  272.804    7.855   69.298    0.469    0.142
  273.054   10.365   64.923    0.469    0.196
  273.304   13.192   64.626    0.470    0.244
  273.554   15.335   64.913    0.472    0.247
  273.804   17.348   63.159    0.475    0.268
  274.054   18.922   58.783    0.477    0.290
  274.304   20.285   57.612    0.476    0.308
  274.554   23.066   57.608    0.468    0.307
  274.804   25.433   57.603    0.455    0.291
  275.054   26.091   57.306    0.440    0.281
  275.304   26.277   55.843    0.427    0.276
  275.554   26.246   54.381    0.420    0.261
  275.804   25.499   53.503    0.416    0.242
  276.054   24.551   52.622    0.421    0.204
  276.304   23.861   53.200    0.424    0.189
  276.554   22.153   53.778    0.418    0.199
