~VERSION INFORMATION
 VERS.                 2.0:   CWLS LOG ASCII STANDARD -VERSION 2.0
 WRAP.                  NO:   ONE LINE PER DEPTH STEP
~WELL INFORMATION BLOCK
#MNEM.UNIT           DATA                    DESCRIPTION OF MNEMONIC
#---------    -------------------            -------------------------------
# Generated from Intellog Unique Number	CW_76_78/WELL/2569
WELL.         NOVALTA PORTAGE                : Well_name    - WELL
LOC .         00/06-26-078-19W4/0            : Location     - LOCATION
UWI .         00/06-26-078-19W4/0            : Uwi          - UNIQUE WELL ID
ENTR.         MAX                            : Entered      - ENTERED BY
SRVC.         SCHLUMBERGER                   : Scn          - SERVICE COMPANY
STRT.M        190                            : top_depth    - START DEPTH
STOP.M        390                            : bot_depth    - STOP DEPTH
STEP.M        0.25                           : increment    - STEP LENGTH
 NULL. -999.2500:NULL Value
~CURVE INFORMATION BLOCK
#MNEM UNIT       ERCB CURVE CODE    CURVE DESCRIPTION
#-----------   ------------------   ----------------------------------
DEPT.M        00 001 00 00         : DEPTH        - DEPTH
ILD .OHMM     00 120 00 00         : RESD         - DEEP RESISTIVITY (DIL)
NPHI.V/V      00 330 00 00         : PHIN         - NEUTRON POROSITY (SANDSTONE)
DPHI.V/V      00 890 00 00         : PHID         - DENSITY POROSITY (SANDSTONE)
CALI.MM       00 280 01 00         : CAL          - CALIPER
GR  .API      00 310 00 00         : GR           - GAMMA RAY
~PARAMETER INFORMATION
#MNEM.UNIT           DATA             DESCRIPTION OF MNEMONIC
#---------         -----------     ------------------------------
GL  .M        556.74               : gl           - GROUND LEVEL ELEVATION
EREF.M        561.74               : kb           - ELEVATION OF DEPTH REFERENCE
DATM.M        556.74               : datum        - DATUM ELEVATION
TDD .M        391                  : tdd          - TOTAL DEPTH DRILLER
RUN .         ONE                  : Run          - RUN NUMBER
ENG .         BILL                 : Engineer     - RECORDING ENGINEER
WIT .         JIM                  : Witness      - WITNESSED BY
MUD .         GEL                  : Mud_type     - MUD TYPE
MATR.         SANDSTONE            : Logunit      - NEUTRON MATRIX
TMAX.C        27.8                 : BHT          - MAXIMUM RECORDED TEMPERATURE
BHTD.M        391                  : BHTDEP       - MAXIMUM RECORDED TEMPERATURE
RMT .C        23.3                 : MDTP         - TEMPERATURE OF MUD
MUDD.KG/M     1180                 : MWT          - MUD DENSITY
NEUT.         1                    : NEUTRON      - NEUTRON TYPE
RESI.         0                    : RESIST       - RESISTIVITY TYPE
RM  .OHMM     4.5                  : RM           - RESISTIVITY OF MUD
RMC .OHMM     0.25                 : RMC          - RESISTIVITY OF MUD CAKE
RMF .OHMM     4.8                  : RMF          - RESISTIVITY OF MUD FILTRATE
SUFT.C        -20                  : SUFT         - SURFACE TEMPERATURE
~A  DEPTH     RESD     PHIN     PHID      CAL       GR
  190.000    3.105    0.600    0.251  157.192  102.210
  190.250    3.077    0.593    0.258  157.708  103.113
  190.500    3.077    0.570    0.274  158.716  106.395
  190.750    3.192    0.536    0.270  159.235  107.002
  191.000    3.342    0.519    0.249  159.750  104.934
  191.250    3.500    0.490    0.247  161.751  101.381
  191.500    3.665    0.506    0.250  162.762  102.879
  191.750    3.767    0.540    0.259  161.795  105.569
  192.000    3.733    0.540    0.265  154.880  102.610
  192.250    3.467    0.540    0.266  152.427  100.541
  192.500    3.281    0.562    0.243  151.955  100.850
  192.750    3.281    0.573    0.230  151.981  102.945
  193.000    3.311    0.551    0.242  151.003  105.333
  193.250    3.311    0.534    0.272  145.577  103.861
  193.500    3.250    0.524    0.300  140.153   99.118
  193.750    3.220    0.525    0.332  138.690   93.188
  194.000    3.191    0.603    0.356  142.177   86.367
  194.250    3.310    0.596    0.341  146.652   78.060
  194.500    4.324    0.565    0.317  150.141   75.695
  194.750    5.444    0.448    0.282  151.647   73.331
  195.000    7.725    0.448    0.299  151.665   68.589
  195.250    9.460    0.418    0.312  151.688   62.956
  195.500   15.847    0.402    0.311  151.711   60.296
  195.750   16.441    0.399    0.297  151.234   68.628
  196.000   15.414    0.404    0.279  150.269   76.662
  196.250   13.424    0.416    0.255  149.792   81.428
  196.500   11.799    0.435    0.259  148.824   86.493
  196.750   11.268    0.447    0.277  148.350   89.775
  197.000   10.860    0.465    0.271  148.863   83.546
  197.250   10.370    0.462    0.216  151.362   75.241
  197.500    9.633    0.412    0.166  156.337   75.846
  197.750    8.948    0.446    0.223  157.342   75.561
  198.000    8.086    0.480    0.270  157.368   69.930
  198.250    7.793    0.485    0.289  156.891   59.543
  198.500    7.865    0.451    0.305  155.921   52.426
  198.750    8.466    0.420    0.304  155.446   54.816
  199.000    9.113    0.457    0.294  154.971   55.125
  199.250   10.085    0.464    0.300  154.499   56.324
  199.500   10.956    0.464    0.320  154.030   58.716
  199.750   14.848    0.460    0.334  154.045   57.242
  200.000   16.736    0.424    0.341  154.066   52.500
  200.250   17.205    0.411    0.337  154.089   51.623
  200.500   17.204    0.428    0.340  154.114   53.119
  200.750   16.890    0.444    0.339  154.114   54.026
  201.000   15.834    0.438    0.334  154.155   56.415
  201.250   12.693    0.453    0.331  153.675   60.288
  201.500   10.556    0.458    0.321  153.698   63.573
  201.750    9.806    0.466    0.311  153.229   64.177
  202.000    9.025    0.474    0.306  153.229   65.377
  202.250    8.155    0.485    0.302  153.265   67.472
  202.500    7.646    0.487    0.293  152.790   68.076
  202.750    7.301    0.486    0.293  152.826   68.090
  203.000    6.782    0.483    0.304  152.831   67.805
  203.250    6.358    0.477    0.319  153.844   66.034
  203.500    5.799    0.479    0.313  154.360   63.965
  203.750    5.004    0.538    0.294  155.371   68.436
  204.000    4.648    0.550    0.280  155.886   76.472
  204.250    4.778    0.525    0.285  156.900   78.564
  204.500    6.015    0.493    0.299  157.908   67.286
  204.750    8.077    0.466    0.301  158.922   55.115
  205.000   10.454    0.438    0.310  159.437   46.511
  205.250   20.107    0.466    0.326  161.439   40.880
  205.500   24.398    0.459    0.321  160.964   40.298
  205.750   24.173    0.460    0.311  157.526   41.796
  206.000   23.084    0.468    0.330  156.055   43.891
  206.250   22.044    0.451    0.345  155.086   44.791
  206.500   21.641    0.428    0.341  155.109   48.369
  206.750   20.666    0.440    0.318  155.127   53.435
  207.000   19.197    0.424    0.293  155.147   53.745
  207.250   17.506    0.414    0.252  155.170   55.243
  207.500   16.113    0.414    0.278  155.688   57.333
  207.750   15.387    0.439    0.295  155.709   64.478
  208.000   15.672    0.455    0.282  155.729   65.678
  208.250   14.693    0.442    0.257  155.750   61.533
  208.500   14.693    0.427    0.239  155.770   62.435
  208.750   14.030    0.417    0.267  155.791   65.718
  209.000   12.914    0.422    0.291  155.811   65.430
  209.250   12.561    0.457    0.310  155.834   66.634
  209.500   11.995    0.460    0.307  155.855   70.210
  209.750   11.246    0.455    0.284  156.370   75.274
  210.000   10.162    0.440    0.262  156.884   83.607
  210.250    9.353    0.431    0.263  158.397   87.186
  210.500    8.688    0.450    0.267  158.908   82.741
  210.750    7.707    0.452    0.253  159.429   82.754
  211.000    7.360    0.463    0.246  159.444   90.788
  211.250    7.636    0.476    0.238  158.474   98.228
  211.500    8.219    0.480    0.243  156.519  102.996
  211.750    9.265    0.443    0.262  156.042   95.281
  212.000   11.242    0.429    0.273  155.570   91.134
  212.250   12.326    0.422    0.290  155.593   89.067
  212.500   13.391    0.416    0.283  155.608   94.132
  212.750   14.152    0.404    0.258  155.631   95.035
  213.000   13.893    0.403    0.249  155.159   92.968
  213.250   13.267    0.416    0.254  155.674   93.277
  213.500   13.764    0.412    0.261  156.685   92.992
  213.750   14.150    0.407    0.284  157.198   91.519
  214.000   14.149    0.412    0.288  157.221   91.236
  214.250   13.763    0.425    0.284  156.747   87.385
  214.500   12.209    0.429    0.275  156.770   83.240
  214.750   11.032    0.415    0.260  156.298   83.549
  215.000   10.438    0.394    0.250  156.313   81.186
  215.250   10.342    0.397    0.216  156.334   79.413
  215.500   10.438    0.409    0.193  157.347   77.642
  215.750   10.829    0.411    0.219  158.360   78.252
  216.000   11.030    0.405    0.237  159.864   82.126
  216.250   10.828    0.390    0.241  159.389   87.188
  216.500   10.533    0.378    0.233  158.422   89.577
  216.750   10.245    0.395    0.217  157.449   94.048
  217.000   10.245    0.400    0.216  156.980   97.033
  217.250   10.727    0.410    0.240  157.495   91.993
  217.500   11.981    0.420    0.257  157.519   78.338
  217.750   12.778    0.419    0.288  157.534   68.545
  218.000   12.430    0.420    0.306  157.559   62.914
  218.250   11.335    0.417    0.309  157.580   64.115
  218.500    8.677    0.407    0.304  158.093   72.745
  218.750    7.987    0.403    0.281  159.604   84.046
  219.000    6.402    0.424    0.243  161.603  100.102
  219.250    5.132    0.463    0.227  161.626  116.756
  219.500    4.348    0.539    0.195  159.663  117.362
  219.750    3.821    0.538    0.164  157.213  118.265
  220.000    3.821    0.532    0.184  156.238  115.010
  220.250    3.615    0.539    0.217  156.263  114.428
  220.500    3.517    0.557    0.228  156.284  112.957
  220.750    3.421    0.573    0.198  156.284  112.672
  221.000    3.421    0.550    0.206  156.333  115.356
  221.250    3.452    0.540    0.235  156.838  121.608
  221.500    3.549    0.538    0.241  157.356  125.785
  221.750    3.615    0.553    0.237  158.865  125.200
  222.000    3.785    0.558    0.242  160.368  123.134
  222.250    4.112    0.519    0.239  160.889  118.391
  222.500    5.129    0.489    0.229  159.914  110.975
  222.750    6.340    0.468    0.236  159.439  110.690
  223.000    7.346    0.462    0.231  160.951  112.785
  223.250    7.908    0.453    0.220  161.959  113.689
  223.500    7.692    0.450    0.210  163.467  118.156
  223.750    7.551    0.444    0.212  163.986  117.578
  224.000    7.692    0.440    0.215  164.004  114.616
  224.250    8.054    0.448    0.218  164.021  111.361
  224.500    8.670    0.470    0.231  164.042  109.888
  224.750    9.594    0.462    0.241  162.579  107.820
  225.000   10.519    0.438    0.247  160.121   95.948
  225.250   11.641    0.421    0.259  154.700   83.186
  225.500   12.531    0.425    0.269  154.225   83.494
  225.750   12.763    0.429    0.277  154.741   87.963
  226.000   12.188    0.448    0.292  156.247   94.215
  226.250   11.639    0.462    0.297  157.255   96.013
