~VERSION INFORMATION
 VERS.                 2.0:   CWLS LOG ASCII STANDARD -VERSION 2.0
 WRAP.                  NO:   ONE LINE PER DEPTH STEP
~WELL INFORMATION BLOCK
#MNEM.UNIT           DATA                    DESCRIPTION OF MNEMONIC
#---------    -------------------            -------------------------------
# Generated from Intellog Unique Number	CW_73_75/WELL/1039
WELL.         AMOCO 63 MARTEN HILLS 11-15    : Well_name    - WELL
LOC .         00/11-15-075-25W4/0            : Location     - LOCATION
UWI .         00/11-15-075-25W4/0            : Uwi          - UNIQUE WELL ID
ENTR.         JAYE                           : Entered      - ENTERED BY
SRVC.         SCHLUMBERGER                   : Scn          - SERVICE COMPANY
DATE.         6 MAR 75                       : Date         - LOG DATE
STRT.M        423.672                        : top_depth    - START DEPTH
STOP.M        632.672                        : bot_depth    - STOP DEPTH
STEP.M        0.25                           : increment    - STEP LENGTH
 NULL. -999.2500:NULL Value
~CURVE INFORMATION BLOCK
#MNEM UNIT       ERCB CURVE CODE    CURVE DESCRIPTION
#-----------   ------------------   ----------------------------------
DEPT.M        00 001 00 00         : DEPTH        - DEPTH
ILD .OHMM     00 120 00 00         : RESD         - DEEP RESISTIVITY (DIL)
NPHI.V/V      00 330 00 00         : PHIN         - NEUTRON POROSITY (SANDSTONE)
DPHI.V/V      00 890 00 00         : PHID         - DENSITY POROSITY (SANDSTONE)
GR  .API      00 310 00 00         : GR           - GAMMA RAY
CALI.MM       00 280 01 00         : CAL          - CALIPER
~PARAMETER INFORMATION
#MNEM.UNIT           DATA             DESCRIPTION OF MNEMONIC
#---------         -----------     ------------------------------
GL  .M        700.126              : gl           - GROUND LEVEL ELEVATION
EREF.M        704.088              : kb           - ELEVATION OF DEPTH REFERENCE
DATM.M        700.126              : datum        - DATUM ELEVATION
TDD .M        632.46               : tdd          - TOTAL DEPTH DRILLER
RUN .         ONE                  : Run          - RUN NUMBER
ENG .         SIMPSON              : Engineer     - RECORDING ENGINEER
WIT .         CAMPBELL             : Witness      - WITNESSED BY
BASE.         EDM                  : Branch       - HOME BASE OF LOGGING UNIT
MUD .         GEL                  : Mud_type     - MUD TYPE
MATR.         SANDSTONE            : Logunit      - NEUTRON MATRIX
TMAX.C        28.3333              : BHT          - MAXIMUM RECORDED TEMPERATURE
BHTD.M        633.679              : BHTDEP       - MAXIMUM RECORDED TEMPERATURE
RMT .C        16.1111              : MDTP         - TEMPERATURE OF MUD
MUDD.KG/M     1068                 : MWT          - MUD DENSITY
NEUT.         1                    : NEUTRON      - NEUTRON TYPE
RESI.         0                    : RESIST       - RESISTIVITY TYPE
RM  .OHMM     5.2                  : RM           - RESISTIVITY OF MUD
RMC .OHMM     0                    : RMC          - RESISTIVITY OF MUD CAKE
RMF .OHMM     6.39                 : RMF          - RESISTIVITY OF MUD FILTRATE
SUFT.C        -17.7778             : SUFT         - SURFACE TEMPERATURE
~A  DEPTH     RESD     PHIN     PHID       GR      CAL
# ...
  460.172    2.551    0.559    0.328  103.640  234.933
  460.422    2.665    0.525    0.277   95.780  228.350
  460.672    2.884    0.504    0.234   93.785  224.661
  460.922    3.323    0.491    0.235   94.418  226.044
  461.172    4.110    0.485    0.249   95.600  230.630
  461.422    4.448    0.477    0.242   98.675  237.496
  461.672    4.213    0.504    0.255  102.730  240.530
  461.922    3.955    0.525    0.254  102.872  240.360
  462.172    3.916    0.543    0.245   90.307  244.437
  462.422    4.091    0.551    0.281   80.616  247.782
  462.672    4.466    0.529    0.288   77.335  247.917
  462.922    4.707    0.494    0.284   75.035  247.752
  463.172    5.186    0.476    0.252   73.529  246.647
  463.422    5.614    0.460    0.279   68.723  241.822
  463.672    6.524    0.469    0.289   62.574  235.233
  463.922    6.938    0.478    0.299   58.930  225.441
  464.172    6.629    0.479    0.315   59.747  220.924
  464.422    6.334    0.481    0.323   62.148  219.512
  464.672    5.738    0.495    0.333   69.625  220.272
  464.922    5.386    0.508    0.314   75.882  221.758
  465.172    4.967    0.502    0.291   78.405  223.659
  465.422    4.704    0.489    0.273   80.627  224.212
  465.672    4.299    0.489    0.271   81.135  224.763
  465.922    4.071    0.487    0.280   79.997  224.492
  466.172    3.890    0.511    0.303   79.895  224.423
  466.422    3.957    0.570    0.315   78.328  224.254
  466.672    4.170    0.589    0.340   70.285  224.287
  466.922    4.595    0.531    0.366   64.134  224.327
  467.172    4.929    0.504    0.322   60.429  224.364
  467.422    5.057    0.443    0.307   66.015  224.398
  467.672    4.963    0.455    0.285   70.064  224.540
  467.922    4.743    0.487    0.270   75.158  224.783
  468.172    4.530    0.559    0.293   75.913  224.921
  468.422    4.568    0.582    0.292   69.152  224.437
  468.672    4.857    0.553    0.297   62.389  222.720
  468.922    5.211    0.474    0.338   55.448  220.894
  469.172    5.490    0.471    0.315   53.513  219.481
  469.422    5.684    0.484    0.329   53.596  218.793
  469.672    5.729    0.490    0.330   53.741  218.409
  469.922    5.673    0.491    0.316   53.821  218.655
  470.172    5.422    0.487    0.325   54.273  219.729
  470.422    4.999    0.482    0.336   55.329  221.108
  470.672    4.651    0.481    0.343   56.880  222.387
  470.922    4.102    0.485    0.331   59.527  224.179
  471.172    3.716    0.498    0.313   63.949  224.836
  471.422    3.396    0.513    0.294   65.009  225.183
  471.672    3.076    0.510    0.289   64.542  224.914
  471.922    2.836    0.498    0.321   64.624  224.634
  472.172    2.735    0.494    0.322   68.617  224.877
  472.422    2.660    0.552    0.320   76.155  224.706
  472.672    2.657    0.576    0.297   79.352  224.950
  472.922    2.851    0.589    0.307   72.897  224.779
  473.172    3.255    0.546    0.307   65.403  224.194
  473.422    3.852    0.514    0.325   56.382  223.921
  473.672    4.937    0.511    0.303   53.958  223.958
  473.922    5.636    0.508    0.324   55.019  223.683
  474.172    5.732    0.504    0.339   57.552  223.098
  474.422    5.778    0.516    0.314   58.788  221.276
  474.672    5.771    0.514    0.302   60.093  219.448
  474.922    5.819    0.507    0.307   60.298  218.655
  475.172    5.866    0.507    0.312   59.770  218.800
  475.422    5.860    0.520    0.312   59.424  219.347
  475.672    5.802    0.510    0.330   58.286  220.315
  475.922    5.694    0.500    0.341   57.330  221.598
  476.172    5.539    0.500    0.349   56.616  222.460
  476.422    5.292    0.494    0.345   58.899  222.807
  476.672    4.967    0.482    0.333   62.526  223.466
  476.922    4.663    0.484    0.308   64.625  223.710
  477.172    4.338    0.517    0.284   66.542  223.853
  477.422    4.109    0.551    0.304   68.090  223.885
  477.672    4.032    0.549    0.297   71.287  223.710
  477.922    4.175    0.504    0.306   65.015  224.057
  478.172    4.360    0.480    0.284   64.855  224.198
  478.422    4.555    0.498    0.267   66.219  224.338
  478.672    4.885    0.511    0.282   66.118  224.474
  478.922    5.103    0.496    0.288   66.384  224.203
  479.172    5.191    0.511    0.328   68.057  223.719
  479.422    5.326    0.535    0.332   70.278  223.550
  479.672    5.417    0.506    0.321   71.338  223.804
  479.922    5.459    0.491    0.305   70.992  223.835
  480.172    5.503    0.485    0.300   74.190  223.866
  480.422    5.547    0.492    0.298   74.822  223.701
  480.672    5.541    0.518    0.309   70.751  223.528
  480.922    5.585    0.529    0.319   67.472  223.562
  481.172    5.580    0.532    0.311   66.638  223.399
  481.422    5.575    0.530    0.304   67.639  223.430
  481.672    5.620    0.509    0.313   68.086  223.774
  481.922    5.663    0.494    0.313   68.168  224.020
  482.172    5.709    0.495    0.298   69.840  224.261
  482.422    5.754    0.489    0.284   71.817  225.020
  482.672    5.800    0.477    0.267   73.918  225.988
  482.922    5.847    0.475    0.228   75.831  227.268
  483.172    5.946    0.498    0.181   76.892  228.340
  483.422    5.993    0.527    0.197   72.392  228.991
  483.672    5.883    0.539    0.216   73.514  229.344
  483.922    5.721    0.532    0.226   76.771  230.104
  484.172    5.516    0.522    0.237   78.015  229.928
  484.422    5.270    0.522    0.244   75.348  229.555
  484.672    5.173    0.532    0.248   70.970  229.173
  484.922    5.122    0.526    0.260   63.477  228.281
  485.172    5.117    0.508    0.300   58.550  226.973
  485.422    5.112    0.494    0.322   56.858  225.151
  485.672    5.199    0.486    0.331   56.819  223.938
  485.922    5.335    0.476    0.330   56.718  222.940
  486.172    5.424    0.463    0.331   55.700  221.840
  486.422    5.468    0.472    0.333   54.867  221.047
  486.672    5.464    0.482    0.342   56.111  220.366
  486.922    5.458    0.487    0.338   55.948  220.188
  487.172    5.458    0.491    0.341   52.243  220.121
  487.422    5.445    0.497    0.344   54.463  220.157
  487.672    5.394    0.504    0.344   57.420  220.297
  487.922    5.388    0.514    0.353   57.072  220.337
  488.172    5.383    0.524    0.340   54.408  220.577
  488.422    5.379    0.524    0.333   55.649  220.924
  488.672    5.421    0.512    0.336   57.199  221.586
  488.922    5.415    0.501    0.339   58.747  222.240
  489.172    5.412    0.492    0.329   61.337  222.693
  489.422    5.405    0.490    0.316   65.084  223.452
  489.672    5.400    0.501    0.319   71.031  224.008
  489.922    5.347    0.498    0.319   77.226  224.350
  490.172    5.342    0.487    0.297   80.058  224.694
  490.422    5.243    0.489    0.256   80.200  224.837
  490.672    5.145    0.513    0.237   77.839  224.877
  490.922    5.095    0.511    0.245   79.816  225.330
  491.172    5.044    0.503    0.251   80.145  225.046
  491.422    5.040    0.499    0.261   77.230  224.981
  491.672    5.034    0.499    0.269   70.653  224.917
  491.922    5.076    0.498    0.249   65.297  224.955
  492.172    5.116    0.507    0.273   65.137  224.983
  492.422    5.111    0.502    0.299   67.908  224.930
  492.672    5.106    0.496    0.290   71.656  224.962
  492.922    5.102    0.496    0.272   75.160  225.100
  493.172    5.097    0.510    0.259   77.808  225.133
  493.422    5.091    0.504    0.246   78.626  225.379
  493.672    5.041    0.499    0.230   79.198  225.213
  493.922    5.037    0.499    0.231   80.014  224.935
  494.172    5.032    0.500    0.244   80.949  224.756
  494.422    5.027    0.486    0.241   82.009  224.587
  494.672    5.021    0.491    0.237   84.292  224.830
  494.922    5.017    0.506    0.236   80.524  226.830
  495.172    5.012    0.507    0.233   81.035  229.557
  495.422    5.008    0.504    0.228   83.013  232.079
  495.672    5.002    0.504    0.222   82.850  233.049
  495.922    4.997    0.514    0.211   82.018  233.394
  496.172    4.993    0.518    0.211   83.077  233.533
  496.422    5.078    0.519    0.223   83.280  233.671
