~VERSION INFORMATION
 VERS.                 2.0:   CWLS LOG ASCII STANDARD -VERSION 2.0
 WRAP.                  NO:   ONE LINE PER DEPTH STEP
~WELL INFORMATION BLOCK
#MNEM.UNIT           DATA                    DESCRIPTION OF MNEMONIC
#---------    -------------------            -------------------------------
# Generated from Intellog Unique Number	nealta/WELL/2321
WELL.         AMOCO MISTAHAE                 : Well_name    - WELL
LOC .         11-26-078-01W5                 : Location     - LOCATION
UWI .         00/11-26-078-01W5/0            : Uwi          - UNIQUE WELL ID
ENTR.         MAX                            : Entered      - ENTERED BY
SRVC.         COMPUTALOG                     : Scn          - SERVICE COMPANY
STRT.M        285                            : top_depth    - START DEPTH
STOP.M        535                            : bot_depth    - STOP DEPTH
STEP.M        0.25                           : increment    - STEP LENGTH
 NULL. -999.2500:NULL Value
~CURVE INFORMATION BLOCK
#MNEM UNIT       ERCB CURVE CODE    CURVE DESCRIPTION
#-----------   ------------------   ----------------------------------
DEPT.M        00 001 00 00         : DEPTH        - DEPTH
CALI.MM       00 280 01 00         : CAL          - CALIPER
GR  .API      00 310 00 00         : GR           - GAMMA RAY
ILD .OHMM     00 120 00 00         : RESD         - DEEP RESISTIVITY (DIL)
NPHI.V/V      00 330 00 00         : PHIN         - NEUTRON POROSITY (SANDSTONE)
DPHI.V/V      00 890 00 00         : PHID         - DENSITY POROSITY (SANDSTONE)
~PARAMETER INFORMATION
#MNEM.UNIT           DATA             DESCRIPTION OF MNEMONIC
#---------         -----------     ------------------------------
GL  .M        587.78               : gl           - GROUND LEVEL ELEVATION
EREF.M        591.88               : kb           - ELEVATION OF DEPTH REFERENCE
DATM.M        587.78               : datum        - DATUM ELEVATION
TDD .M        535.31               : tdd          - TOTAL DEPTH DRILLER
RUN .         ONE                  : Run          - RUN NUMBER
ENG .         BILL                 : Engineer     - RECORDING ENGINEER
WIT .         JIM                  : Witness      - WITNESSED BY
MUD .         GEL                  : Mud_type     - MUD TYPE
MATR.         SANDSTONE            : Logunit      - NEUTRON MATRIX
TMAX.C        22                   : BHT          - MAXIMUM RECORDED TEMPERATURE
BHTD.M        535.31               : BHTDEP       - MAXIMUM RECORDED TEMPERATURE
RMT .C        14.3                 : MDTP         - TEMPERATURE OF MUD
MUDD.KG/M     1100                 : MWT          - MUD DENSITY
NEUT.         1                    : NEUTRON      - NEUTRON TYPE
RESI.         0                    : RESIST       - RESISTIVITY TYPE
RM  .OHMM     2.6                  : RM           - RESISTIVITY OF MUD
RMC .OHMM     3.5                  : RMC          - RESISTIVITY OF MUD CAKE
RMF .OHMM     2.4                  : RMF          - RESISTIVITY OF MUD FILTRATE
SUFT.C        -20                  : SUFT         - SURFACE TEMPERATURE
~A  DEPTH      CAL       GR     RESD     PHIN     PHID
  285.000  195.187   81.637    2.775    0.583    0.256
  285.250  194.191   85.507    2.918    0.527    0.244
  285.500  195.178   84.015    3.017    0.604    0.253
  285.750  195.173   83.118    3.067    0.538    0.271
  286.000  194.175   80.731    3.067    0.503    0.276
  286.250  196.156   78.941    3.015    0.504    0.285
  286.500  198.634   84.301    2.916    0.548    0.291
  286.750  200.120   84.596    2.843    0.570    0.296
  287.000  199.618   81.316    2.749    0.597    0.303
  287.250  199.116   74.757    2.772    0.631    0.312
  287.500  202.091   75.649    2.939    0.634    0.326
  287.750  203.080   78.923    3.249    0.618    0.326
  288.000  204.067   76.537    3.937    0.544    0.317
  288.250  199.593   73.554    4.733    0.494    0.306
  288.500  196.111   62.825    6.133    0.496    0.289
  288.750  197.100   49.712    8.150    0.481    0.279
  289.000  194.612   51.497    8.569    0.422    0.293
  289.250  194.111   50.303    9.473    0.394    0.300
  289.500  194.106   49.703    9.959    0.428    0.305
  289.750  194.101   43.444   10.558    0.420    0.302
  290.000  194.096   44.633   11.100    0.400    0.300
  290.250  194.091   49.099   11.768    0.399    0.303
  290.500  194.086   48.500   12.581    0.412    0.302
  290.750  194.082   43.730   13.338    0.426    0.307
  291.000  194.076   49.090   14.622    0.433    0.309
  291.250  194.568   51.470   16.029    0.439    0.308
  291.500  200.025   51.467   17.869    0.442    0.302
  291.750  199.524   52.656   20.087    0.452    0.301
  292.000  198.030   44.907   21.655    0.440    0.298
  292.250  196.535   46.096   24.140    0.403    0.289
  292.500  196.034   48.775   26.243    0.431    0.273
  292.750  196.029   48.176   29.011    0.342    0.259
  293.000  196.024   49.662   31.538    0.306    0.262
  293.250  195.522   46.978   32.067    0.349    0.281
  293.500  195.514   47.571   30.746    0.415    0.283
  293.750  195.512   52.633   28.514    0.435    0.281
  294.000  195.507   52.034   23.518    0.422    0.275
  294.250  195.502   43.391   21.992    0.375    0.254
  294.500  198.973   42.792   21.992    0.220   -0.001
  294.750  196.485   55.303   22.171    0.155    0.087
  295.000  193.998   60.365   23.506    0.301    0.151
  295.250  193.496   55.893   26.202    0.357    0.220
  295.500  193.492   52.612   26.199    0.408    0.263
  295.750  192.493   52.014   25.122    0.455    0.283
  296.000  191.495   50.520   22.909    0.466    0.301
  296.250  190.497   51.113   21.244    0.450    0.308
  296.500  190.491   51.409   20.202    0.433    0.308
  296.750  190.983   55.279   19.370    0.481    0.303
  297.000  191.972   57.361   18.888    0.496    0.297
  297.250  194.450   57.954   18.416    0.494    0.296
  297.500  194.445   56.760   18.109    0.426    0.298
  297.750  194.440   54.373   17.954    0.457    0.304
  298.000  197.911   57.052   17.655    0.455    0.308
  298.250  197.907   57.942   17.215    0.417    0.311
  298.500  196.908   54.067   17.215    0.446    0.316
  298.750  193.427   51.382   16.784    0.488    0.323
  299.000  190.939   45.718   15.305    0.472    0.321
  299.250  190.939   48.992   14.554    0.446    0.317
  299.500  190.430   54.650   13.956    0.434    0.312
  299.750  190.429   53.754   13.495    0.460    0.314
  300.000  191.913   50.175   13.049    0.484    0.315
  300.250  191.909   47.491   12.723    0.489    0.315
  300.500  189.917   45.998   12.723    0.455    0.309
  300.750  188.919   48.975   12.508    0.437    0.302
  301.000  189.410   48.972   12.507    0.454    0.310
  301.250  190.398   45.095   12.507    0.461    0.315
  301.500  190.890   43.603   12.504    0.474    0.317
  301.750  190.885   40.024   12.606    0.464    0.316
  302.000  189.887   40.319   12.925    0.462    0.317
  302.250  192.366   42.104   13.141    0.484    0.319
  302.500  196.829   45.379   13.141    0.492    0.320
  302.750  197.322   45.674   12.598    0.455    0.316
  303.000  196.820   42.394   13.358    0.442    0.314
  303.250  195.822   42.986   12.387    0.429    0.315
  303.500  196.810   46.857   10.924    0.451    0.312
  303.750  202.763   49.237    9.715    0.479    0.287
  304.000  204.248   46.553    9.161    0.482    0.271
  304.250  202.754   40.591    9.315    0.403    0.243
  304.500  198.280   40.290    9.711    0.334    0.239
  304.750  197.779   43.267    9.710    0.391    0.272
  305.000  198.767   46.242    9.311    0.450    0.292
  305.250  198.762   47.134    8.280    0.401    0.293
  305.500  198.260   51.004    7.488    0.497    0.277
  305.750  198.256   53.087    6.440    0.519    0.269
  306.000  199.739   53.382    5.632    0.508    0.260
  306.250  202.217   53.081    5.492    0.470    0.244
  306.500  203.205   49.801    5.871    0.411    0.244
  306.750  203.201   41.753    6.940    0.430    0.217
  307.000  203.197   34.301    8.272    0.425    0.166
  307.250  204.184   30.425    9.942    0.247    0.152
  307.500  204.179   32.210   12.566    0.242    0.192
  307.750  203.181   37.272   14.244    0.296    0.276
  308.000  199.701   41.738   15.101    0.353    0.309
  308.250  198.206   41.437   14.725    0.441    0.319
  308.500  197.208   39.647   12.986    0.436    0.325
  308.750  197.204   32.791   11.842    0.459    0.328
  309.000  198.191   30.106   11.261    0.458    0.324
  309.250  199.676   30.700   10.889    0.455    0.317
  309.500  200.167   40.827   10.354    0.469    0.311
  309.750  200.659   44.399    9.929    0.482    0.318
  310.000  201.151   41.119    9.362    0.473    0.324
  310.250  201.145   41.116    8.755    0.493    0.312
  310.500  200.644   51.243    8.256    0.505    0.297
  310.750  200.143   55.411    7.850    0.466    0.281
  311.000  200.138   60.176    7.528    0.473    0.264
  311.250  200.133   60.769    7.039    0.436    0.260
  311.500  201.617   59.276    6.638    0.425    0.266
  311.750  203.102   57.484    6.259    0.452    0.270
  312.000  203.097   59.270    5.708    0.460    0.271
  312.250  202.597   66.716    5.162    0.452    0.265
  312.500  202.592   72.970    4.747    0.458    0.269
  312.750  202.586   71.477    4.514    0.466    0.295
  313.000  203.077   74.156    4.329    0.479    0.306
  313.250  203.570   73.258    4.116    0.493    0.306
  313.500  204.557   74.745    3.785    0.474    0.280
  313.750  205.546   76.232    3.816    0.491    0.266
  314.000  206.535   64.907    3.913    0.514    0.283
  314.250  204.047   60.733    4.148    0.493    0.289
  314.500  201.559   54.175    4.361    0.508    0.300
  314.750  202.051   61.323    4.781    0.492    0.289
  315.000  205.025   74.132    5.604    0.454    0.263
  315.250  207.007   79.194    5.794    0.442    0.263
  315.500  205.016   70.550    5.649    0.450    0.268
  315.750  202.031   77.698    5.509    0.487    0.269
  316.000  201.530   75.312    5.601    0.469    0.266
  316.250  201.525   69.648    5.938    0.417    0.259
  316.500  201.519   72.922    5.987    0.405    0.254
  316.750  201.514   83.050    5.838    0.436    0.243
  317.000  204.488   89.899    5.235    0.409    0.254
  317.250  207.959   83.043    4.937    0.427    0.278
  317.500  211.432   63.375    4.936    0.471    0.281
  317.750  210.930   55.031    5.189    0.441    0.266
  318.000  207.449   46.685    6.237    0.392    0.255
  318.250  204.465   45.788    7.311    0.366    0.260
  318.500  200.984   43.104   10.742    0.390    0.264
  318.750  197.998   38.930   11.484    0.392    0.271
  319.000  197.995   41.906   12.381    0.392    0.287
  319.250  197.990   47.267   13.235    0.396    0.286
  319.500  196.494   45.178   13.570    0.393    0.282
  319.750  195.497   40.706   13.797    0.387    0.281
  320.000  195.491   42.490   13.797    0.393    0.280
  320.250  195.983   45.764   13.908    0.394    0.279
  320.500  196.474   43.676   14.024    0.389    0.285
  320.750  196.966   37.714   14.379    0.385    0.295
  321.000  196.962   39.797   14.496    0.379    0.300
  321.250  196.957   51.711   15.369    0.425    0.298
