~VERSION INFORMATION
 VERS.                 2.0:   CWLS LOG ASCII STANDARD -VERSION 2.0
 WRAP.                  NO:   ONE LINE PER DEPTH STEP
~WELL INFORMATION BLOCK
#MNEM.UNIT           DATA                    DESCRIPTION OF MNEMONIC
#---------    -------------------            -------------------------------
# Generated from Intellog Unique Number	CS_67_68/WELL/2213
WELL.         13-03-067-05W4                 : Well_name    - WELL
LOC .         00/13-03-067-05W4/0            : Location     - LOCATION
UWI .         00/13-03-067-05W4/0            : Uwi          - UNIQUE WELL ID
ENTR.         SP                             : Entered      - ENTERED BY
SRVC.         SCHLUMBERGER                   : Scn          - SERVICE COMPANY
STRT.M        325                            : top_depth    - START DEPTH
STOP.M        545                            : bot_depth    - STOP DEPTH
STEP.M        0.25                           : increment    - STEP LENGTH
 NULL. -999.2500:NULL Value
~CURVE INFORMATION BLOCK
#MNEM UNIT       ERCB CURVE CODE    CURVE DESCRIPTION
#-----------   ------------------   ----------------------------------
DEPT.M        00 001 00 00         : DEPTH        - DEPTH
ILD .OHMM     00 120 00 00         : RESD         - DEEP RESISTIVITY (DIL)
DPHI.V/V      00 890 00 00         : PHID         - DENSITY POROSITY (LIMESTONE)
NPHI.V/V      00 330 00 00         : PHIN         - NEUTRON POROSITY (LIMESTONE)
GR  .API      00 310 00 00         : GR           - GAMMA RAY
CALI.MM       00 280 01 00         : CAL          - CALIPER
~PARAMETER INFORMATION
#MNEM.UNIT           DATA             DESCRIPTION OF MNEMONIC
#---------         -----------     ------------------------------
GL  .M        654.2                : gl           - GROUND LEVEL ELEVATION
EREF.M        657.56               : kb           - ELEVATION OF DEPTH REFERENCE
DATM.M        657.56               : datum        - DATUM ELEVATION
TDD .M        554                  : tdd          - TOTAL DEPTH DRILLER
RUN .         ONE                  : Run          - RUN NUMBER
ENG .         BILL                 : Engineer     - RECORDING ENGINEER
WIT .         JIM                  : Witness      - WITNESSED BY
MUD .         GEL                  : Mud_type     - MUD TYPE
MATR.         LIMESTONE            : Logunit      - NEUTRON MATRIX
TMAX.C        22                   : BHT          - MAXIMUM RECORDED TEMPERATURE
BHTD.M        553.5                : BHTDEP       - MAXIMUM RECORDED TEMPERATURE
MATR.         1                    : LOGUNIT      - NEUTRON MATRIX
RMT .C        25                   : MDTP         - TEMPERATURE OF MUD
NEUT.         1                    : NEUTRON      - NEUTRON TYPE
RESI.         0                    : RESIST       - RESISTIVITY TYPE
RMC .OHMM     0.25                 : RMC          - RESISTIVITY OF MUD CAKE
RMF .OHMM     0.25                 : RMF          - RESISTIVITY OF MUD FILTRATE
SUFT.C        15                   : SUFT         - SURFACE TEMPERATURE
~A  DEPTH     RESD     PHID     PHIN       GR      CAL
# ...
  361.500   13.923    0.091    0.170   49.895  250.166
  361.750   16.353    0.050    0.117   42.662  250.071
  362.000   20.715    0.000    0.102   43.158  250.078
  362.250   26.587    0.000    0.093   45.554  249.881
  362.500   28.261    0.000    0.087   46.968  249.889
  362.750   19.073    0.000    0.089   50.407  249.998
  363.000   13.290    0.004    0.136   55.563  251.028
  363.250   10.508    0.100    0.287   62.252  252.057
  363.500    8.742    0.164    0.375   68.389  252.269
  363.750    7.595    0.250    0.396   75.385  252.482
  364.000    6.724    0.284    0.423   74.469  252.488
  364.250    6.252    0.269    0.402   70.181  252.598
  364.500    5.935    0.256    0.385   67.732  252.605
  364.750    5.666    0.313    0.398   65.345  252.715
  365.000    5.543    0.307    0.420   64.307  252.620
  365.250    5.558    0.308    0.421   64.005  252.525
  365.500    5.584    0.327    0.421   63.764  252.533
  365.750    5.619    0.319    0.429   67.754  252.540
  366.000    5.644    0.306    0.454   71.622  252.343
  366.250    5.671    0.299    0.468   74.325  252.452
  366.500    5.674    0.300    0.474   76.537  252.256
  366.750    5.690    0.299    0.475   78.075  252.366
  367.000    5.694    0.307    0.478   78.816  252.475
  367.250    5.741    0.303    0.473   78.942  252.380
  367.500    5.778    0.294    0.476   78.947  252.490
  367.750    5.804    0.294    0.479   78.645  252.497
  368.000    5.852    0.301    0.482   77.975  252.505
  368.250    5.879    0.301    0.489   77.120  252.410
  368.500    5.850    0.296    0.495   77.309  252.418
  368.750    5.778    0.292    0.503   77.682  252.731
  369.000    5.717    0.292    0.492   78.238  253.353
  369.250    5.636    0.285    0.479   78.733  254.280
  369.500    5.555    0.274    0.468   79.166  258.886
  369.750    5.466    0.266    0.480   80.153  268.194
  370.000    5.439    0.296    0.494   80.892  278.934
  370.250    5.526    0.313    0.485   81.019  283.541
  370.500    5.678    0.317    0.474   80.901  266.479
  370.750    5.845    0.305    0.475   81.090  256.368
  371.000    5.995    0.295    0.470   79.500  249.016
  371.250    6.136    0.293    0.448   75.273  248.615
  371.500    6.305    0.293    0.428   72.640  247.191
  371.750    6.442    0.297    0.404   75.895  244.746
  372.000    6.570    0.304    0.422   78.414  240.971
  372.250    6.662    0.310    0.455   80.442  236.073
  372.500    6.680    0.317    0.452   81.857  232.299
  372.750    6.722    0.312    0.439   79.040  231.182
  373.000    6.895    0.303    0.447   76.531  237.323
  373.250    7.097    0.295    0.449   79.049  241.622
  373.500    8.528    0.292    0.433   82.243  245.104
  373.750   10.246    0.289    0.438   82.983  247.973
  374.000   12.522    0.287    0.462   77.775  248.187
  374.250   14.682    0.323    0.474   62.448  248.399
  374.500   16.797    0.356    0.464   59.999  248.712
  374.750   19.326    0.366    0.475   58.287  249.435
  375.000   17.502    0.293    0.376   58.598  249.850
  375.250   14.588    0.223    0.299   55.107  250.370
  375.500   11.776    0.173    0.276   51.677  250.991
  375.750    9.686    0.157    0.390   48.492  251.406
  376.000    8.336    0.291    0.428   52.790  251.618
  376.250    7.408    0.309    0.440   58.865  251.421
  376.500    6.980    0.320    0.421   65.800  251.020
  376.750    6.727    0.325    0.418   69.299  251.027
  377.000    6.581    0.308    0.465   71.144  251.239
  377.250    6.463    0.296    0.495   72.743  251.246
  377.500    6.469    0.297    0.496   72.747  251.151
  377.750    6.993    0.295    0.480   74.530  249.932
  378.000    6.998    0.296    0.470   77.171  247.896
  378.250    6.899    0.292    0.470   79.138  246.472
  378.500    6.711    0.291    0.458   79.511  246.173
  378.750    6.578    0.288    0.437   80.251  245.976
  379.000    6.400    0.274    0.423   73.387  246.801
  379.250    6.368    0.279    0.444   63.826  248.750
  379.500    6.361    0.287    0.457   59.230  251.926
  379.750    6.247    0.285    0.443   56.291  256.431
  380.000    6.181    0.279    0.430   56.172  259.402
  380.250    6.210    0.274    0.460   71.508  261.352
  380.500    6.214    0.269    0.470   83.348  262.074
  380.750    6.161    0.269    0.460   81.820  262.082
  381.000    6.142    0.265    0.454   80.475  260.454
  381.250    6.334    0.255    0.449   80.050  259.132
  381.500    6.400    0.248    0.471   81.833  257.607
  381.750    6.369    0.279    0.495   82.389  256.592
  382.000    6.348    0.300    0.485   77.365  256.191
  382.250    6.342    0.312    0.445   71.544  256.302
  382.500    6.287    0.300    0.421   75.719  256.819
  382.750    6.127    0.286    0.445   78.483  257.644
  383.000    6.051    0.275    0.456   76.954  257.652
  383.250    6.137    0.278    0.459   71.991  257.046
  383.500    6.236    0.282    0.439   68.009  256.133
  383.750    6.251    0.282    0.420   63.108  255.527
  384.000    6.197    0.281    0.402   60.414  255.023
  384.250    6.121    0.285    0.411   60.480  254.724
  384.500    6.044    0.307    0.418   61.957  254.630
  384.750    5.970    0.312    0.409   63.984  254.740
  385.000    5.975    0.290    0.437   67.607  254.542
  385.250    6.059    0.275    0.469   70.126  254.141
  385.500    6.120    0.285    0.487   70.928  254.150
  385.750    6.194    0.290    0.468   70.257  253.850
  386.000    6.318    0.282    0.455   67.011  253.550
  386.250    6.418    0.283    0.445   64.624  253.353
  386.500    6.557    0.280    0.433   64.996  253.463
  386.750    6.687    0.280    0.427   65.492  253.879
  387.000    6.832    0.279    0.448   66.539  256.238
  387.250    6.876    0.274    0.457   67.708  257.574
  387.500    6.868    0.270    0.441   66.609  258.501
  387.750    6.873    0.274    0.443   68.024  258.509
  388.000    6.957    0.289    0.460   66.005  257.903
  388.250    6.962    0.307    0.450   62.575  255.763
  388.500    6.980    0.315    0.439   61.107  254.647
  388.750    6.920    0.312    0.446   59.027  254.756
  389.000    6.821    0.323    0.444   57.253  254.969
  389.250    6.687    0.326    0.449   61.795  254.771
  389.500    6.567    0.314    0.448   65.786  254.574
  389.750    6.498    0.307    0.433   65.116  252.843
  390.000    6.490    0.318    0.429   64.384  250.500
  390.250    6.556    0.305    0.432   67.516  248.464
  390.500    6.624    0.294    0.428   70.588  246.325
  390.750    6.629    0.291    0.427   68.016  242.142
  391.000    6.660    0.301    0.411   65.261  237.652
  391.250    6.664    0.306    0.405   67.411  236.842
  391.500    6.681    0.291    0.414   70.360  241.551
  391.750    6.787    0.281    0.422   69.751  245.237
  392.000    6.923    0.286    0.428   66.689  248.720
  392.250    6.953    0.298    0.420   64.486  251.487
  392.500    6.958    0.310    0.409   62.037  252.721
  392.750    6.898    0.321    0.417   59.712  253.035
  393.000    6.864    0.327    0.430   58.612  253.042
  393.250    6.729    0.327    0.444   62.113  253.153
  393.500    6.683    0.316    0.462   63.711  252.955
  393.750    6.688    0.316    0.440   62.305  252.963
  394.000    6.731    0.329    0.426   59.733  252.971
  394.250    6.724    0.336    0.444   57.959  252.978
  394.500    6.703    0.326    0.466   56.615  253.088
  394.750    6.670    0.325    0.484   58.644  253.401
  395.000    6.625    0.332    0.464   61.039  253.408
  395.250    6.606    0.340    0.450   63.681  253.416
  395.500    6.610    0.320    0.437   65.525  253.220
  395.750    6.603    0.307    0.433   67.308  253.329
  396.000    6.634    0.308    0.457   70.317  253.643
  396.250    6.637    0.311    0.450   72.039  253.752
  396.500    6.681    0.302    0.435   73.086  253.862
  396.750    6.672    0.285    0.452   74.010  253.767
  397.000    6.640    0.277    0.471   75.670  253.774
  397.250    6.620    0.279    0.473   76.718  253.884
  397.500    6.588    0.289    0.471   75.863  254.812
  397.750    6.567    0.299    0.477   75.316  254.921
