~VERSION INFORMATION
 VERS.                 2.0:   CWLS LOG ASCII STANDARD -VERSION 2.0
 WRAP.                  NO:   ONE LINE PER DEPTH STEP
~WELL INFORMATION BLOCK
#MNEM.UNIT           DATA                    DESCRIPTION OF MNEMONIC
#---------    -------------------            -------------------------------
# Generated from Intellog Unique Number	CW_73_75/WELL/1039
WELL.         AMOCO 63 MARTEN HILLS 11-15    : Well_name    - WELL
LOC .         00/11-15-075-25W4/0            : Location     - LOCATION
UWI .         00/11-15-075-25W4/0            : Uwi          - UNIQUE WELL ID
ENTR.         JAYE                           : Entered      - ENTERED BY
SRVC.         SCHLUMBERGER                   : Scn          - SERVICE COMPANY
DATE.         6 MAR 75                       : Date         - LOG DATE
STRT.M        423.672                        : top_depth    - START DEPTH
STOP.M        632.672                        : bot_depth    - STOP DEPTH
STEP.M        0.25                           : increment    - STEP LENGTH
 NULL. -999.2500:NULL Value
~CURVE INFORMATION BLOCK
#MNEM UNIT       ERCB CURVE CODE    CURVE DESCRIPTION
#-----------   ------------------   ----------------------------------
DEPT.M        00 001 00 00         : DEPTH        - DEPTH
ILD .OHMM     00 120 00 00         : RESD         - DEEP RESISTIVITY (DIL)
NPHI.V/V      00 330 00 00         : PHIN         - NEUTRON POROSITY (SANDSTONE)
DPHI.V/V      00 890 00 00         : PHID         - DENSITY POROSITY (SANDSTONE)
GR  .API      00 310 00 00         : GR           - GAMMA RAY
CALI.MM       00 280 01 00         : CAL          - CALIPER
~PARAMETER INFORMATION
#MNEM.UNIT           DATA             DESCRIPTION OF MNEMONIC
#---------         -----------     ------------------------------
GL  .M        700.126              : gl           - GROUND LEVEL ELEVATION
EREF.M        704.088              : kb           - ELEVATION OF DEPTH REFERENCE
DATM.M        700.126              : datum        - DATUM ELEVATION
TDD .M        632.46               : tdd          - TOTAL DEPTH DRILLER
RUN .         ONE                  : Run          - RUN NUMBER
ENG .         SIMPSON              : Engineer     - RECORDING ENGINEER
WIT .         CAMPBELL             : Witness      - WITNESSED BY
BASE.         EDM                  : Branch       - HOME BASE OF LOGGING UNIT
MUD .         GEL                  : Mud_type     - MUD TYPE
MATR.         SANDSTONE            : Logunit      - NEUTRON MATRIX
TMAX.C        28.3333              : BHT          - MAXIMUM RECORDED TEMPERATURE
BHTD.M        633.679              : BHTDEP       - MAXIMUM RECORDED TEMPERATURE
RMT .C        16.1111              : MDTP         - TEMPERATURE OF MUD
MUDD.KG/M     1068                 : MWT          - MUD DENSITY
NEUT.         1                    : NEUTRON      - NEUTRON TYPE
RESI.         0                    : RESIST       - RESISTIVITY TYPE
RM  .OHMM     5.2                  : RM           - RESISTIVITY OF MUD
RMC .OHMM     0                    : RMC          - RESISTIVITY OF MUD CAKE
RMF .OHMM     6.39                 : RMF          - RESISTIVITY OF MUD FILTRATE
SUFT.C        -17.7778             : SUFT         - SURFACE TEMPERATURE
~A  DEPTH     RESD     PHIN     PHID       GR      CAL
# ...
  569.672   33.500    0.200    0.024   50.753  231.359
  569.922   27.703    0.235    0.043   50.654  231.498
  570.172   22.909    0.264    0.070   52.139  231.846
  570.422   19.118    0.314    0.098   54.791  232.192
  570.672   17.314    0.379    0.175   56.706  232.847
  570.922   16.711    0.407    0.196   58.253  233.820
  571.172   16.568    0.419    0.198   58.947  234.680
  571.422   16.731    0.418    0.216   59.213  234.715
  571.672   16.743    0.421    0.213   60.089  233.411
  571.922   16.756    0.420    0.213   61.457  231.375
  572.172   16.767    0.416    0.223   63.188  229.343
  572.422   16.479    0.415    0.231   65.163  228.758
  572.672   15.903    0.411    0.231   65.675  229.413
  572.922   15.070    0.402    0.231   61.725  230.593
  573.172   14.675    0.392    0.235   60.648  230.833
  573.422   14.420    0.424    0.234   60.669  230.770
  573.672   14.302    0.446    0.236   61.119  229.772
  573.922   14.312    0.450    0.252   61.262  228.980
  574.172   14.323    0.442    0.274   61.708  228.087
  574.422   14.323    0.430    0.259   62.954  227.709
  574.672   14.475    0.432    0.249   63.218  227.428
  574.922   14.748    0.449    0.241   60.672  227.775
  575.172   15.030    0.449    0.250   63.569  228.125
  575.422   15.318    0.439    0.250   65.420  229.295
  575.672   15.467    0.428    0.245   65.444  230.369
  575.922   15.479    0.438    0.231   63.692  230.921
  576.172   15.489    0.441    0.222   63.531  231.474
  576.422   15.361    0.437    0.224   63.551  231.823
  576.672   15.511    0.427    0.246   63.268  232.069
  576.922   15.953    0.426    0.234   62.922  232.105
  577.172   16.553    0.439    0.233   62.151  232.140
  577.422   17.334    0.440    0.224   60.581  232.071
  577.672   17.334    0.431    0.213   59.688  232.105
  577.922   17.839    0.422    0.225   58.669  232.351
  578.172   19.197    0.408    0.206   59.488  232.590
  578.422   20.850    0.393    0.196   59.445  232.628
  578.672   22.641    0.371    0.194   55.983  233.287
  578.922   25.494    0.353    0.180   56.313  234.251
  579.172   27.193    0.335    0.158   58.472  235.427
  579.422   25.303    0.322    0.151   61.670  236.497
  579.672   21.896    0.355    0.165   65.479  236.428
  579.922   19.828    0.383    0.183   68.679  234.710
  580.172   18.453    0.407    0.189   66.378  233.505
  580.422   17.809    0.423    0.201   64.078  232.713
  580.672   17.498    0.425    0.227   62.511  231.918
  580.922   17.360    0.419    0.215   61.187  231.135
  581.172   17.054    0.417    0.221   61.515  230.547
  581.422   16.912    0.428    0.236   62.940  229.961
  581.672   16.620    0.445    0.238   65.102  229.586
  581.922   16.483    0.450    0.229   66.895  229.415
  582.172   16.195    0.445    0.237   66.611  229.241
  582.422   16.062    0.437    0.228   65.961  229.176
  582.672   15.783    0.439    0.213   61.337  229.105
  582.922   15.793    0.447    0.205   61.360  229.246
  583.172   15.804    0.437    0.244   64.069  229.284
  583.422   15.960    0.436    0.253   65.557  229.526
  583.672   16.413    0.450    0.239   64.049  229.675
  583.922   17.191    0.471    0.247   63.523  229.809
  584.172   18.000    0.472    0.227   64.642  230.253
  584.422   18.851    0.456    0.217   62.953  230.599
  584.672   19.562    0.424    0.216   62.180  231.056
  584.922   20.116    0.417    0.210   65.013  231.195
  585.172   20.314    0.413    0.198   67.967  231.753
  585.422   20.147    0.423    0.210   69.272  232.710
  585.672   19.799    0.428    0.192   67.215  235.026
  585.922   19.280    0.422    0.191   65.892  236.924
  586.172   18.776    0.413    0.199   66.707  238.305
  586.422   18.450    0.417    0.190   66.179  237.930
  586.672   18.450    0.422    0.197   64.858  237.447
  586.922   18.314    0.425    0.183   67.322  236.863
  587.172   18.157    0.434    0.196   69.054  235.964
  587.422   18.004    0.399    0.203   68.892  234.764
  587.672   18.016    0.386    0.203   67.572  233.769
  587.922   17.709    0.409    0.190   66.491  232.868
  588.172   17.399    0.425    0.181   62.358  231.973
  588.422   16.946    0.429    0.175   63.235  231.387
  588.672   16.650    0.421    0.169   65.761  230.702
  588.922   16.366    0.427    0.182   67.617  230.321
  589.172   16.376    0.442    0.199   68.005  229.944
  589.422   16.386    0.435    0.195   66.010  230.088
  589.672   16.851    0.427    0.187   64.503  230.224
  589.922   17.971    0.417    0.184   64.279  231.404
  590.172   17.499    0.399    0.157   65.586  231.954
  590.422   16.434    0.357    0.133   68.477  233.336
  590.672   12.870    0.336    0.097   72.287  234.302
  590.922   10.263    0.358    0.136   77.014  234.963
  591.172    8.643    0.383    0.185   80.517  235.202
  591.422    8.044    0.397    0.182   83.902  235.657
  591.672    7.761    0.393    0.163   86.426  236.100
  591.922    7.558    0.392    0.154   88.586  237.069
  592.172    7.360    0.402    0.143   90.198  237.623
  592.422    7.168    0.412    0.133   91.809  237.967
  592.672    7.113    0.406    0.149   93.904  237.491
  592.922    7.050    0.410    0.132   96.614  237.316
  593.172    6.990    0.436    0.103   99.693  237.771
  593.422    6.870    0.445    0.169  101.973  238.221
  593.672    6.874    0.434    0.169  105.052  238.566
  593.922    6.880    0.427    0.165  107.639  239.013
  594.172    7.139    0.426    0.162  107.354  239.157
  594.422    7.683    0.425    0.159  102.429  239.085
  594.672    8.344    0.416    0.155   98.904  237.986
  594.922    8.978    0.396    0.146   92.509  235.123
  595.172    9.839    0.378    0.147   86.238  232.573
  595.422   10.303    0.353    0.126   81.248  232.717
  595.672   10.500    0.318    0.084   84.446  234.822
  595.922   10.412    0.353    0.084   85.445  236.408
  596.172   10.232    0.365    0.111   81.924  236.857
  596.422    9.964    0.351    0.085   83.350  235.758
  596.672    9.702    0.333    0.078   86.000  234.344
  596.922    9.449    0.373    0.133   86.939  232.828
  597.172    9.201    0.391    0.184   86.716  232.035
  597.422    8.961    0.398    0.181   86.858  231.449
  597.672    8.727    0.391    0.167   87.428  231.388
  597.922    8.654    0.386    0.150   84.395  231.419
  598.172    8.654    0.385    0.166   83.624  231.455
  598.422    8.587    0.381    0.162   86.211  232.117
  598.672    8.516    0.380    0.156   89.288  232.673
  598.922    8.524    0.383    0.133   92.182  233.118
  599.172    8.529    0.394    0.127   94.891  234.291
  599.422    8.690    0.399    0.117   98.639  236.913
  599.672    8.857    0.424    0.112   96.154  238.708
  599.922    9.359    0.366    0.125   90.616  236.782
  600.172   10.257    0.344    0.120   85.688  234.746
  600.422   11.551    0.320    0.082   81.982  233.440
  600.672   11.985    0.305    0.059   82.432  233.371
  600.922   11.672    0.308    0.053   84.162  234.035
  601.172   10.476    0.335    0.060   86.262  234.373
  601.422    9.487    0.375    0.087   89.705  234.931
  601.672    9.071    0.406    0.141   89.972  235.376
  601.922    8.834    0.417    0.135   87.364  236.143
  602.172    8.681    0.415    0.106   87.876  237.011
  602.422    8.610    0.419    0.090   89.118  237.555
  602.672    8.614    0.423    0.132   87.613  238.216
  602.922    8.859    0.416    0.134   86.412  238.355
  603.172    9.194    0.408    0.120   86.984  238.183
  603.422    9.627    0.385    0.123   86.088  238.113
  603.672   10.082    0.370    0.104   79.939  237.840
  603.922   10.182    0.355    0.098   76.478  237.461
  604.172    9.915    0.322    0.079   77.842  237.190
  604.422    9.481    0.338    0.052   81.468  237.120
  604.672    8.985    0.381    0.082   91.938  237.161
  604.922    8.516    0.400    0.106   92.693  237.096
  605.172    8.292    0.408    0.143   88.682  237.234
  605.422    8.223    0.384    0.126   88.459  237.270
  605.672    8.081    0.376    0.113   94.896  237.308
  605.922    7.869    0.396    0.088   97.608  237.344
