~VERSION INFORMATION
 VERS.                 2.0:   CWLS LOG ASCII STANDARD -VERSION 2.0
 WRAP.                  NO:   ONE LINE PER DEPTH STEP
~WELL INFORMATION BLOCK
#MNEM.UNIT           DATA                    DESCRIPTION OF MNEMONIC
#---------    -------------------            -------------------------------
# Generated from Intellog Unique Number	nealta/WELL/2321
WELL.         AMOCO MISTAHAE                 : Well_name    - WELL
LOC .         11-26-078-01W5                 : Location     - LOCATION
UWI .         00/11-26-078-01W5/0            : Uwi          - UNIQUE WELL ID
ENTR.         MAX                            : Entered      - ENTERED BY
SRVC.         COMPUTALOG                     : Scn          - SERVICE COMPANY
STRT.M        285                            : top_depth    - START DEPTH
STOP.M        535                            : bot_depth    - STOP DEPTH
STEP.M        0.25                           : increment    - STEP LENGTH
 NULL. -999.2500:NULL Value
~CURVE INFORMATION BLOCK
#MNEM UNIT       ERCB CURVE CODE    CURVE DESCRIPTION
#-----------   ------------------   ----------------------------------
DEPT.M        00 001 00 00         : DEPTH        - DEPTH
CALI.MM       00 280 01 00         : CAL          - CALIPER
GR  .API      00 310 00 00         : GR           - GAMMA RAY
ILD .OHMM     00 120 00 00         : RESD         - DEEP RESISTIVITY (DIL)
NPHI.V/V      00 330 00 00         : PHIN         - NEUTRON POROSITY (SANDSTONE)
DPHI.V/V      00 890 00 00         : PHID         - DENSITY POROSITY (SANDSTONE)
~PARAMETER INFORMATION
#MNEM.UNIT           DATA             DESCRIPTION OF MNEMONIC
#---------         -----------     ------------------------------
GL  .M        587.78               : gl           - GROUND LEVEL ELEVATION
EREF.M        591.88               : kb           - ELEVATION OF DEPTH REFERENCE
DATM.M        587.78               : datum        - DATUM ELEVATION
TDD .M        535.31               : tdd          - TOTAL DEPTH DRILLER
RUN .         ONE                  : Run          - RUN NUMBER
ENG .         BILL                 : Engineer     - RECORDING ENGINEER
WIT .         JIM                  : Witness      - WITNESSED BY
MUD .         GEL                  : Mud_type     - MUD TYPE
MATR.         SANDSTONE            : Logunit      - NEUTRON MATRIX
TMAX.C        22                   : BHT          - MAXIMUM RECORDED TEMPERATURE
BHTD.M        535.31               : BHTDEP       - MAXIMUM RECORDED TEMPERATURE
RMT .C        14.3                 : MDTP         - TEMPERATURE OF MUD
MUDD.KG/M     1100                 : MWT          - MUD DENSITY
NEUT.         1                    : NEUTRON      - NEUTRON TYPE
RESI.         0                    : RESIST       - RESISTIVITY TYPE
RM  .OHMM     2.6                  : RM           - RESISTIVITY OF MUD
RMC .OHMM     3.5                  : RMC          - RESISTIVITY OF MUD CAKE
RMF .OHMM     2.4                  : RMF          - RESISTIVITY OF MUD FILTRATE
SUFT.C        -20                  : SUFT         - SURFACE TEMPERATURE
~A  DEPTH      CAL       GR     RESD     PHIN     PHID
# ...
  321.500  196.951   54.390   15.891    0.413    0.301
  321.750  197.443   52.898   16.706    0.396    0.309
  322.000  201.411   46.936   17.564    0.403    0.312
  322.250  207.862   47.827   18.466    0.427    0.311
  322.500  206.367   50.505   19.413    0.429    0.310
  322.750  203.879   50.800   19.249    0.434    0.313
  323.000  202.881   41.859   18.458    0.443    0.320
  323.250  201.386   41.856   17.260    0.427    0.321
  323.500  199.396   45.131   16.413    0.446    0.319
  323.750  197.901   47.213   15.477    0.479    0.318
  324.000  196.903   45.125   14.717    0.457    0.315
  324.250  196.898   40.355   14.350    0.407    0.313
  324.500  195.899   40.053   14.110    0.383    0.315
  324.750  195.893   46.903   13.991    0.406    0.320
  325.000  195.889   48.986   13.872    0.454    0.325
  325.250  195.885   51.367   13.870    0.430    0.326
  325.500  195.879   50.768   13.868    0.423    0.321
  325.750  196.371   42.124   13.866    0.463    0.317
  326.000  197.359   41.525   13.866    0.490    0.322
  326.250  202.320   44.800   13.861    0.517    0.318
  326.500  199.833   47.777   13.745    0.483    0.316
  326.750  197.345   46.880   13.628    0.432    0.319
  327.000  195.353   47.771   13.513    0.421    0.322
  327.250  195.845   50.449   13.287    0.421    0.322
  327.500  197.827   48.062   12.956    0.418    0.323
  327.750  198.319   51.039   12.423    0.424    0.320
  328.000  197.816   55.505   12.215    0.425    0.315
  328.250  196.321   56.396   12.213    0.428    0.316
  328.500  195.324   54.904   12.211    0.435    0.319
  328.750  194.326   54.007   12.108    0.427    0.323
  329.000  196.308   53.110   12.006    0.432    0.322
  329.250  195.806   45.659   11.902    0.447    0.319
  329.500  194.311   47.145   11.607    0.437    0.319
  329.750  193.810   48.930   11.037    0.440    0.318
  330.000  193.804   47.139   10.584    0.465    0.314
  330.250  193.799   51.307   10.319    0.474    0.307
  330.500  193.795   49.815   10.232    0.463    0.308
  330.750  194.286   52.791   10.230    0.425    0.309
  331.000  194.779   51.596   10.402    0.386    0.301
  331.250  195.766   50.998   10.400    0.401    0.285
  331.500  197.252   50.995   10.663    0.471    0.286
  331.750  199.729   51.290   10.932    0.459    0.304
  332.000  200.221   51.585   11.023    0.438    0.318
  332.250  199.720   51.880   11.023    0.404    0.320
  332.500  202.197   51.579   11.112    0.455    0.313
  332.750  201.695   49.788   11.112    0.488    0.309
  333.000  199.705   42.932   11.109    0.448    0.309
  333.250  199.203   44.121   11.201    0.443    0.303
  333.500  200.687   44.714   11.389    0.432    0.303
  333.750  200.682   44.711   11.579    0.453    0.306
  334.000  199.684   45.900   11.972    0.439    0.299
  334.250  199.679   47.685   12.482    0.444    0.295
  334.500  201.165   48.277   12.905    0.449    0.303
  334.750  204.140   40.528   13.453    0.416    0.308
  335.000  203.141   41.717   13.679    0.395    0.305
  335.250  200.654   45.587   13.908    0.397    0.296
  335.500  199.158   43.200   14.021    0.409    0.293
  335.750  198.657   43.198   14.138    0.437    0.291
  336.000  198.653   49.154   14.136    0.418    0.288
  336.250  198.151   50.343   14.133    0.394    0.293
  336.500  198.145   42.593   14.132    0.406    0.296
  336.750  197.644   48.251   14.130    0.422    0.294
  337.000  197.638   51.823   14.011    0.421    0.293
  337.250  197.138   52.714   13.892    0.430    0.295
  337.500  196.637   54.201   13.774    0.441    0.295
  337.750  195.638   54.794   13.658    0.451    0.296
  338.000  194.640   53.897   13.429    0.461    0.304
  338.250  194.635   52.703   12.985    0.432    0.307
  338.500  195.623   51.210   12.985    0.425    0.303
  338.750  197.109   44.354   12.659    0.435    0.301
  339.000  201.572   44.351   12.139    0.418    0.317
  339.250  201.568   47.030   11.640    0.415    0.324
  339.500  200.569   47.027   11.256    0.451    0.328
  339.750  199.572   48.514   10.884    0.489    0.331
  340.000  198.078   47.914   10.349    0.476    0.326
  340.250  198.072   47.614   10.176    0.456    0.316
  340.500  199.556   49.995    9.922    0.459    0.308
  340.750  203.524   46.416    9.838    0.471    0.314
  341.000  208.485   45.520    9.755    0.495    0.319
  341.250  208.977   48.794    9.754    0.497    0.314
  341.500  207.483   55.048    9.754    0.465    0.319
  341.750  204.994   55.641    9.669    0.462    0.318
  342.000  202.506   52.956    9.668    0.449    0.316
  342.250  200.516   58.614    9.667    0.468    0.329
  342.500  197.532   57.122    9.828    0.475    0.330
  342.750  196.533   53.544    9.827    0.484    0.325
  343.000  198.018   52.349    9.909    0.443    0.323
  343.250  199.999   53.537    9.907    0.441    0.320
  343.500  201.980   53.832    9.823    0.443    0.318
  343.750  201.479   55.915    9.822    0.425    0.318
  344.000  199.488   60.084    9.738    0.423    0.318
  344.250  197.994   57.995    9.656    0.476    0.318
  344.500  197.492   55.310    9.574    0.497    0.320
  344.750  196.991   58.585    9.574    0.511    0.323
  345.000  196.489   54.709    9.571    0.475    0.326
  345.250  196.483   47.853    9.490    0.443    0.328
  345.500  196.479   46.956    9.730    0.485    0.327
  345.750  196.970   49.635   10.144    0.491    0.323
  346.000  197.958   54.398   10.576    0.467    0.323
  346.250  197.954   52.906   10.753    0.442    0.318
  346.500  197.949   49.625   10.573    0.446    0.302
  346.750  196.951   47.834   10.054    0.453    0.279
  347.000  195.457   48.726    9.323    0.443    0.284
  347.250  194.955   55.278    8.719    0.430    0.302
  347.500  194.950   58.255    7.885    0.438    0.305
  347.750  194.448   63.913    6.781    0.437    0.278
  348.000  193.946   65.399    5.981    0.499    0.269
  348.250  193.942   65.397    4.933    0.504    0.277
  348.500  195.426   64.797    4.613    0.459    0.271
  348.750  196.414   62.708    4.498    0.457    0.265
  349.000  199.388   56.449    4.573    0.513    0.292
  349.250  200.875   52.871    4.768    0.488    0.302
  349.500  200.373   54.060    5.183    0.505    0.296
  349.750  198.878   55.546    6.076    0.480    0.293
  350.000  196.887   56.139    6.830    0.487    0.295
  350.250  195.888   60.308    6.659    0.470    0.291
  350.500  196.876   66.860    6.227    0.466    0.271
  350.750  200.844   72.518    5.823    0.448    0.230
  351.000  202.826   77.878    5.400    0.421    0.203
  351.250  201.827   70.426    5.222    0.419    0.205
  351.500  200.830   70.125    5.049    0.404    0.205
  351.750  199.832   78.465    5.048    0.457    0.208
  352.000  199.330   84.421    5.133    0.423    0.212
  352.250  198.829   81.140    5.262    0.401    0.206
  352.500  198.328   79.350    5.306    0.394    0.208
  352.750  198.323   75.771    5.440    0.396    0.211
  353.000  198.317   68.022    5.578    0.440    0.211
  353.250  198.312   74.275    5.719    0.463    0.210
  353.500  199.301   79.040    5.863    0.464    0.209
  353.750  200.786   83.208    6.011    0.435    0.204
  354.000  200.780   79.630    6.061    0.423    0.204
  354.250  201.769   82.904    5.910    0.438    0.206
  354.500  201.764   88.264    5.762    0.407    0.210
  354.750  205.235   83.792    5.526    0.392    0.202
  355.000  203.244   80.512    5.478    0.400    0.205
  355.250  201.750   80.508    5.387    0.431    0.211
  355.500  200.752   81.102    5.297    0.417    0.207
  355.750  200.746   86.462    5.386    0.386    0.195
  356.000  200.741   90.928    5.430    0.402    0.192
  356.250  200.736   84.966    5.429    0.409    0.199
  356.500  200.732   83.175    5.206    0.421    0.202
  356.750  201.223   85.556    5.034    0.409    0.206
  357.000  201.218   88.532    4.909    0.404    0.219
  357.250  200.716   85.550    4.908    0.394    0.251
  357.500  201.207   78.396    4.908    0.394    0.263
  357.750  201.204   72.733    4.948    0.425    0.247
