~VERSION INFORMATION
 VERS.                 2.0:   CWLS LOG ASCII STANDARD -VERSION 2.0
 WRAP.                  NO:   ONE LINE PER DEPTH STEP
~WELL INFORMATION BLOCK
#MNEM.UNIT           DATA                    DESCRIPTION OF MNEMONIC
#---------    -------------------            -------------------------------
# Generated from Intellog Unique Number	CS_67_68/WELL/2213
WELL.         13-03-067-05W4                 : Well_name    - WELL
LOC .         00/13-03-067-05W4/0            : Location     - LOCATION
UWI .         00/13-03-067-05W4/0            : Uwi          - UNIQUE WELL ID
ENTR.         SP                             : Entered      - ENTERED BY
SRVC.         SCHLUMBERGER                   : Scn          - SERVICE COMPANY
STRT.M        325                            : top_depth    - START DEPTH
STOP.M        545                            : bot_depth    - STOP DEPTH
STEP.M        0.25                           : increment    - STEP LENGTH
 NULL. -999.2500:NULL Value
~CURVE INFORMATION BLOCK
#MNEM UNIT       ERCB CURVE CODE    CURVE DESCRIPTION
#-----------   ------------------   ----------------------------------
DEPT.M        00 001 00 00         : DEPTH        - DEPTH
ILD .OHMM     00 120 00 00         : RESD         - DEEP RESISTIVITY (DIL)
DPHI.V/V      00 890 00 00         : PHID         - DENSITY POROSITY (LIMESTONE)
NPHI.V/V      00 330 00 00         : PHIN         - NEUTRON POROSITY (LIMESTONE)
GR  .API      00 310 00 00         : GR           - GAMMA RAY
CALI.MM       00 280 01 00         : CAL          - CALIPER
~PARAMETER INFORMATION
#MNEM.UNIT           DATA             DESCRIPTION OF MNEMONIC
#---------         -----------     ------------------------------
GL  .M        654.2                : gl           - GROUND LEVEL ELEVATION
EREF.M        657.56               : kb           - ELEVATION OF DEPTH REFERENCE
DATM.M        657.56               : datum        - DATUM ELEVATION
TDD .M        554                  : tdd          - TOTAL DEPTH DRILLER
RUN .         ONE                  : Run          - RUN NUMBER
ENG .         BILL                 : Engineer     - RECORDING ENGINEER
WIT .         JIM                  : Witness      - WITNESSED BY
MUD .         GEL                  : Mud_type     - MUD TYPE
MATR.         LIMESTONE            : Logunit      - NEUTRON MATRIX
TMAX.C        22                   : BHT          - MAXIMUM RECORDED TEMPERATURE
BHTD.M        553.5                : BHTDEP       - MAXIMUM RECORDED TEMPERATURE
MATR.         1                    : LOGUNIT      - NEUTRON MATRIX
RMT .C        25                   : MDTP         - TEMPERATURE OF MUD
NEUT.         1                    : NEUTRON      - NEUTRON TYPE
RESI.         0                    : RESIST       - RESISTIVITY TYPE
RMC .OHMM     0.25                 : RMC          - RESISTIVITY OF MUD CAKE
RMF .OHMM     0.25                 : RMF          - RESISTIVITY OF MUD FILTRATE
SUFT.C        15                   : SUFT         - SURFACE TEMPERATURE
~A  DEPTH     RESD     PHID     PHIN       GR      CAL
# ...
  471.000    6.556    0.322    0.491   63.559  260.673
  471.250    6.235    0.325    0.500   64.790  260.681
  471.500    6.066    0.331    0.492   64.303  261.812
  471.750    5.869    0.339    0.503   63.388  263.455
  472.000    5.763    0.342    0.560   64.067  264.791
  472.250    5.607    0.346    0.546   65.912  261.835
  472.500    5.496    0.336    0.484   67.142  258.060
  472.750    5.397    0.331    0.474   67.453  254.695
  473.000    5.182    0.334    0.505   67.151  253.987
  473.250    5.060    0.330    0.512   65.867  253.381
  473.500    4.886    0.326    0.508   67.344  253.491
  473.750    4.665    0.331    0.503   67.164  253.702
  474.000    4.537    0.340    0.492   65.452  253.709
  474.250    4.125    0.344    0.483   65.394  248.811
  474.500    3.930    0.333    0.485   66.687  247.695
  474.750    3.724    0.323    0.498   68.225  247.088
  475.000    3.515    0.312    0.487   70.314  248.119
  475.250    3.269    0.303    0.488   72.097  249.147
  475.500    3.062    0.299    0.499   73.634  250.791
  475.750    2.815    0.297    0.504   75.234  252.126
  476.000    2.652    0.290    0.510   76.526  253.667
  476.250    2.499    0.284    0.518   78.002  254.185
  476.500    2.413    0.280    0.503   79.785  254.499
  476.750    2.334    0.280    0.490   81.077  254.814
  477.000    2.288    0.276    0.484   82.186  255.536
  477.250    2.247    0.264    0.524   80.657  256.770
  477.500    2.248    0.263    0.541   82.194  257.595
  477.750    2.271    0.271    0.534   85.081  258.523
  478.000    2.286    0.276    0.553   84.350  259.451
  478.250    2.367    0.280    0.553   83.863  259.866
  478.500    2.432    0.281    0.533   80.066  260.589
  478.750    2.532    0.280    0.512   79.763  260.188
  479.000    2.657    0.278    0.513   80.259  259.378
  479.250    2.719    0.279    0.511   80.386  259.794
  479.500    2.768    0.286    0.502   81.004  259.903
  479.750    2.812    0.278    0.494   81.867  260.115
  480.000    2.873    0.281    0.497   84.017  260.531
  480.250    2.913    0.277    0.490   87.824  260.540
  480.500    2.915    0.264    0.498   91.508  259.729
  480.750    2.857    0.251    0.512   94.946  259.123
  481.000    2.647    0.242    0.521   96.791  258.517
  481.250    2.604    0.231    0.518   95.507  258.116
  481.500    2.577    0.224    0.518   92.078  258.124
  481.750    2.569    0.222    0.529   90.610  258.130
  482.000    2.576    0.234    0.537   91.902  258.547
  482.250    2.592    0.242    0.544   93.072  258.860
  482.500    2.634    0.250    0.513   94.916  258.970
  482.750    2.681    0.247    0.491   96.577  259.183
  483.000    2.802    0.238    0.474   95.661  259.598
  483.250    3.122    0.231    0.454   91.679  259.504
  483.500    3.472    0.229    0.476   86.042  259.512
  483.750    3.847    0.227    0.491   81.631  259.416
  484.000    4.222    0.224    0.457   78.078  259.423
  484.250    4.795    0.228    0.398   71.582  259.637
  484.500    5.750    0.231    0.383   67.294  259.745
  484.750    6.616    0.221    0.380   62.393  260.162
  485.000    7.275    0.208    0.385   59.760  260.782
  485.250    7.763    0.182    0.401   60.623  261.607
  485.500    7.991    0.110    0.387   61.180  262.330
  485.750    7.922    0.095    0.368   61.552  263.155
  486.000    7.693    0.198    0.381   62.783  263.878
  486.250    7.414    0.231    0.399   64.505  264.193
  486.500    7.198    0.244    0.412   65.919  264.199
  486.750    8.036    0.266    0.422   67.273  263.900
  487.000   11.165    0.298    0.432   61.513  263.602
  487.250   14.768    0.327    0.423   52.135  263.609
  487.500   19.870    0.347    0.421   47.846  263.412
  487.750   24.840    0.343    0.417   48.158  263.317
  488.000   28.152    0.339    0.410   48.530  263.017
  488.250   28.442    0.334    0.398   50.803  262.719
  488.500   26.744    0.329    0.383   56.327  261.908
  488.750   20.633    0.324    0.384   62.464  260.486
  489.000   15.860    0.320    0.394   67.252  259.572
  489.250   13.145    0.316    0.396   72.040  259.273
  489.500   11.206    0.313    0.401   75.478  258.667
  489.750    9.375    0.318    0.416   79.530  257.959
  490.000    9.616    0.326    0.424   79.289  257.558
  490.250    9.550    0.320    0.428   76.718  257.259
  490.500    9.414    0.304    0.419   74.270  256.960
  490.750    9.056    0.293    0.409   74.029  256.660
  491.000    8.156    0.299    0.401   76.670  256.565
  491.250    7.553    0.305    0.396   77.840  256.369
  491.500    6.866    0.293    0.409   79.623  256.375
  491.750    6.470    0.283    0.423   81.283  256.281
  492.000    6.270    0.277    0.416   83.556  255.880
  492.250    6.180    0.281    0.399   85.646  255.479
  492.500    6.411    0.287    0.389   83.627  255.179
  492.750    6.562    0.287    0.391   79.216  254.880
  493.000    6.832    0.277    0.398   76.767  254.479
  493.250    7.073    0.269    0.383   74.135  254.179
  493.500    7.213    0.260    0.387   77.022  254.289
  493.750    6.645    0.253    0.407   81.196  254.398
  494.000    6.155    0.262    0.424   86.904  255.021
  494.250    6.078    0.275    0.435   89.054  255.231
  494.500    6.498    0.269    0.436   86.054  255.239
  494.750    7.323    0.250    0.423   76.615  255.245
  495.000    8.053    0.236    0.404   72.019  255.764
  495.250    9.161    0.235    0.399   72.882  256.998
  495.500   10.324    0.242    0.400   72.151  258.130
  495.750   11.878    0.252    0.400   67.618  258.650
  496.000   12.842    0.267    0.382   65.047  258.657
  496.250   13.600    0.276    0.363   62.414  258.561
  496.500   13.818    0.265    0.335   62.418  258.262
  496.750   13.265    0.249    0.371   66.715  258.371
  497.000   11.656    0.234    0.388   71.258  258.685
  497.250    9.304    0.224    0.391   74.635  259.408
  497.500    8.236    0.221    0.378   78.871  260.744
  497.750    7.293    0.222    0.369   77.956  262.490
  498.000    7.283    0.230    0.365   69.926  263.417
  498.250    8.025    0.252    0.358   56.194  263.628
  498.500    8.824    0.290    0.351   50.373  263.841
  498.750    9.595    0.302    0.367   50.255  263.950
  499.000   10.199    0.306    0.378   54.369  264.367
  499.250   10.363    0.298    0.362   57.316  264.783
  499.500   10.509    0.289    0.353   59.834  264.586
  499.750   10.837    0.302    0.374   61.740  264.491
  500.000   11.985    0.313    0.391   52.239  264.907
  500.250   13.920    0.316    0.400   52.183  265.630
  500.500   15.836    0.324    0.406   54.762  266.251
  500.750   17.645    0.337    0.412   60.042  265.748
  501.000   15.102    0.334    0.423   62.805  264.528
  501.250   11.455    0.326    0.421   64.649  259.426
  501.500    9.176    0.298    0.400   62.078  257.286
  501.750    7.780    0.235    0.385   64.903  255.658
  502.000    6.608    0.175    0.365   70.059  254.541
  502.250    6.404    0.163    0.352   74.602  254.344
  502.500    6.397    0.191    0.347   81.045  254.351
  502.750    6.354    0.221    0.366   89.206  254.360
  503.000    6.275    0.246    0.381   95.588  254.366
  503.250    6.151    0.255    0.382   92.588  254.170
  503.500    6.007    0.259    0.374   85.846  254.177
  503.750    5.954    0.262    0.368   80.454  254.082
  504.000    5.959    0.266    0.361   78.497  254.089
  504.250    6.170    0.258    0.366   79.788  254.201
  504.500    6.232    0.253    0.371   82.001  254.207
  504.750    6.478    0.257    0.375   83.783  254.214
  505.000    6.680    0.275    0.380   73.976  254.221
  505.250    6.903    0.290    0.408   67.235  254.637
  505.500    7.132    0.288    0.424   67.055  255.565
  505.750    7.800    0.295    0.397   61.663  256.288
  506.000    8.496    0.304    0.375   53.389  257.420
  506.250    9.431    0.308    0.368   48.487  258.041
  506.500   10.063    0.299    0.369   52.907  258.150
  506.750   10.478    0.289    0.374   60.638  257.647
  507.000    9.706    0.272    0.369   69.412  256.938
  507.250    8.608    0.238    0.356   80.516  256.435
