~VERSION INFORMATION
 VERS.                 2.0:   CWLS LOG ASCII STANDARD -VERSION 2.0
 WRAP.                  NO:   ONE LINE PER DEPTH STEP
~WELL INFORMATION BLOCK
#MNEM.UNIT           DATA                    DESCRIPTION OF MNEMONIC
#---------    -------------------            -------------------------------
# Generated from Intellog Unique Number	CW_73_75/WELL/1039
WELL.         AMOCO 63 MARTEN HILLS 11-15    : Well_name    - WELL
LOC .         00/11-15-075-25W4/0            : Location     - LOCATION
UWI .         00/11-15-075-25W4/0            : Uwi          - UNIQUE WELL ID
ENTR.         JAYE                           : Entered      - ENTERED BY
SRVC.         SCHLUMBERGER                   : Scn          - SERVICE COMPANY
DATE.         6 MAR 75                       : Date         - LOG DATE
STRT.M        423.672                        : top_depth    - START DEPTH
STOP.M        632.672                        : bot_depth    - STOP DEPTH
STEP.M        0.25                           : increment    - STEP LENGTH
 NULL. -999.2500:NULL Value
~CURVE INFORMATION BLOCK
#MNEM UNIT       ERCB CURVE CODE    CURVE DESCRIPTION
#-----------   ------------------   ----------------------------------
DEPT.M        00 001 00 00         : DEPTH        - DEPTH
ILD .OHMM     00 120 00 00         : RESD         - DEEP RESISTIVITY (DIL)
NPHI.V/V      00 330 00 00         : PHIN         - NEUTRON POROSITY (SANDSTONE)
DPHI.V/V      00 890 00 00         : PHID         - DENSITY POROSITY (SANDSTONE)
GR  .API      00 310 00 00         : GR           - GAMMA RAY
CALI.MM       00 280 01 00         : CAL          - CALIPER
~PARAMETER INFORMATION
#MNEM.UNIT           DATA             DESCRIPTION OF MNEMONIC
#---------         -----------     ------------------------------
GL  .M        700.126              : gl           - GROUND LEVEL ELEVATION
EREF.M        704.088              : kb           - ELEVATION OF DEPTH REFERENCE
DATM.M        700.126              : datum        - DATUM ELEVATION
TDD .M        632.46               : tdd          - TOTAL DEPTH DRILLER
RUN .         ONE                  : Run          - RUN NUMBER
ENG .         SIMPSON              : Engineer     - RECORDING ENGINEER
WIT .         CAMPBELL             : Witness      - WITNESSED BY
BASE.         EDM                  : Branch       - HOME BASE OF LOGGING UNIT
MUD .         GEL                  : Mud_type     - MUD TYPE
MATR.         SANDSTONE            : Logunit      - NEUTRON MATRIX
TMAX.C        28.3333              : BHT          - MAXIMUM RECORDED TEMPERATURE
BHTD.M        633.679              : BHTDEP       - MAXIMUM RECORDED TEMPERATURE
RMT .C        16.1111              : MDTP         - TEMPERATURE OF MUD
MUDD.KG/M     1068                 : MWT          - MUD DENSITY
NEUT.         1                    : NEUTRON      - NEUTRON TYPE
RESI.         0                    : RESIST       - RESISTIVITY TYPE
RM  .OHMM     5.2                  : RM           - RESISTIVITY OF MUD
RMC .OHMM     0                    : RMC          - RESISTIVITY OF MUD CAKE
RMF .OHMM     6.39                 : RMF          - RESISTIVITY OF MUD FILTRATE
SUFT.C        -17.7778             : SUFT         - SURFACE TEMPERATURE
~A  DEPTH     RESD     PHIN     PHID       GR      CAL
# ...
  496.672    5.303    0.511    0.219   81.958  233.603
  496.922    5.491    0.492    0.204   82.591  233.644
  497.172    5.585    0.475    0.194   84.812  234.089
  497.422    5.885    0.484    0.185   80.128  234.542
  497.672    6.370    0.468    0.174   72.939  234.989
  497.922    7.273    0.342    0.160   64.528  235.341
  498.172    8.231    0.283    0.119   59.478  235.169
  498.422    9.824    0.297    0.075   62.861  235.415
  498.672   10.922    0.385    0.082   68.014  235.549
  498.922   11.822    0.265    0.101   62.048  236.103
  499.172   12.908    0.223    0.044   50.215  236.347
  499.422   13.725    0.181    0.027   45.838  236.176
  499.672   13.835    0.172    0.011   47.143  235.903
  499.922   12.758    0.171   -0.007   49.668  235.627
  500.172   11.253    0.181   -0.018   53.723  235.042
  500.422    9.493    0.199   -0.010   59.916  234.149
  500.672    6.584    0.230    0.024   67.941  233.770
  500.922    4.566    0.271    0.059   78.961  234.012
  501.172    2.923    0.308    0.128   85.825  237.264
  501.422    2.276    0.475    0.136   87.742  241.645
  501.672    1.920    0.502    0.149   87.029  247.263
  501.922    1.724    0.494    0.175   88.150  251.440
  502.172    1.661    0.492    0.176   89.701  246.300
  502.422    1.690    0.498    0.172   91.128  238.373
  502.672    1.749    0.475    0.172   92.311  236.026
  502.922    1.811    0.493    0.193   92.880  245.890
  503.172    1.925    0.510    0.182   93.514  248.927
  503.422    2.084    0.492    0.183   91.701  241.826
  503.672    2.317    0.486    0.187   88.547  240.208
  503.922    2.741    0.505    0.180   85.330  239.007
  504.172    3.302    0.509    0.208   82.477  235.936
  504.422    3.872    0.498    0.210   82.805  236.588
  504.672    4.460    0.522    0.174   86.675  240.458
  504.922    4.700    0.510    0.194   90.486  241.214
  505.172    4.780    0.499    0.211   91.912  240.629
  505.422    4.819    0.492    0.188   92.240  239.838
  505.672    4.811    0.484    0.215   92.016  244.737
  505.922    4.809    0.479    0.219   90.575  245.808
  506.172    4.805    0.476    0.223   88.151  240.463
  506.422    4.758    0.478    0.210   85.726  232.845
  506.672    4.753    0.494    0.206   83.365  232.259
  506.922    4.748    0.486    0.208   82.407  232.716
  507.172    4.701    0.496    0.210   84.690  234.195
  507.422    4.696    0.500    0.227   85.383  235.168
  507.672    4.693    0.483    0.227   83.083  234.990
  507.922    4.688    0.474    0.215   81.272  229.232
  508.172    4.683    0.469    0.233   81.293  229.891
  508.422    4.679    0.477    0.226   82.108  233.655
  508.672    4.716    0.485    0.215   82.191  234.932
  508.922    4.754    0.480    0.202   78.668  231.447
  509.172    4.792    0.498    0.221   73.251  225.277
  509.422    4.873    0.486    0.249   67.591  222.937
  509.672    4.956    0.481    0.244   64.068  222.043
  509.922    5.040    0.516    0.289   61.892  221.359
  510.172    5.172    0.508    0.308   60.444  220.671
  510.422    5.258    0.495    0.283   58.329  220.389
  510.672    5.301    0.482    0.282   56.640  220.847
  510.922    5.343    0.477    0.292   55.744  221.187
  511.172    5.387    0.481    0.294   55.155  221.739
  511.422    5.380    0.496    0.291   54.809  221.574
  511.672    5.328    0.500    0.279   54.646  221.809
  511.922    5.323    0.492    0.294   54.669  222.573
  512.172    5.270    0.479    0.309   54.933  223.023
  512.422    5.266    0.468    0.300   55.016  223.475
  512.672    5.261    0.462    0.293   53.876  223.925
  512.922    5.256    0.459    0.283   52.431  224.067
  513.172    5.250    0.462    0.274   52.087  223.998
  513.422    5.292    0.484    0.297   52.719  223.931
  513.672    5.334    0.495    0.297   55.368  223.962
  513.922    5.329    0.502    0.285   59.301  223.902
  514.172    5.324    0.494    0.283   61.521  223.939
  514.422    5.179    0.477    0.273   62.765  223.560
  514.672    4.993    0.473    0.285   63.580  223.489
  514.922    5.078    0.463    0.294   63.724  223.526
  515.172    5.211    0.443    0.283   63.074  225.319
  515.422    5.491    0.417    0.255   60.955  226.390
  515.672    5.735    0.380    0.217   59.329  227.462
  515.922    5.480    0.355    0.147   60.509  226.358
  516.172    5.190    0.400    0.146   65.846  225.360
  516.422    4.871    0.449    0.214   71.185  224.673
  516.672    4.614    0.474    0.274   71.573  223.472
  516.922    4.409    0.475    0.271   66.156  222.882
  517.172    4.212    0.483    0.264   63.735  222.921
  517.422    4.024    0.468    0.261   66.197  225.955
  517.672    3.986    0.501    0.272   71.903  233.545
  517.922    3.947    0.511    0.263   77.239  236.684
  518.172    3.943    0.515    0.241   81.049  231.342
  518.422    3.940    0.519    0.224   80.031  227.347
  518.672    4.007    0.522    0.250   73.943  224.694
  518.922    4.147    0.513    0.272   68.220  222.971
  519.172    4.409    0.497    0.297   64.270  221.863
  519.422    4.731    0.482    0.317   62.338  221.183
  519.672    5.121    0.461    0.309   61.992  221.525
  519.922    5.795    0.434    0.283   62.562  222.386
  520.172    6.918    0.379    0.225   59.837  224.801
  520.422    9.108    0.283    0.186   58.879  227.839
  520.672   11.267    0.265    0.094   62.201  228.805
  520.922   11.560    0.272    0.070   67.781  228.841
  521.172   10.287    0.367    0.072   73.424  229.088
  521.422    8.524    0.410    0.099   77.358  229.228
  521.672    7.191    0.438    0.163   79.089  229.262
  521.922    5.853    0.451    0.195   79.661  229.298
  522.172    5.302    0.438    0.198   79.130  229.335
  522.422    5.158    0.430    0.195   82.086  230.199
  522.672    4.928    0.457    0.198   85.712  227.544
  522.922    4.793    0.505    0.203   87.689  235.344
  523.172    4.833    0.514    0.219   86.304  234.348
  523.422    4.871    0.488    0.245   85.226  233.449
  523.672    4.865    0.479    0.201   88.118  235.347
  523.922    4.817    0.475    0.171   86.188  237.348
  524.172    4.813    0.477    0.188   84.618  235.007
  524.422    4.896    0.473    0.202   82.869  229.971
  524.672    4.978    0.462    0.202   84.050  225.041
  524.922    5.018    0.489    0.214   85.660  228.182
  525.172    5.014    0.503    0.226   84.887  232.773
  525.422    4.920    0.507    0.222   83.992  233.737
  525.672    4.829    0.501    0.214   82.975  232.431
  525.922    4.739    0.486    0.204   83.118  232.986
  526.172    4.609    0.473    0.193   84.973  235.402
  526.422    4.484    0.466    0.193   84.688  239.469
  526.672    4.400    0.480    0.195   85.505  244.989
  526.922    4.356    0.499    0.176   87.664  251.130
  527.172    4.353    0.492    0.201   86.281  243.301
  527.422    4.349    0.483    0.203   83.003  247.689
  527.672    4.384    0.517    0.199   79.907  242.656
  527.922    4.458    0.512    0.225   76.629  233.480
  528.172    4.614    0.499    0.230   75.552  226.170
  528.422    4.778    0.488    0.226   73.861  225.484
  528.672    5.081    0.488    0.239   70.033  225.106
  528.922    5.801    0.492    0.251   66.144  224.420
  529.172    7.305    0.456    0.225   60.483  224.866
  529.422    9.616    0.439    0.166   54.884  226.975
  529.672   11.176    0.302    0.108   52.828  230.009
  529.922   12.316    0.287    0.090   54.926  232.735
  530.172   13.448    0.334    0.109   57.452  231.016
  530.422   13.557    0.346    0.133   57.291  228.770
  530.672   12.838    0.237    0.079   56.090  227.358
  530.922   11.944    0.207    0.021   54.706  231.845
  531.172   10.819    0.274    0.106   60.715  232.194
  531.422    9.458    0.400    0.203   65.930  230.263
  531.672    8.123    0.509    0.247   71.146  229.572
  531.922    6.913    0.489    0.244   75.628  229.300
  532.172    6.152    0.483    0.227   73.693  230.061
  532.422    5.671    0.483    0.227   72.679  230.512
  532.672    5.469    0.484    0.254   73.555  230.132
  532.922    5.367    0.480    0.236   74.613  229.237
