~VERSION INFORMATION
 VERS.                 2.0:   CWLS LOG ASCII STANDARD -VERSION 2.0
 WRAP.                  NO:   ONE LINE PER DEPTH STEP
~WELL INFORMATION BLOCK
#MNEM.UNIT           DATA                    DESCRIPTION OF MNEMONIC
#---------    -------------------            -------------------------------
# Generated from Intellog Unique Number	nealta/WELL/2321
WELL.         AMOCO MISTAHAE                 : Well_name    - WELL
LOC .         11-26-078-01W5                 : Location     - LOCATION
UWI .         00/11-26-078-01W5/0            : Uwi          - UNIQUE WELL ID
ENTR.         MAX                            : Entered      - ENTERED BY
SRVC.         COMPUTALOG                     : Scn          - SERVICE COMPANY
STRT.M        285                            : top_depth    - START DEPTH
STOP.M        535                            : bot_depth    - STOP DEPTH
STEP.M        0.25                           : increment    - STEP LENGTH
 NULL. -999.2500:NULL Value
~CURVE INFORMATION BLOCK
#MNEM UNIT       ERCB CURVE CODE    CURVE DESCRIPTION
#-----------   ------------------   ----------------------------------
DEPT.M        00 001 00 00         : DEPTH        - DEPTH
CALI.MM       00 280 01 00         : CAL          - CALIPER
GR  .API      00 310 00 00         : GR           - GAMMA RAY
ILD .OHMM     00 120 00 00         : RESD         - DEEP RESISTIVITY (DIL)
NPHI.V/V      00 330 00 00         : PHIN         - NEUTRON POROSITY (SANDSTONE)
DPHI.V/V      00 890 00 00         : PHID         - DENSITY POROSITY (SANDSTONE)
~PARAMETER INFORMATION
#MNEM.UNIT           DATA             DESCRIPTION OF MNEMONIC
#---------         -----------     ------------------------------
GL  .M        587.78               : gl           - GROUND LEVEL ELEVATION
EREF.M        591.88               : kb           - ELEVATION OF DEPTH REFERENCE
DATM.M        587.78               : datum        - DATUM ELEVATION
TDD .M        535.31               : tdd          - TOTAL DEPTH DRILLER
RUN .         ONE                  : Run          - RUN NUMBER
ENG .         BILL                 : Engineer     - RECORDING ENGINEER
WIT .         JIM                  : Witness      - WITNESSED BY
MUD .         GEL                  : Mud_type     - MUD TYPE
MATR.         SANDSTONE            : Logunit      - NEUTRON MATRIX
TMAX.C        22                   : BHT          - MAXIMUM RECORDED TEMPERATURE
BHTD.M        535.31               : BHTDEP       - MAXIMUM RECORDED TEMPERATURE
RMT .C        14.3                 : MDTP         - TEMPERATURE OF MUD
MUDD.KG/M     1100                 : MWT          - MUD DENSITY
NEUT.         1                    : NEUTRON      - NEUTRON TYPE
RESI.         0                    : RESIST       - RESISTIVITY TYPE
RM  .OHMM     2.6                  : RM           - RESISTIVITY OF MUD
RMC .OHMM     3.5                  : RMC          - RESISTIVITY OF MUD CAKE
RMF .OHMM     2.4                  : RMF          - RESISTIVITY OF MUD FILTRATE
SUFT.C        -20                  : SUFT         - SURFACE TEMPERATURE
~A  DEPTH      CAL       GR     RESD     PHIN     PHID
# ...
  394.500  204.949   53.230   21.853    0.238    0.117
  394.750  203.951   52.332   19.598    0.248    0.108
  395.000  200.469   52.330   16.300    0.223    0.097
  395.250  198.478   55.009   13.002    0.189    0.125
  395.500  196.984   78.841   10.546    0.263    0.144
  395.750  197.475   83.903    8.846    0.355    0.166
  396.000  198.463   81.516    8.341    0.427    0.194
  396.250  197.962   82.109    7.234    0.471    0.196
  396.500  196.466   80.915    7.113    0.457    0.196
  396.750  195.966   79.124    7.053    0.439    0.193
  397.000  195.961   80.015    6.993    0.419    0.184
  397.250  196.452   86.567    6.934    0.385    0.184
  397.500  198.434   86.862    6.991    0.367    0.187
  397.750  199.422   71.962    7.168    0.350    0.161
  398.000  197.927   70.767    7.288    0.317    0.122
  398.250  195.936   87.449    7.226    0.259    0.112
  398.500  196.924   86.552    7.046    0.313    0.157
  398.750  200.892   77.611    6.700    0.392    0.162
  399.000  202.873   81.183    6.371    0.404    0.171
  399.250  203.365   85.351    5.958    0.402    0.178
  399.500  203.360   88.924    5.571    0.431    0.169
  399.750  202.858   87.134    5.478    0.407    0.200
  400.000  202.854   85.641    5.570    0.444    0.220
  400.250  203.346   88.915    5.807    0.436    0.192
  400.500  205.824   92.190    6.105    0.437    0.188
  400.750  206.811   77.886    6.418    0.467    0.213
  401.000  206.310   68.944    6.636    0.460    0.223
  401.250  204.319   64.472    7.035    0.395    0.211
  401.500  200.342   67.150    7.335    0.333    0.160
  401.750  196.860   80.257    7.583    0.335    0.156
  402.000  196.359   72.209    7.775    0.425    0.198
  402.250  197.347   67.440    7.581    0.393    0.195
  402.500  198.336   73.992    7.149    0.351    0.170
  402.750  199.323   87.396    6.574    0.402    0.172
  403.000  199.815   89.478    6.574    0.422    0.172
  403.250  200.306   85.900    6.302    0.404    0.168
  403.500  203.280   82.322    6.197    0.390    0.171
  403.750  204.766   80.233    6.144    0.391    0.181
  404.000  204.762   79.337    6.144    0.392    0.183
  404.250  203.764   84.101    6.195    0.387    0.188
  404.500  203.262   86.481    6.195    0.395    0.189
  404.750  203.753   86.181    6.297    0.391    0.189
  405.000  204.245   84.092    6.789    0.403    0.179
  405.250  204.737   79.024    7.258    0.442    0.260
  405.500  205.229   81.107    7.891    0.403    0.292
  405.750  202.739   90.638    9.405    0.398    0.272
  406.000  200.253   82.889   12.086    0.388    0.247
  406.250  195.778   76.032   13.140    0.340    0.191
  406.500  194.781   67.985   13.359    0.305    0.158
  406.750  194.775   59.044   12.598    0.258    0.126
  407.000  195.764   56.657   10.478    0.211    0.039
  407.250  198.738   71.850    9.717    0.239    0.104
  407.500  200.720   69.463    9.163    0.319    0.171
  407.750  201.212   79.888    8.786    0.340    0.185
  408.000  201.206   79.885    8.786    0.325    0.184
  408.250  201.201   76.009    8.637    0.364    0.168
  408.500  201.693   70.345    8.782    0.339    0.161
  408.750  202.184   73.619    9.233    0.379    0.162
  409.000  202.180   69.147   10.038    0.355    0.139
  409.250  202.174   69.144   10.912    0.296    0.136
  409.500  202.170   73.908   11.377    0.270    0.113
  409.750  202.662   71.224   12.163    0.237    0.072
  410.000  202.657   63.475   13.222    0.204    0.040
  410.250  202.652   55.427   13.670    0.168    0.006
  410.500  201.654   52.742   12.571    0.139   -0.015
  410.750  199.663   62.572   10.812    0.159    0.011
  411.000  200.651   65.250   10.026    0.304    0.041
  411.250  202.632   79.549    9.220    0.326    0.145
  411.500  203.123   79.248    8.408    0.341    0.183
  411.750  203.119   80.437    7.929    0.374    0.172
  412.000  202.121   86.989    7.929    0.375    0.159
  412.250  200.627   89.369    7.861    0.359    0.155
  412.500  200.125   89.069    7.794    0.336    0.155
  412.750  200.120   91.747    7.924    0.322    0.157
  413.000  200.611   94.426    7.989    0.337    0.155
  413.250  200.606   84.591    8.123    0.338    0.150
  413.500  200.601   83.694    8.329    0.323    0.144
  413.750  201.093   79.817    8.327    0.311    0.142
  414.000  202.082   83.092    8.188    0.318    0.145
  414.250  202.573   86.664    7.917    0.341    0.150
  414.500  203.064   86.363    7.656    0.365    0.161
  414.750  202.564   92.915    7.656    0.396    0.169
  415.000  202.558   93.508    7.526    0.390    0.169
  415.250  203.546   83.375    7.401    0.400    0.159
  415.500  203.541   84.862    7.399    0.403    0.157
  415.750  203.537   89.030    7.524    0.381    0.168
  416.000  203.531   83.962    7.649    0.356    0.170
  416.250  203.526   76.510    7.648    0.364    0.174
  416.500  204.018   77.103    7.648    0.377    0.177
  416.750  204.510   84.549    7.645    0.370    0.162
  417.000  204.505   87.228    7.581    0.377    0.151
  417.250  204.499   89.310    7.454    0.389    0.153
  417.500  205.488   84.242    7.269    0.373    0.161
  417.750  205.981   81.557    7.087    0.383    0.179
  418.000  205.975   84.534    7.086    0.394    0.174
  418.250  205.971   89.597    7.450    0.506    0.170
  418.500  205.469   91.083    7.833    0.507    0.186
  418.750  204.967   88.995    8.304    0.483    0.198
  419.000  203.969   85.416    9.103    0.385    0.206
  419.250  199.495   81.837   12.935    0.380    0.224
  419.500  194.028   78.557   14.786    0.393    0.227
  419.750  192.533   70.212   15.416    0.391    0.217
  420.000  195.011   61.569   15.673    0.306    0.155
  420.250  195.503   62.459   15.283    0.259    0.057
  420.500  193.512   67.224   14.411    0.193    0.093
  420.750  194.996   70.498   13.476    0.263    0.142
  421.000  196.978   76.752   11.985    0.337    0.143
  421.250  196.973   77.047   10.838    0.294    0.136
  421.500  196.471   74.363    9.967    0.303    0.172
  421.750  196.467   82.702    9.637    0.337    0.188
  422.000  195.964   84.785    9.476    0.395    0.198
  422.250  195.960   80.908    9.396    0.381    0.157
  422.500  196.452   78.820    9.395    0.331    0.134
  422.750  196.944   82.094    9.395    0.308    0.136
  423.000  196.938   83.879    9.470    0.326    0.139
  423.250  196.437   85.664    9.710    0.319    0.140
  423.500  195.936   84.767    9.956    0.320    0.136
  423.750  195.930   90.127   10.380    0.329    0.132
  424.000  195.428   88.933   10.821    0.329    0.150
  424.250  195.424   84.163   10.911    0.339    0.189
  424.500  195.418   81.180   10.462    0.363    0.196
  424.750  196.407   85.348   10.117    0.369    0.180
  425.000  195.424   93.472   12.794    0.310    0.141
  425.250  196.358   94.021   11.352    0.368    0.181
  425.500  197.763   90.688   11.657    0.398    0.188
  425.750  199.187   85.247   12.305    0.402    0.183
  426.000  199.631   89.390   13.721    0.381    0.180
  426.250  200.038   87.255   15.438    0.368    0.180
  426.500  200.472   86.900   16.750    0.339    0.182
  426.750  201.397   85.669   18.338    0.349    0.186
  427.000  201.804   79.324   19.178    0.395    0.197
  427.250  202.229   80.472   19.165    0.395    0.205
  427.500  202.673   79.236   16.846    0.370    0.193
  427.750  203.089   80.090   16.531    0.373    0.178
  428.000  202.507   80.046   16.976    0.364    0.179
  428.250  202.433   84.799   17.434    0.361    0.192
  428.500  202.350   80.850   17.422    0.333    0.192
  428.750  201.287   77.217   16.936    0.334    0.173
  429.000  200.723   81.066   16.618    0.361    0.175
  429.250  200.640   83.108   16.305    0.367    0.183
  429.500  200.077   80.678   15.996    0.346    0.184
  429.750  199.485   76.735   14.995    0.322    0.099
  430.000  199.411   74.295   13.672    0.285    0.083
  430.250  199.347   82.026   13.293    0.261    0.108
  430.500  199.763   84.384   13.282    0.306    0.158
  430.750  200.669   90.634   13.395    0.368    0.182
