~VERSION INFORMATION
 VERS.                 2.0:   CWLS LOG ASCII STANDARD -VERSION 2.0
 WRAP.                  NO:   ONE LINE PER DEPTH STEP
~WELL INFORMATION BLOCK
#MNEM.UNIT           DATA                    DESCRIPTION OF MNEMONIC
#---------    -------------------            -------------------------------
# Generated from Intellog Unique Number	CS_67_68/WELL/2213
WELL.         13-03-067-05W4                 : Well_name    - WELL
LOC .         00/13-03-067-05W4/0            : Location     - LOCATION
UWI .         00/13-03-067-05W4/0            : Uwi          - UNIQUE WELL ID
ENTR.         SP                             : Entered      - ENTERED BY
SRVC.         SCHLUMBERGER                   : Scn          - SERVICE COMPANY
STRT.M        325                            : top_depth    - START DEPTH
STOP.M        545                            : bot_depth    - STOP DEPTH
STEP.M        0.25                           : increment    - STEP LENGTH
 NULL. -999.2500:NULL Value
~CURVE INFORMATION BLOCK
#MNEM UNIT       ERCB CURVE CODE    CURVE DESCRIPTION
#-----------   ------------------   ----------------------------------
DEPT.M        00 001 00 00         : DEPTH        - DEPTH
ILD .OHMM     00 120 00 00         : RESD         - DEEP RESISTIVITY (DIL)
DPHI.V/V      00 890 00 00         : PHID         - DENSITY POROSITY (LIMESTONE)
NPHI.V/V      00 330 00 00         : PHIN         - NEUTRON POROSITY (LIMESTONE)
GR  .API      00 310 00 00         : GR           - GAMMA RAY
CALI.MM       00 280 01 00         : CAL          - CALIPER
~PARAMETER INFORMATION
#MNEM.UNIT           DATA             DESCRIPTION OF MNEMONIC
#---------         -----------     ------------------------------
GL  .M        654.2                : gl           - GROUND LEVEL ELEVATION
EREF.M        657.56               : kb           - ELEVATION OF DEPTH REFERENCE
DATM.M        657.56               : datum        - DATUM ELEVATION
TDD .M        554                  : tdd          - TOTAL DEPTH DRILLER
RUN .         ONE                  : Run          - RUN NUMBER
ENG .         BILL                 : Engineer     - RECORDING ENGINEER
WIT .         JIM                  : Witness      - WITNESSED BY
MUD .         GEL                  : Mud_type     - MUD TYPE
MATR.         LIMESTONE            : Logunit      - NEUTRON MATRIX
TMAX.C        22                   : BHT          - MAXIMUM RECORDED TEMPERATURE
BHTD.M        553.5                : BHTDEP       - MAXIMUM RECORDED TEMPERATURE
MATR.         1                    : LOGUNIT      - NEUTRON MATRIX
RMT .C        25                   : MDTP         - TEMPERATURE OF MUD
NEUT.         1                    : NEUTRON      - NEUTRON TYPE
RESI.         0                    : RESIST       - RESISTIVITY TYPE
RMC .OHMM     0.25                 : RMC          - RESISTIVITY OF MUD CAKE
RMF .OHMM     0.25                 : RMF          - RESISTIVITY OF MUD FILTRATE
SUFT.C        15                   : SUFT         - SURFACE TEMPERATURE
~A  DEPTH     RESD     PHID     PHIN       GR      CAL
# ...
  398.000    6.561    0.308    0.471   75.382  254.213
  398.250    6.517    0.296    0.466   75.815  253.403
  398.500    6.521    0.285    0.461   75.759  253.001
  398.750    6.525    0.285    0.444   75.211  253.009
  399.000    6.506    0.287    0.445   76.626  252.914
  399.250    6.523    0.282    0.460   79.022  252.717
  399.500    6.491    0.284    0.460   81.234  253.236
  399.750    6.459    0.281    0.449   81.729  252.731
  400.000    6.380    0.275    0.441   80.078  252.433
  400.250    6.337    0.276    0.444   78.978  252.134
  400.500    6.293    0.275    0.453   78.799  251.732
  400.750    6.204    0.269    0.464   79.171  251.535
  401.000    6.069    0.265    0.462   80.647  251.543
  401.250    6.028    0.265    0.457   80.775  251.345
  401.500    5.999    0.265    0.453   79.430  251.149
  401.750    6.004    0.268    0.469   78.208  250.952
  402.000    6.019    0.268    0.474   76.925  251.062
  402.250    6.058    0.281    0.475   75.519  250.659
  402.500    6.085    0.289    0.476   74.480  250.360
  402.750    6.056    0.294    0.477   73.627  250.265
  403.000    6.014    0.295    0.481   73.631  250.990
  403.250    5.907    0.280    0.458   73.635  251.610
  403.500    5.779    0.269    0.457   73.088  252.537
  403.750    5.697    0.258    0.478   76.281  253.464
  404.000    5.648    0.253    0.494   79.965  253.676
  404.250    5.641    0.250    0.475   82.484  253.683
  404.500    5.687    0.248    0.456   82.304  253.793
  404.750    5.833    0.262    0.446   72.926  254.720
  405.000    5.971    0.298    0.437   64.467  255.443
  405.250    6.101    0.326    0.419   59.566  255.655
  405.500    6.221    0.309    0.425   59.448  255.458
  405.750    6.357    0.308    0.444   57.858  255.465
  406.000    6.470    0.321    0.451   54.489  255.473
  406.250    6.623    0.328    0.452   56.456  254.867
  406.500    6.717    0.326    0.443   58.668  254.056
  406.750    6.772    0.323    0.441   55.974  253.042
  407.000    6.855    0.324    0.422   55.733  252.027
  407.250    6.924    0.310    0.404   58.314  251.013
  407.500    6.995    0.299    0.427   56.724  250.407
  407.750    7.093    0.302    0.427   54.705  249.903
  408.000    7.207    0.314    0.412   54.771  249.502
  408.250    7.239    0.325    0.408   54.959  249.100
  408.500    7.245    0.328    0.419   55.699  248.392
  408.750    7.250    0.306    0.416   60.549  248.400
  409.000    7.256    0.286    0.422   63.926  248.510
  409.250    7.288    0.292    0.434   64.482  248.823
  409.500    7.363    0.302    0.445   58.723  249.035
  409.750    7.466    0.302    0.447   56.089  249.042
  410.000    7.514    0.300    0.407   54.254  248.948
  410.250    7.477    0.298    0.387   52.112  247.729
  410.500    7.287    0.283    0.397   55.735  239.151
  410.750    6.971    0.270    0.404   61.013  222.089
  411.000    6.680    0.259    0.413   67.948  188.777
  411.250    6.329    0.246    0.430   75.004  168.649
  411.500    5.864    0.235    0.444   80.099  215.979
  411.750    5.618    0.243    0.457   83.292  245.320
  412.000    5.394    0.248    0.471   82.131  262.090
  412.250    5.257    0.257    0.485   82.995  265.265
  412.500    5.144    0.268    0.462   84.777  264.252
  412.750    5.071    0.277    0.450   84.230  261.908
  413.000    5.239    0.291    0.461   79.206  258.952
  413.250    6.144    0.303    0.476   74.917  257.732
  413.500    6.679    0.312    0.485   70.751  257.331
  413.750    7.100    0.319    0.468   67.935  257.031
  414.000    7.519    0.305    0.439   65.180  256.733
  414.250    7.538    0.297    0.425   68.619  256.536
  414.500    7.211    0.299    0.421   70.647  256.747
  414.750    6.847    0.306    0.420   72.368  256.755
  415.000    6.672    0.284    0.421   73.906  256.456
  415.250    6.527    0.265    0.427   76.547  256.463
  415.500    6.386    0.249    0.436   79.863  256.572
  415.750    6.427    0.243    0.446   83.118  256.682
  416.000    6.494    0.251    0.464   82.816  256.485
  416.250    6.473    0.256    0.500   83.433  257.821
  416.500    6.357    0.248    0.501   85.584  260.691
  416.750    5.801    0.242    0.487   87.490  263.049
  417.000    5.434    0.237    0.472   86.942  264.384
  417.250    5.247    0.241    0.461   83.084  264.903
  417.500    5.211    0.243    0.449   80.757  262.764
  417.750    5.216    0.243    0.444   80.026  259.501
  418.000    5.209    0.251    0.451   79.233  258.078
  418.250    5.174    0.264    0.468   79.360  257.880
  418.500    5.120    0.272    0.489   80.223  258.195
  418.750    5.085    0.269    0.493   81.761  258.406
  419.000    4.984    0.261    0.489   82.256  258.107
  419.250    4.768    0.268    0.511   80.973  257.706
  419.500    4.603    0.291    0.527   81.284  257.815
  419.750    4.478    0.313    0.534   82.699  258.129
  420.000    4.398    0.253    0.503   83.378  258.444
  420.250    4.385    0.256    0.491   83.628  258.758
  420.500    4.363    0.256    0.481   85.350  258.969
  420.750    4.374    0.254    0.459   86.764  258.977
  421.000    4.379    0.260    0.442   86.155  259.087
  421.250    4.373    0.266    0.456   78.862  258.889
  421.500    4.335    0.276    0.462   71.814  258.795
  421.750    4.273    0.271    0.473   73.658  258.495
  422.000    4.196    0.254    0.504   78.139  258.503
  422.250    4.312    0.275    0.499   82.927  258.510
  422.500    4.549    0.300    0.477   84.281  258.517
  422.750    4.937    0.318    0.483   82.997  258.423
  423.000    5.368    0.336    0.499   75.827  258.328
  423.250    5.827    0.353    0.477   62.585  258.233
  423.500    5.975    0.353    0.463   58.726  257.832
  423.750    6.116    0.350    0.467   58.669  257.533
  424.000    6.249    0.347    0.483   59.961  257.541
  424.250    6.397    0.345    0.482   60.824  257.344
  424.500    6.499    0.340    0.469   61.565  257.351
  424.750    6.590    0.334    0.462   62.918  257.358
  425.000    6.557    0.331    0.450   64.456  257.059
  425.250    6.477    0.330    0.444   64.767  256.862
  425.500    6.396    0.334    0.456   63.177  256.870
  425.750    6.294    0.344    0.472   62.446  256.876
  426.000    6.181    0.351    0.489   62.327  256.884
  426.250    6.116    0.353    0.486   61.289  256.892
  426.500    6.040    0.357    0.476   58.166  256.797
  426.750    5.943    0.356    0.464   55.656  256.497
  427.000    5.902    0.354    0.449   55.231  255.892
  427.250    5.884    0.359    0.439   55.849  255.285
  427.500    5.934    0.363    0.450   54.382  254.272
  427.750    6.006    0.363    0.458   54.816  253.563
  428.000    6.159    0.362    0.464   56.108  252.651
  428.250    6.364    0.361    0.478   57.401  252.045
  428.500    6.602    0.358    0.463   57.343  251.337
  428.750    6.771    0.353    0.441   55.692  250.936
  429.000    6.918    0.348    0.429   56.065  250.738
  429.250    7.041    0.344    0.439   56.621  250.439
  429.500    7.182    0.352    0.454   57.238  250.447
  429.750    7.200    0.364    0.461   57.672  250.352
  430.000    7.164    0.354    0.451   57.431  250.360
  430.250    6.865    0.336    0.456   57.068  250.367
  430.500    6.742    0.341    0.450   56.644  250.375
  430.750    6.672    0.356    0.446   56.648  250.586
  431.000    6.588    0.367    0.442   56.836  250.900
  431.250    6.495    0.372    0.442   56.963  251.520
  431.500    6.354    0.367    0.441   56.416  252.243
  431.750    6.170    0.357    0.443   55.623  252.865
  432.000    6.364    0.347    0.442   54.892  253.587
  432.250    6.613    0.337    0.424   53.608  254.310
  432.500    6.925    0.333    0.411   50.730  254.931
  432.750    7.291    0.336    0.401   48.588  255.244
  433.000    7.780    0.341    0.412   48.593  254.843
  433.250    8.131    0.341    0.415   50.498  254.953
  433.500    8.199    0.338    0.410   51.667  254.960
  433.750    8.174    0.343    0.415   52.531  254.763
  434.000    8.073    0.342    0.439   51.615  254.466
  434.250    7.988    0.339    0.456   52.049  254.165
