~VERSION INFORMATION
 VERS.                 2.0:   CWLS LOG ASCII STANDARD -VERSION 2.0
 WRAP.                  NO:   ONE LINE PER DEPTH STEP
~WELL INFORMATION BLOCK
#MNEM.UNIT           DATA                    DESCRIPTION OF MNEMONIC
#---------    -------------------            -------------------------------
# Generated from Intellog Unique Number	nealta/WELL/2321
WELL.         AMOCO MISTAHAE                 : Well_name    - WELL
LOC .         11-26-078-01W5                 : Location     - LOCATION
UWI .         00/11-26-078-01W5/0            : Uwi          - UNIQUE WELL ID
ENTR.         MAX                            : Entered      - ENTERED BY
SRVC.         COMPUTALOG                     : Scn          - SERVICE COMPANY
STRT.M        285                            : top_depth    - START DEPTH
STOP.M        535                            : bot_depth    - STOP DEPTH
STEP.M        0.25                           : increment    - STEP LENGTH
 NULL. -999.2500:NULL Value
~CURVE INFORMATION BLOCK
#MNEM UNIT       ERCB CURVE CODE    CURVE DESCRIPTION
#-----------   ------------------   ----------------------------------
DEPT.M        00 001 00 00         : DEPTH        - DEPTH
CALI.MM       00 280 01 00         : CAL          - CALIPER
GR  .API      00 310 00 00         : GR           - GAMMA RAY
ILD .OHMM     00 120 00 00         : RESD         - DEEP RESISTIVITY (DIL)
NPHI.V/V      00 330 00 00         : PHIN         - NEUTRON POROSITY (SANDSTONE)
DPHI.V/V      00 890 00 00         : PHID         - DENSITY POROSITY (SANDSTONE)
~PARAMETER INFORMATION
#MNEM.UNIT           DATA             DESCRIPTION OF MNEMONIC
#---------         -----------     ------------------------------
GL  .M        587.78               : gl           - GROUND LEVEL ELEVATION
EREF.M        591.88               : kb           - ELEVATION OF DEPTH REFERENCE
DATM.M        587.78               : datum        - DATUM ELEVATION
TDD .M        535.31               : tdd          - TOTAL DEPTH DRILLER
RUN .         ONE                  : Run          - RUN NUMBER
ENG .         BILL                 : Engineer     - RECORDING ENGINEER
WIT .         JIM                  : Witness      - WITNESSED BY
MUD .         GEL                  : Mud_type     - MUD TYPE
MATR.         SANDSTONE            : Logunit      - NEUTRON MATRIX
TMAX.C        22                   : BHT          - MAXIMUM RECORDED TEMPERATURE
BHTD.M        535.31               : BHTDEP       - MAXIMUM RECORDED TEMPERATURE
RMT .C        14.3                 : MDTP         - TEMPERATURE OF MUD
MUDD.KG/M     1100                 : MWT          - MUD DENSITY
NEUT.         1                    : NEUTRON      - NEUTRON TYPE
RESI.         0                    : RESIST       - RESISTIVITY TYPE
RM  .OHMM     2.6                  : RM           - RESISTIVITY OF MUD
RMC .OHMM     3.5                  : RMC          - RESISTIVITY OF MUD CAKE
RMF .OHMM     2.4                  : RMF          - RESISTIVITY OF MUD FILTRATE
SUFT.C        -20                  : SUFT         - SURFACE TEMPERATURE
~A  DEPTH      CAL       GR     RESD     PHIN     PHID
# ...
  358.000  199.212   70.644    5.031    0.453    0.246
  358.250  198.214   75.111    5.201    0.434    0.252
  358.500  198.705   73.320    5.468    0.434    0.251
  358.750  200.191   71.529    5.846    0.453    0.225
  359.000  200.186   74.207    6.302    0.474    0.197
  359.250  199.683   77.780    6.908    0.344    0.180
  359.500  199.182   76.585    7.263    0.334    0.175
  359.750  199.177   70.028    8.097    0.319    0.178
  360.000  199.172   55.723    9.412    0.112    0.150
  360.250  199.168   55.124   11.408    0.092    0.073
  360.500  198.666   48.269   11.696    0.089    0.003
  360.750  198.661   47.074   11.404    0.115    0.001
  361.000  198.656   68.821    9.173    0.200    0.069
  361.250  199.644   74.181    8.365    0.360    0.144
  361.500  200.632   84.010    7.378    0.381    0.187
  361.750  201.124   92.350    6.616    0.401    0.203
  362.000  201.119   87.580    6.135    0.421    0.205
  362.250  201.115   85.789    6.033    0.439    0.202
  362.500  201.109   85.786    6.083    0.416    0.199
  362.750  200.608   85.485    6.133    0.402    0.207
  363.000  200.107   72.074    6.183    0.407    0.215
  363.250  200.102   69.390    6.182    0.416    0.210
  363.500  200.097   76.538    6.182    0.410    0.199
  363.750  200.589   75.343    6.181    0.408    0.185
  364.000  200.584   78.618    6.232    0.391    0.197
  364.250  200.082   87.851    6.179    0.377    0.205
  364.500  199.084   85.762    6.127    0.351    0.205
  364.750  198.086   82.780    5.974    0.360    0.202
  365.000  198.086   83.373    5.825    0.390    0.194
  365.250  198.075   82.476    5.680    0.410    0.194
  365.500  198.072   80.686    5.680    0.415    0.184
  365.750  198.563   78.299    5.584    0.399    0.177
  366.000  199.055   80.680    5.399    0.374    0.180
  366.250  199.546   84.550    5.399    0.391    0.187
  366.500  199.541   86.632    5.398    0.392    0.195
  366.750  198.543   85.438    5.398    0.383    0.201
  367.000  198.041   83.647    5.397    0.439    0.198
  367.250  198.533   84.836    5.396    0.458    0.178
  367.500  200.018   87.813    5.395    0.443    0.182
  367.750  201.006   92.576    5.349    0.433    0.181
  368.000  201.000   91.978    5.260    0.420    0.180
  368.250  200.500   88.698    5.303    0.437    0.181
  368.500  199.502   80.948    5.085    0.473    0.202
  368.750  199.994   81.243    5.084    0.448    0.216
  369.000  201.974   84.220    5.126    0.447    0.224
  369.250  201.473   96.433    5.126    0.453    0.210
  369.500  198.985   97.621    5.082    0.445    0.197
  369.750  200.470   92.255    4.997    0.436    0.191
  370.000  204.436   92.848    4.873    0.441    0.186
  370.250  204.433   95.825    4.791    0.418    0.173
  370.500  204.429   94.034    4.791    0.396    0.186
  370.750  204.423   86.285    4.912    0.386    0.192
  371.000  203.922   81.812    4.994    0.414    0.203
  371.250  202.924   82.107    5.163    0.395    0.198
  371.500  200.436   82.104    5.293    0.401    0.188
  371.750  198.941   79.718    5.293    0.410    0.179
  372.000  198.440   82.694    5.248    0.430    0.173
  372.250  200.420   85.671    5.203    0.459    0.183
  372.500  202.899   87.157    5.290    0.456    0.189
  372.750  202.893   88.644    5.562    0.421    0.202
  373.000  200.903   91.919    6.097    0.406    0.185
  373.250  200.401   87.744    7.088    0.412    0.180
  373.500  201.886   79.101    7.514    0.417    0.191
  373.750  200.887   70.458    8.956    0.400    0.210
  374.000  198.401   71.051    9.737    0.366    0.197
  374.250  195.416   75.517   12.618    0.343    0.184
  374.500  194.914   72.236   14.424    0.393    0.212
  374.750  195.406   72.829   13.947    0.449    0.245
  375.000  195.897   74.316   11.313    0.480    0.257
  375.250  196.389   75.207    9.331    0.495    0.268
  375.500  195.888   75.502    9.023    0.493    0.256
  375.750  195.387   74.903    8.367    0.465    0.230
  376.000  195.382   76.092    7.890    0.426    0.215
  376.250  195.874   81.154    7.255    0.402    0.212
  376.500  196.365   80.555    6.899    0.402    0.205
  376.750  197.352   87.108    6.506    0.389    0.208
  377.000  197.347   86.509    6.291    0.385    0.201
  377.250  195.854   81.739    6.032    0.440    0.201
  377.500  195.849   82.033    5.882    0.413    0.198
  377.750  195.843   83.818    5.783    0.386    0.187
  378.000  195.341   82.027    5.782    0.404    0.183
  378.250  195.337   79.641    5.782    0.402    0.188
  378.500  195.333   82.022    5.782    0.400    0.184
  378.750  195.824   89.169    5.780    0.428    0.181
  379.000  196.315   93.039    5.877    0.417    0.181
  379.250  196.311   90.951    5.925    0.401    0.177
  379.500  196.802   92.139    5.974    0.393    0.175
  379.750  196.797   90.647    6.024    0.391    0.187
  380.000  195.302   85.281    6.124    0.402    0.202
  380.250  193.311   82.001    6.227    0.434    0.200
  380.500  192.312   81.700    6.226    0.407    0.203
  380.750  193.798   81.697    6.225    0.424    0.211
  381.000  195.282   75.139    6.173    0.442    0.210
  381.250  195.774   81.989    6.069    0.429    0.203
  381.500  195.770   86.455    6.018    0.408    0.199
  381.750  195.764   87.346    6.017    0.383    0.198
  382.000  195.759   84.960    6.017    0.362    0.201
  382.250  196.252   79.296    6.015    0.380    0.203
  382.500  197.239   82.273    5.964    0.382    0.201
  382.750  197.235   85.248    5.767    0.379    0.197
  383.000  198.223   82.564    5.576    0.388    0.191
  383.250  198.218   78.390    5.437    0.407    0.189
  383.500  197.716   76.599    5.575    0.395    0.216
  383.750  196.719   81.066    5.861    0.376    0.225
  384.000  195.720   86.724    6.060    0.409    0.214
  384.250  194.722   87.018    5.958    0.420    0.210
  384.500  194.717   86.718    5.859    0.415    0.206
  384.750  195.209   81.948    5.809    0.416    0.207
  385.000  195.701   80.455    5.760    0.413    0.203
  385.250  195.199   73.301    5.663    0.435    0.199
  385.500  195.690   73.298    5.615    0.418    0.199
  385.750  195.686   85.213    5.615    0.381    0.194
  386.000  195.681   84.316    5.661    0.343    0.187
  386.250  195.676   80.440    5.804    0.334    0.179
  386.500  195.175   89.376    5.901    0.387    0.181
  386.750  195.170   86.989    6.000    0.393    0.196
  387.000  195.164   81.921    6.100    0.423    0.217
  387.250  194.167   70.001    6.202    0.432    0.229
  387.500  192.672   69.998    6.359    0.407    0.240
  387.750  192.667   72.378    6.520    0.426    0.241
  388.000  199.613   71.183    6.741    0.422    0.236
  388.250  196.629   73.861    6.969    0.445    0.218
  388.500  189.177   75.348    7.205    0.432    0.207
  388.750  183.212   68.195    7.575    0.441    0.206
  389.000  183.208   58.062    8.031    0.417    0.208
  389.250  186.182   56.271    8.515    0.383    0.207
  389.500  188.661   58.056    9.179    0.370    0.202
  389.750  189.648   61.331    9.731    0.369    0.194
  390.000  191.628   65.201    9.977    0.375    0.218
  390.250  191.624   65.496    9.893    0.372    0.236
  390.500  192.116   64.300    9.173    0.375    0.240
  390.750  192.608   67.277    8.651    0.376    0.247
  391.000  194.590   75.617    8.022    0.376    0.247
  391.250  198.060   80.678    7.565    0.445    0.242
  391.500  198.553   80.080    7.438    0.433    0.224
  391.750  198.547   80.971    7.500    0.407    0.215
  392.000  198.542   88.119    7.753    0.395    0.216
  392.250  197.543   83.647    7.950    0.420    0.210
  392.500  194.559   78.579    8.428    0.396    0.222
  392.750  193.562   66.062    8.861    0.392    0.237
  393.000  193.557   58.610   10.386    0.381    0.200
  393.250  194.545   50.563   12.694    0.349    0.149
  393.500  194.540   47.580   14.756    0.281    0.134
  393.750  195.031   44.002   18.339    0.216    0.122
  394.000  195.524   42.212   20.963    0.239    0.116
  394.250  198.498   51.445   22.411    0.239    0.118
