~VERSION INFORMATION
 VERS.                 2.0:   CWLS LOG ASCII STANDARD -VERSION 2.0
 WRAP.                  NO:   ONE LINE PER DEPTH STEP
~WELL INFORMATION BLOCK
#MNEM.UNIT           DATA                    DESCRIPTION OF MNEMONIC
#---------    -------------------            -------------------------------
# Generated from Intellog Unique Number	CC_80_83/WELL/2413
NULL.         -999.25                        : NULL_VALUE
WELL.         UNIX ET AL DROPOFF             : Well_name    - WELL
LOC .         11-28-080-17W4                 : Location     - LOCATION          
UWI .         00/11-28-080-17W4/0            : Uwi          - UNIQUE WELL ID    
ENTR.         DW                             : Entered      - ENTERED BY        
SRVC.         SCHLUMBERGER                   : Scn          - SERVICE COMPANY   
DATE.         04 MAR 77                      : Date         - LOG DATE
STRT.M        137.16                         : top_depth    - START DEPTH       
STOP.M        320.04                         : bot_depth    - STOP DEPTH        
STEP.M        0.305                          : increment    - STEP LENGTH       
~CURVE INFORMATION BLOCK
#MNEM UNIT       ERCB CURVE CODE    CURVE DESCRIPTION
#-----------   ------------------   ----------------------------------
DEPT.M        00 001 00 00         : DEPTH        - DEPTH                       
DPHI.V/V      00 890 00 00         : PHID         - DENSITY POROSITY (LIMESTONE)
NPHI.V/V      00 330 00 00         : PHIN         - NEUTRON POROSITY (LIMESTONE)
GR  .API      00 310 00 00         : GR           - GAMMA RAY                   
ILD .OHMM     00 120 00 00         : RESD         - DEEP RESISTIVITY (DIL)      
~PARAMETER INFORMATION       
#MNEM.UNIT           DATA             DESCRIPTION OF MNEMONIC
#---------         -----------     ------------------------------
GL  .M        541.965              : gl           - GROUND LEVEL ELEVATION      
EREF.M        545.318              : kb           - ELEVATION OF DEPTH REFERENCE
DATM.M        545.318              : datum        - DATUM ELEVATION             
TDD .M        323.393              : tdd          - TOTAL DEPTH DRILLER         
RUN .         ONE                  : Run          - RUN NUMBER                  
ENG .         BILL                 : Engineer     - RECORDING ENGINEER          
WIT .         JIM                  : Witness      - WITNESSED BY                
MUD .         GEL                  : Mud_type     - MUD TYPE                    
MATR.         LIMESTONE            : Logunit      - NEUTRON MATRIX              
TMAX.C        19.4444              : BHT          - MAXIMUM RECORDED TEMPERATURE
BHTD.M        323.393              : BHTDEP       - MAXIMUM RECORDED TEMPERATURE
MATR.         1                    : LOGUNIT      - NEUTRON MATRIX              
RMT .C        25                   : MDTP         - TEMPERATURE OF MUD          
NEUT.         1                    : NEUTRON      - NEUTRON TYPE                
RESI.         0                    : RESIST       - RESISTIVITY TYPE            
RMC .OHMM     0.25                 : RMC          - RESISTIVITY OF MUD CAKE     
RMF .OHMM     0.25                 : RMF          - RESISTIVITY OF MUD FILTRATE 
SUFT.C        15                   : SUFT         - SURFACE TEMPERATURE         
~A  DEPTH     PHID     PHIN       GR     RESD
# ...
  243.228    0.247    0.432  101.640    7.649
  243.533    0.248    0.415  104.080    8.096
  243.838    0.235    0.436   97.414    8.098
  244.143    0.241    0.452   95.600    7.954
  244.448    0.254    0.449   96.222    8.262
  244.752    0.249    0.451   96.838    8.911
  245.057    0.242    0.444   93.814    9.083
  245.362    0.230    0.452   92.612    9.086
  245.667    0.205    0.437   94.443    8.438
  245.972    0.202    0.443   95.668    7.692
  246.276    0.241    0.489   94.467    7.275
  246.581    0.257    0.475   95.690    6.758
  246.886    0.264    0.454   98.738    6.513
  247.191    0.250    0.455   99.357    6.396
  247.496    0.264    0.448  102.402    6.279
  247.800    0.253    0.471  101.809    6.522
  248.105    0.250    0.487   98.177    7.165
  248.410    0.267    0.473   94.542    8.642
  248.715    0.254    0.458   86.660   10.423
  249.020    0.306    0.447   76.959   12.340
  249.324    0.308    0.433   72.719   13.058
  249.629    0.298    0.423   69.694   13.310
  249.934    0.292    0.423   69.100   12.592
  250.239    0.284    0.406   69.114   11.694
  250.543    0.317    0.395   69.729   10.860
  250.848    0.317    0.392   71.559   10.663
  251.153    0.321    0.410   74.000   10.668
  251.458    0.323    0.433   69.153   11.081
  251.763    0.317    0.439   66.128   11.948
  252.067    0.306    0.448   67.358   12.645
  252.372    0.315    0.450   70.401   12.650
  252.677    0.320    0.432   78.305   11.968
  252.982    0.326    0.428   77.710   10.909
  253.287    0.329    0.429   71.045   10.516
  253.591    0.308    0.433   71.661   10.325
  253.896    0.305    0.438   72.886    9.771
  254.201    0.305    0.443   74.718    9.594
  254.506    0.297    0.444   74.729    9.964
  254.811    0.310    0.460   69.279   10.349
  255.115    0.321    0.447   72.933   11.372
  255.420    0.335    0.442   73.548   12.492
  255.725    0.324    0.469   70.523   13.724
  256.030    0.308    0.459   69.323   14.520
  256.335    0.328    0.428   71.156   15.080
  256.639    0.335    0.414   71.776   15.091
  256.944    0.333    0.423   71.782   15.098
  257.249    0.327    0.428   72.400   14.556
  257.554    0.316    0.425   69.985   14.029
  257.859    0.328    0.417   67.567   12.789
  258.163    0.322    0.420   67.576   12.324
  258.468    0.325    0.413   74.268   11.445
  258.773    0.323    0.420   72.457   10.628
  259.078    0.313    0.456   70.648   10.435
  259.383    0.313    0.437   70.053    9.692
  259.688    0.317    0.429   71.884    9.517
  259.992    0.313    0.470   74.323    9.522
  260.297    0.296    0.465   73.123    9.181
  260.602    0.276    0.448   79.810    9.185
  260.907    0.277    0.448   79.821    9.190
  261.212    0.323    0.444   77.403    9.194
  261.516    0.314    0.432   73.168    9.553
  261.821    0.324    0.419   74.998    9.557
  262.126    0.314    0.419   73.794    9.927
  262.431    0.302    0.450   71.983   10.119
  262.736    0.296    0.437   71.997   10.315
  263.040    0.321    0.432   73.830   10.135
  263.345    0.332    0.426   75.052   10.139
  263.650    0.338    0.441   73.249    9.956
  263.955    0.317    0.452   73.254    9.597
  264.260    0.314    0.439   79.340    9.425
  264.564    0.319    0.431   81.169    9.430
  264.869    0.300    0.422   81.181    9.436
  265.174    0.319    0.465   86.657    9.619
  265.479    0.321    0.477   87.882    9.805
  265.784    0.315    0.468   84.251    9.998
  266.089    0.297    0.454   86.086   10.191
  266.393    0.280    0.432   86.701   10.391
  266.698    0.295    0.427   84.891   10.396
  267.003    0.294    0.435   85.508   10.207
  267.308    0.293    0.476   84.916    9.132
  267.613    0.277    0.483   84.926    8.170
  267.917    0.257    0.440   89.792    7.873
  268.222    0.246    0.444   92.232    7.176
  268.527    0.253    0.451   95.279    6.664
  268.832    0.245    0.465  105.613    6.304
  269.137    0.244    0.476  105.625    5.965
  269.441    0.244    0.456  103.814    6.195
  269.746    0.241    0.457  103.827    6.933
  270.051    0.237    0.468  104.445    8.208
  270.356    0.221    0.468  102.633    8.523
  270.661    0.221    0.455  101.430    9.024
  270.965    0.237    0.440  104.476    8.861
  271.270    0.240    0.412  112.381    8.539
  271.575    0.200    0.427  107.536    7.931
  271.880    0.223    0.446  108.153    7.788
  272.185    0.232    0.458  109.988    7.649
  272.490    0.222    0.462  111.215    7.652
  272.794    0.208    0.438  111.831    8.098
  273.099    0.196    0.455  107.590    8.410
  273.404    0.172    0.467  105.174    8.259
  273.709    0.202    0.468  110.650    7.390
  274.014    0.217    0.459  116.731    7.121
  274.318    0.213    0.454  117.350    6.994
  274.623    0.191    0.450  108.862    7.130
  274.928    0.196    0.469  103.409    8.284
  275.233    0.204    0.492  105.240    9.992
  275.538    0.195    0.457  102.823   11.182
  275.842    0.180    0.410  101.621   11.834
  276.147    0.158    0.415  102.848   10.585
  276.452    0.184    0.436  107.108    9.293
  276.757    0.206    0.430  112.584    7.861
  277.062    0.210    0.414  111.985    7.298
  277.366    0.210    0.429  105.321    6.530
  277.671    0.220    0.437  102.901    6.533
  277.976    0.223    0.432  100.483    6.659
  278.281    0.225    0.435   98.065    7.454
  278.586    0.219    0.446   87.755    8.343
  278.891    0.212    0.432   84.122   10.251
  279.195    0.212    0.409   86.563   14.090
  279.500    0.205    0.393   96.896   14.636
  279.805    0.215    0.410   92.051   13.591
  280.110    0.224    0.417   95.099   12.157
  280.415    0.207    0.411   97.537   10.477
  280.719    0.226    0.406   98.762    9.727
  281.024    0.217    0.409   97.561    8.542
  281.329    0.215    0.417   94.539    8.233
  281.634    0.232    0.415   93.938    8.237
  281.939    0.259    0.414   96.378    8.241
  282.243    0.267    0.410   96.995    8.724
  282.548    0.238    0.420   92.758    8.892
  282.853    0.251    0.421   98.843    8.897
  283.158    0.240    0.414  100.065    8.902
  283.463    0.227    0.433   91.579    9.074
  283.767    0.206    0.445   91.587    9.604
  284.072    0.216    0.457   92.812   10.165
  284.377    0.206    0.452   93.430   10.361
  284.682    0.211    0.439   84.337   10.368
  284.987    0.249    0.440   84.348   10.568
  285.292    0.246    0.438   83.142   11.608
  285.596    0.231    0.422   72.224   14.533
  285.901    0.146    0.396   58.270   21.930
  286.206    0.022    0.279   58.890   24.088
  286.511    0.027    0.200   68.616   24.105
  286.816    0.117    0.255   89.271   20.772
  287.120    0.166    0.360   92.926   15.705
  287.425    0.219    0.416   90.510   11.441
  287.730    0.226    0.406   85.663   10.237
  288.035    0.218    0.384   80.815    9.867
  288.340    0.208    0.385   77.183    9.871
  288.644    0.203    0.402   85.088    9.876
  288.949    0.211    0.433   88.740    9.881
  289.254    0.268    0.446   90.573    9.527
  289.559    0.258    0.429   89.371    9.182
  289.864    0.245    0.419   84.525    8.850
  290.168    0.245    0.437   84.535    8.695
  290.473    0.235    0.445   90.012    8.699
  290.778    0.237    0.433   97.310    8.866
  291.083    0.225    0.424  102.784    9.038
  291.388    0.212    0.423  107.046    9.045
  291.693    0.201    0.421  107.665    8.882
  291.997    0.204    0.439  107.677    8.722
  292.302    0.213    0.429  108.295    8.256
  292.607    0.226    0.425  108.311    8.106
  292.912    0.213    0.434  107.104    7.812
  293.217    0.189    0.429  104.078    7.391
  293.521    0.169    0.427  101.660    6.991
  293.826    0.215    0.454  104.707    6.373
  294.131    0.218    0.449  110.792    6.028
  294.436    0.216    0.443  114.445    5.392
  294.741    0.204    0.474  115.669    5.198
  295.045    0.199    0.477  113.253    5.501
  295.350    0.210    0.449  112.050    6.042
  295.655    0.218    0.425  111.452    7.152
  295.960    0.207    0.408  110.855    8.789
