~VERSION INFORMATION
 VERS.                 2.0:   CWLS LOG ASCII STANDARD -VERSION 2.0
 WRAP.                  NO:   ONE LINE PER DEPTH STEP
~WELL INFORMATION BLOCK
#MNEM.UNIT           DATA                    DESCRIPTION OF MNEMONIC
#---------    -------------------            -------------------------------
# Generated from Intellog Unique Number	CW_73_75/WELL/1039
WELL.         AMOCO 63 MARTEN HILLS 11-15    : Well_name    - WELL
LOC .         00/11-15-075-25W4/0            : Location     - LOCATION
UWI .         00/11-15-075-25W4/0            : Uwi          - UNIQUE WELL ID
ENTR.         JAYE                           : Entered      - ENTERED BY
SRVC.         SCHLUMBERGER                   : Scn          - SERVICE COMPANY
DATE.         6 MAR 75                       : Date         - LOG DATE
STRT.M        423.672                        : top_depth    - START DEPTH
STOP.M        632.672                        : bot_depth    - STOP DEPTH
STEP.M        0.25                           : increment    - STEP LENGTH
 NULL. -999.2500:NULL Value
~CURVE INFORMATION BLOCK
#MNEM UNIT       ERCB CURVE CODE    CURVE DESCRIPTION
#-----------   ------------------   ----------------------------------
DEPT.M        00 001 00 00         : DEPTH        - DEPTH
ILD .OHMM     00 120 00 00         : RESD         - DEEP RESISTIVITY (DIL)
NPHI.V/V      00 330 00 00         : PHIN         - NEUTRON POROSITY (SANDSTONE)
DPHI.V/V      00 890 00 00         : PHID         - DENSITY POROSITY (SANDSTONE)
GR  .API      00 310 00 00         : GR           - GAMMA RAY
CALI.MM       00 280 01 00         : CAL          - CALIPER
~PARAMETER INFORMATION
#MNEM.UNIT           DATA             DESCRIPTION OF MNEMONIC
#---------         -----------     ------------------------------
GL  .M        700.126              : gl           - GROUND LEVEL ELEVATION
EREF.M        704.088              : kb           - ELEVATION OF DEPTH REFERENCE
DATM.M        700.126              : datum        - DATUM ELEVATION
TDD .M        632.46               : tdd          - TOTAL DEPTH DRILLER
RUN .         ONE                  : Run          - RUN NUMBER
ENG .         SIMPSON              : Engineer     - RECORDING ENGINEER
WIT .         CAMPBELL             : Witness      - WITNESSED BY
BASE.         EDM                  : Branch       - HOME BASE OF LOGGING UNIT
MUD .         GEL                  : Mud_type     - MUD TYPE
MATR.         SANDSTONE            : Logunit      - NEUTRON MATRIX
TMAX.C        28.3333              : BHT          - MAXIMUM RECORDED TEMPERATURE
BHTD.M        633.679              : BHTDEP       - MAXIMUM RECORDED TEMPERATURE
RMT .C        16.1111              : MDTP         - TEMPERATURE OF MUD
MUDD.KG/M     1068                 : MWT          - MUD DENSITY
NEUT.         1                    : NEUTRON      - NEUTRON TYPE
RESI.         0                    : RESIST       - RESISTIVITY TYPE
RM  .OHMM     5.2                  : RM           - RESISTIVITY OF MUD
RMC .OHMM     0                    : RMC          - RESISTIVITY OF MUD CAKE
RMF .OHMM     6.39                 : RMF          - RESISTIVITY OF MUD FILTRATE
SUFT.C        -17.7778             : SUFT         - SURFACE TEMPERATURE
~A  DEPTH     RESD     PHIN     PHID       GR      CAL
# ...
  533.172    5.362    0.474    0.216   74.268  228.453
  533.422    5.356    0.484    0.230   74.046  228.069
  533.672    5.351    0.493    0.226   74.679  228.522
  533.922    5.346    0.492    0.209   75.310  230.211
  534.172    5.341    0.475    0.237   75.820  231.797
  534.422    5.240    0.466    0.268   76.575  234.015
  534.672    5.144    0.461    0.255   77.940  234.664
  534.922    4.959    0.459    0.248   78.756  234.391
  535.172    4.868    0.472    0.224   76.211  233.187
  535.422    4.734    0.477    0.217   76.171  231.979
  535.672    4.730    0.490    0.198   76.681  231.291
  535.922    4.810    0.489    0.206   75.909  231.329
  536.172    4.935    0.487    0.210   76.175  234.160
  536.422    5.155    0.504    0.190   75.340  233.057
  536.672    5.337    0.497    0.220   71.268  229.576
  536.922    5.575    0.471    0.243   64.812  227.133
  537.172    5.823    0.460    0.264   60.190  226.135
  537.422    6.135    0.451    0.244   59.480  225.447
  537.672    6.353    0.434    0.232   61.030  224.862
  537.922    6.123    0.427    0.218   61.844  224.583
  538.172    5.747    0.456    0.204   61.804  224.309
  538.422    5.592    0.478    0.247   59.564  224.350
  538.672    5.488    0.485    0.239   61.480  224.385
  538.922    5.434    0.467    0.247   65.780  224.522
  539.172    5.381    0.466    0.246   67.391  225.080
  539.422    5.376    0.486    0.241   67.350  225.318
  539.672    5.369    0.473    0.238   67.984  225.559
  539.922    5.414    0.460    0.262   68.736  225.701
  540.172    5.457    0.487    0.273   69.185  225.845
  540.422    5.500    0.485    0.264   68.963  225.985
  540.672    5.643    0.494    0.257   69.472  226.027
  540.922    5.790    0.492    0.248   68.210  226.056
  541.172    5.889    0.474    0.255   62.978  226.090
  541.422    6.096    0.463    0.236   61.287  226.022
  541.672    6.311    0.454    0.213   61.433  226.163
  541.922    6.419    0.439    0.215   63.530  226.201
  542.172    6.355    0.447    0.224   65.446  225.819
  542.422    6.072    0.445    0.218   66.811  225.866
  542.672    5.908    0.449    0.219   67.202  225.898
  542.922    5.745    0.470    0.239   67.343  225.724
  543.172    5.690    0.483    0.235   67.855  225.861
  543.422    5.634    0.474    0.222   68.673  225.799
  543.672    5.579    0.481    0.216   69.731  225.726
  543.922    5.523    0.480    0.220   70.667  225.454
  544.172    5.470    0.477    0.244   71.972  225.285
  544.422    5.416    0.481    0.247   73.582  225.316
  544.672    5.410    0.491    0.219   75.132  225.358
  544.922    5.358    0.495    0.239   74.176  225.492
  545.172    5.305    0.494    0.248   71.753  225.536
  545.422    5.299    0.483    0.240   71.409  225.467
  545.672    5.390    0.468    0.235   71.554  225.402
  545.922    5.529    0.454    0.261   72.062  225.126
  546.172    5.625    0.438    0.237   72.878  225.057
  546.422    5.720    0.446    0.217   74.180  224.779
  546.672    5.974    0.458    0.202   74.203  224.827
  546.922    6.185    0.459    0.220   73.551  224.856
  547.172    6.460    0.454    0.242   72.594  224.791
  547.422    6.570    0.446    0.218   70.905  224.823
  547.672    6.563    0.431    0.198   69.829  224.866
  547.922    6.385    0.432    0.215   70.093  224.794
  548.172    6.047    0.451    0.221   71.765  224.619
  548.422    5.778    0.465    0.218   74.230  224.255
  548.672    5.318    0.489    0.225   75.170  224.391
  548.922    5.671    0.483    0.237   75.617  224.319
  549.172    6.103    0.469    0.237   75.641  224.562
  549.422    6.567    0.458    0.194   74.926  224.698
  549.672    7.068    0.433    0.138   74.582  225.355
  549.922    7.138    0.384    0.095   75.213  226.117
  550.172    7.014    0.358    0.111   75.907  228.531
  550.422    6.708    0.408    0.143   75.257  228.674
  550.672    6.532    0.424    0.212   74.606  227.053
  550.922    6.537    0.436    0.212   76.216  225.745
  551.172    6.661    0.447    0.199   78.436  225.058
  551.422    6.975    0.452    0.197   76.808  224.883
  551.672    6.918    0.440    0.192   71.086  224.408
  551.922    6.676    0.423    0.184   69.946  223.926
  552.172    6.327    0.406    0.177   73.513  223.859
  552.422    5.996    0.415    0.168   78.910  223.795
  552.672    5.838    0.438    0.183   82.598  223.823
  552.922    5.633    0.450    0.192   82.009  223.658
  553.172    5.536    0.457    0.203   82.706  223.698
  553.422    5.441    0.462    0.211   84.189  223.941
  553.672    5.395    0.465    0.188   86.106  224.181
  553.922    5.399    0.471    0.192   86.431  224.316
  554.172    5.404    0.464    0.216   87.005  224.769
  554.422    5.456    0.464    0.240   85.314  224.598
  554.672    5.510    0.477    0.216   85.827  224.633
  554.922    5.565    0.489    0.195   89.636  224.878
  555.172    5.619    0.488    0.208   92.589  225.533
  555.422    5.674    0.483    0.194   89.495  226.503
  555.672    5.674    0.466    0.182   86.215  227.574
  555.922    5.736    0.453    0.197   85.690  228.540
  556.172    5.738    0.457    0.211   85.769  229.402
  556.422    5.742    0.458    0.207   85.791  230.061
  556.672    5.799    0.433    0.185   85.506  230.613
  556.922    5.803    0.437    0.188   85.040  231.377
  557.172    5.808    0.455    0.185   84.817  232.035
  557.422    5.812    0.466    0.171   84.837  232.480
  557.672    5.869    0.469    0.185   85.776  232.726
  557.922    5.927    0.484    0.196   87.081  232.865
  558.172    6.040    0.478    0.197   88.018  232.906
  558.422    6.100    0.469    0.190   89.324  233.038
  558.672    6.160    0.476    0.165   90.507  232.970
  558.922    6.219    0.452    0.164   88.511  233.215
  559.172    6.282    0.430    0.191   84.988  233.049
  559.422    6.343    0.425    0.193   86.109  232.975
  559.672    6.464    0.432    0.188   87.535  232.606
  559.922    6.647    0.412    0.193   87.681  232.224
  560.172    6.713    0.423    0.180   86.967  231.640
  560.422    6.717    0.448    0.167   87.111  231.466
  560.672    6.425    0.457    0.185   88.171  230.882
  560.922    6.313    0.429    0.187   91.372  230.399
  561.172    6.261    0.432    0.177   91.208  229.919
  561.422    6.152    0.414    0.174   86.647  229.747
  561.672    6.101    0.411    0.175   85.630  229.890
  561.922    6.106    0.415    0.168   87.790  230.858
  562.172    6.055    0.429    0.172   90.622  232.553
  562.422    6.062    0.438    0.189   93.454  234.036
  562.672    6.064    0.448    0.199   96.225  234.590
  562.922    6.123    0.464    0.188   93.437  234.727
  563.172    6.297    0.462    0.173   89.487  234.662
  563.422    6.654    0.446    0.166   86.207  233.767
  563.672    7.032    0.445    0.179   82.012  232.149
  563.922    7.637    0.461    0.186   77.574  230.009
  564.172    8.217    0.471    0.184   74.356  229.112
  564.422   10.225    0.437    0.185   69.062  228.426
  564.672   13.560    0.413    0.171   66.272  228.154
  564.922   16.723    0.369    0.134   67.821  228.187
  565.172   19.886    0.352    0.113   70.289  229.363
  565.422   20.449    0.405    0.091   72.205  229.708
  565.672   17.379    0.432    0.148   73.996  226.743
  565.922   13.244    0.455    0.198   77.990  228.956
  566.172   10.093    0.465    0.193   80.822  231.781
  566.422    8.347    0.470    0.177   82.370  234.103
  566.672    7.423    0.463    0.167   82.391  234.548
  566.922    7.633    0.438    0.155   79.174  234.373
  567.172    9.077    0.440    0.146   74.676  233.688
  567.422   11.399    0.448    0.195   71.090  233.206
  567.672   13.678    0.448    0.226   66.651  232.624
  567.922   15.265    0.444    0.249   63.617  231.938
  568.172   16.726    0.431    0.258   62.783  231.762
  568.422   19.182    0.408    0.237   62.866  231.490
  568.672   21.407    0.383    0.217   62.888  231.317
  568.922   24.326    0.329    0.187   60.709  231.259
  569.172   27.643    0.290    0.117   57.065  231.085
  569.422   33.785    0.202    0.046   53.236  231.117
