~VERSION INFORMATION
 VERS.                 2.0:   CWLS LOG ASCII STANDARD -VERSION 2.0
 WRAP.                  NO:   ONE LINE PER DEPTH STEP
~WELL INFORMATION BLOCK
#MNEM.UNIT           DATA                    DESCRIPTION OF MNEMONIC
#---------    -------------------            -------------------------------
# Generated from Intellog Unique Number	nealta/WELL/2321
WELL.         AMOCO MISTAHAE                 : Well_name    - WELL
LOC .         11-26-078-01W5                 : Location     - LOCATION
UWI .         00/11-26-078-01W5/0            : Uwi          - UNIQUE WELL ID
ENTR.         MAX                            : Entered      - ENTERED BY
SRVC.         COMPUTALOG                     : Scn          - SERVICE COMPANY
STRT.M        285                            : top_depth    - START DEPTH
STOP.M        535                            : bot_depth    - STOP DEPTH
STEP.M        0.25                           : increment    - STEP LENGTH
 NULL. -999.2500:NULL Value
~CURVE INFORMATION BLOCK
#MNEM UNIT       ERCB CURVE CODE    CURVE DESCRIPTION
#-----------   ------------------   ----------------------------------
DEPT.M        00 001 00 00         : DEPTH        - DEPTH
CALI.MM       00 280 01 00         : CAL          - CALIPER
GR  .API      00 310 00 00         : GR           - GAMMA RAY
ILD .OHMM     00 120 00 00         : RESD         - DEEP RESISTIVITY (DIL)
NPHI.V/V      00 330 00 00         : PHIN         - NEUTRON POROSITY (SANDSTONE)
DPHI.V/V      00 890 00 00         : PHID         - DENSITY POROSITY (SANDSTONE)
~PARAMETER INFORMATION
#MNEM.UNIT           DATA             DESCRIPTION OF MNEMONIC
#---------         -----------     ------------------------------
GL  .M        587.78               : gl           - GROUND LEVEL ELEVATION
EREF.M        591.88               : kb           - ELEVATION OF DEPTH REFERENCE
DATM.M        587.78               : datum        - DATUM ELEVATION
TDD .M        535.31               : tdd          - TOTAL DEPTH DRILLER
RUN .         ONE                  : Run          - RUN NUMBER
ENG .         BILL                 : Engineer     - RECORDING ENGINEER
WIT .         JIM                  : Witness      - WITNESSED BY
MUD .         GEL                  : Mud_type     - MUD TYPE
MATR.         SANDSTONE            : Logunit      - NEUTRON MATRIX
TMAX.C        22                   : BHT          - MAXIMUM RECORDED TEMPERATURE
BHTD.M        535.31               : BHTDEP       - MAXIMUM RECORDED TEMPERATURE
RMT .C        14.3                 : MDTP         - TEMPERATURE OF MUD
MUDD.KG/M     1100                 : MWT          - MUD DENSITY
NEUT.         1                    : NEUTRON      - NEUTRON TYPE
RESI.         0                    : RESIST       - RESISTIVITY TYPE
RM  .OHMM     2.6                  : RM           - RESISTIVITY OF MUD
RMC .OHMM     3.5                  : RMC          - RESISTIVITY OF MUD CAKE
RMF .OHMM     2.4                  : RMF          - RESISTIVITY OF MUD FILTRATE
SUFT.C        -20                  : SUFT         - SURFACE TEMPERATURE
~A  DEPTH      CAL       GR     RESD     PHIN     PHID
# ...
  467.500  206.607   81.002   10.789    0.273    0.153
  467.750  204.527   65.678   12.252    0.270    0.120
  468.000  200.451   62.334   13.413    0.238    0.034
  468.250  196.383   68.884   13.159    0.195    0.070
  468.500  191.817   81.718   12.795    0.249    0.106
  468.750  181.760   80.775   11.992    0.344    0.122
  469.000  176.676   91.214   11.343    0.344    0.116
  469.250  177.120   90.570   11.231    0.337    0.115
  469.500  181.030   83.338   11.429    0.321    0.089
  469.750  180.947   88.086   11.631    0.298    0.060
  470.000  181.372   82.939   11.622    0.287    0.098
  470.250  185.800   85.895   11.606    0.285    0.111
  470.500  192.715   91.841   11.498    0.288    0.111
  470.750  198.631   89.400   11.178    0.274    0.109
  471.000  201.552   98.946   10.768    0.255    0.113
  471.250  202.458  101.298   10.468    0.246    0.118
  471.500  202.902  105.746    9.901    0.248    0.114
  471.750  202.902  109.895    9.367    0.300    0.108
  472.000  203.226  110.749    8.700    0.341    0.138
  472.250  203.679   96.617    8.615    0.310    0.160
  472.500  202.598   85.192    8.928    0.284    0.126
  472.750  202.016   80.350    9.338    0.264    0.106
  473.000  201.433   95.585    9.678    0.267    0.121
  473.250  201.360   87.754    9.669    0.282    0.128
  473.500  200.787   85.308    9.568    0.282    0.118
  473.750  199.714   86.761    9.393    0.273    0.119
  474.000  198.143   91.210    9.300    0.284    0.127
  474.250  197.570   76.784    9.379    0.283    0.113
  474.500  196.997   84.521    9.633    0.289    0.033
  474.750  195.925  103.063    9.625    0.298    0.101
  475.000  195.352   91.033   10.440    0.307    0.137
  475.250  194.280   71.504   12.076    0.308    0.164
  475.500  194.197   59.480   14.888    0.267    0.179
  475.750  193.633   43.856   17.218    0.250    0.229
  476.000  191.563   37.522   21.034    0.280    0.257
  476.250  194.475   24.289   23.450    0.302    0.293
  476.500  193.902   28.438   25.442    0.339    0.280
  476.750  185.832   23.002   26.369    0.346    0.277
  477.000  187.755   22.353   27.580    0.326    0.277
  477.250  188.180   25.304   28.846    0.328    0.279
  477.500  185.620   22.869   31.009    0.334    0.282
  477.750  182.033   21.316   32.731    0.337    0.281
  478.000  183.466   19.780   35.827    0.324    0.277
  478.250  185.389   18.233   37.824    0.323    0.277
  478.500  186.304   18.194   40.286    0.308    0.277
  478.750  187.238   20.546   42.519    0.293    0.276
  479.000  188.144   20.191   44.476    0.282    0.279
  479.250  189.078   19.853   46.100    0.286    0.280
  479.500  190.492   22.809   46.913    0.295    0.280
  479.750  190.419   23.059   47.307    0.296    0.281
  480.000  189.346   20.912   47.243    0.293    0.276
  480.250  190.271   17.879   47.229    0.309    0.275
  480.500  191.704   25.017   47.183    0.328    0.279
  480.750  192.610   23.780   47.156    0.306    0.280
  481.000  191.547   24.329   47.114    0.323    0.279
  481.250  190.965   25.788   47.083    0.344    0.279
  481.500  190.900   25.727   47.037    0.332    0.274
  481.750  190.327   27.480   47.009    0.308    0.270
  482.000  190.253   25.639   46.546    0.289    0.269
  482.250  190.170   24.097   46.073    0.294    0.274
  482.500  190.170   24.064   46.073    0.317    0.274
  482.750  189.478   23.409   45.997    0.332    0.271
  483.000  189.940   24.563   45.142    0.307    0.271
  483.250  191.373   23.920   44.697    0.289    0.269
  483.500  190.791   23.881   44.256    0.288    0.261
  483.750  189.718   24.730   42.627    0.292    0.270
  484.000  189.155   24.386   40.696    0.297    0.285
  484.250  189.072   24.347   38.845    0.300    0.284
  484.500  189.488   24.303   36.414    0.305    0.279
  484.750  190.412   24.846   33.510    0.313    0.278
  485.000  190.847   24.808   31.128    0.318    0.274
  485.250  191.753   25.362   28.388    0.313    0.270
  485.500  192.188   32.800   24.729    0.311    0.270
  485.750  191.624   32.462   22.144    0.304    0.266
  486.000  188.546   27.320   20.382    0.321    0.260
  486.250  185.468   31.175   18.759    0.355    0.257
  486.500  185.884   32.628   17.583    0.330    0.260
  486.750  189.304   33.782   16.479    0.331    0.268
  487.000  191.717   31.331   15.447    0.316    0.258
  487.250  191.671   30.094   15.017    0.305    0.260
  487.500  191.671   32.729   14.732    0.312    0.257
  487.750  191.505   32.995   14.456    0.305    0.252
  488.000  192.439   33.855   14.053    0.302    0.257
  488.250  192.439   31.109   13.538    0.314    0.262
  488.500  192.781   28.070   12.924    0.308    0.265
  488.750  193.206   28.325   12.678    0.289    0.262
  489.000  194.630   29.174   12.670    0.323    0.260
  489.250  195.545   29.729   12.660    0.313    0.257
  489.500  195.481   32.386   13.000    0.287    0.245
  489.750  195.398   31.737   13.847    0.276    0.236
  490.000  195.268   31.687   14.617    0.306    0.227
  490.250  195.749   36.146   15.151    0.279    0.196
  490.500  197.182   40.289   15.139    0.244    0.155
  490.750  198.107   43.234   14.715    0.262    0.143
  491.000  198.532   46.196   13.669    0.288    0.210
  491.250  196.452   53.041   12.466    0.310    0.221
  491.500  191.877   52.098   10.961    0.308    0.230
  491.750  189.816   49.957    9.550    0.316    0.235
  492.000  193.735   53.207    8.319    0.323    0.237
  492.250  198.145   56.746    7.587    0.318    0.223
  492.500  198.080   61.205    7.046    0.281    0.200
  492.750  195.510   63.856    6.605    0.278    0.182
  493.000  194.420   73.396    6.024    0.315    0.201
  493.250  198.339   82.043    5.750    0.357    0.204
  493.500  202.268  110.457    5.693    0.403    0.190
  493.750  205.688  114.001    6.008    0.431    0.178
  494.000  205.615  117.856    6.950    0.390    0.161
  494.250  205.541  110.024    8.489    0.341    0.145
  494.500  204.968   94.096    9.295    0.301    0.127
  494.750  205.393   80.269   10.652    0.257    0.001
  495.000  203.794   60.152   12.096    0.238    0.113
  495.250  201.742   49.315   13.002    0.278    0.176
  495.500  199.672   51.373   13.600    0.294    0.191
  495.750  198.600   49.531   14.484    0.261    0.205
  496.000  198.526   42.892   15.291    0.286    0.227
  496.250  198.942   33.863   16.140    0.312    0.217
  496.500  200.366   33.813   17.193    0.296    0.192
  496.750  201.290   40.957   17.022    0.242    0.105
  497.000  200.708   49.304   15.811    0.173    0.164
  497.250  200.135   65.733   13.526    0.261    0.183
  497.500  200.061   74.080   11.361    0.332    0.191
  497.750  200.496   75.234    8.710    0.339    0.194
  498.000  200.912   84.180    7.119    0.314    0.190
  498.250  200.829   79.338    5.457    0.301    0.192
  498.500  200.764   76.892    5.023    0.327    0.181
  498.750  200.182   85.839    4.927    0.371    0.163
  499.000  198.102   95.678    5.014    0.413    0.183
  499.250  196.531  109.422    5.341    0.421    0.179
  499.500  195.450   86.604    5.742    0.446    0.134
  499.750  195.394   83.554    6.286    0.390    0.051
  500.000  196.799   90.409    6.516    0.244    0.143
  500.250  198.741  105.345    6.510    0.303    0.167
  500.500  198.741  103.499    6.624    0.352    0.167
  500.750  200.081  101.646    6.929    0.386    0.163
  501.000  203.493  100.415    7.448    0.378    0.103
  501.250  202.420   85.385    7.579    0.351    0.061
  501.500  201.857   80.848    7.505    0.316    0.088
  501.750  201.275   83.793    7.164    0.241    0.095
  502.000  201.691   66.677    7.029    0.288    0.059
  502.250  202.634   59.145    7.153    0.258    0.048
  502.500  201.552   75.574    7.481    0.238    0.092
  502.750  199.963   83.915    7.754    0.310    0.124
  503.000  199.963   78.780    7.964    0.285    0.139
  503.250  199.334   75.141    7.955    0.255    0.166
  503.500  199.242   76.888    7.950    0.317    0.199
  503.750  199.187   81.941    7.659    0.359    0.194
