~VERSION INFORMATION
 VERS.                 2.0:   CWLS LOG ASCII STANDARD -VERSION 2.0
 WRAP.                  NO:   ONE LINE PER DEPTH STEP
~WELL INFORMATION BLOCK
#MNEM.UNIT           DATA                    DESCRIPTION OF MNEMONIC
#---------    -------------------            -------------------------------
# Generated from Intellog Unique Number	CC_80_83/WELL/2413
NULL.         -999.25                        : NULL_VALUE
WELL.         UNIX ET AL DROPOFF             : Well_name    - WELL
LOC .         11-28-080-17W4                 : Location     - LOCATION          
UWI .         00/11-28-080-17W4/0            : Uwi          - UNIQUE WELL ID    
ENTR.         DW                             : Entered      - ENTERED BY        
SRVC.         SCHLUMBERGER                   : Scn          - SERVICE COMPANY   
DATE.         04 MAR 77                      : Date         - LOG DATE
STRT.M        137.16                         : top_depth    - START DEPTH       
STOP.M        320.04                         : bot_depth    - STOP DEPTH        
STEP.M        0.305                          : increment    - STEP LENGTH       
~CURVE INFORMATION BLOCK
#MNEM UNIT       ERCB CURVE CODE    CURVE DESCRIPTION
#-----------   ------------------   ----------------------------------
DEPT.M        00 001 00 00         : DEPTH        - DEPTH                       
DPHI.V/V      00 890 00 00         : PHID         - DENSITY POROSITY (LIMESTONE)
NPHI.V/V      00 330 00 00         : PHIN         - NEUTRON POROSITY (LIMESTONE)
GR  .API      00 310 00 00         : GR           - GAMMA RAY                   
ILD .OHMM     00 120 00 00         : RESD         - DEEP RESISTIVITY (DIL)      
~PARAMETER INFORMATION       
#MNEM.UNIT           DATA             DESCRIPTION OF MNEMONIC
#---------         -----------     ------------------------------
GL  .M        541.965              : gl           - GROUND LEVEL ELEVATION      
EREF.M        545.318              : kb           - ELEVATION OF DEPTH REFERENCE
DATM.M        545.318              : datum        - DATUM ELEVATION             
TDD .M        323.393              : tdd          - TOTAL DEPTH DRILLER         
RUN .         ONE                  : Run          - RUN NUMBER                  
ENG .         BILL                 : Engineer     - RECORDING ENGINEER          
WIT .         JIM                  : Witness      - WITNESSED BY                
MUD .         GEL                  : Mud_type     - MUD TYPE                    
MATR.         LIMESTONE            : Logunit      - NEUTRON MATRIX              
TMAX.C        19.4444              : BHT          - MAXIMUM RECORDED TEMPERATURE
BHTD.M        323.393              : BHTDEP       - MAXIMUM RECORDED TEMPERATURE
MATR.         1                    : LOGUNIT      - NEUTRON MATRIX              
RMT .C        25                   : MDTP         - TEMPERATURE OF MUD          
NEUT.         1                    : NEUTRON      - NEUTRON TYPE                
RESI.         0                    : RESIST       - RESISTIVITY TYPE            
RMC .OHMM     0.25                 : RMC          - RESISTIVITY OF MUD CAKE     
RMF .OHMM     0.25                 : RMF          - RESISTIVITY OF MUD FILTRATE 
SUFT.C        15                   : SUFT         - SURFACE TEMPERATURE         
~A  DEPTH     PHID     PHIN       GR     RESD
  137.160    0.283    0.578   97.151    2.846
  137.465    0.316    0.583   96.554    2.901
  137.770    0.306    0.506   91.708    3.247
  138.074    0.315    0.460   83.218    5.182
  138.379    0.284    0.438   75.944    7.967
  138.684    0.278    0.449   68.668   13.448
  138.989    0.311    0.402   54.715   15.336
  139.294    0.334    0.351   52.296   16.229
  139.598    0.354    0.347   56.559   15.353
  139.903    0.315    0.384   58.997   13.733
  140.208    0.318    0.408   59.620   12.754
  140.513    0.317    0.433   60.237   12.065
  140.818    0.297    0.451   62.067   10.397
  141.122    0.336    0.467   68.759    9.128
  141.427    0.322    0.475   74.840    8.166
  141.732    0.256    0.483   79.708    7.441
  142.037    0.208    0.451   70.611    6.413
  142.342    0.197    0.446   77.909    6.067
  142.646    0.244    0.452   86.422    5.959
  142.951    0.288    0.473   93.113    5.532
  143.256    0.278    0.485   99.800    4.508
  143.561    0.248    0.490  109.527    3.958
  143.865    0.234    0.513  113.789    3.607
  144.170    0.233    0.552  115.621    3.477
  144.475    0.296    0.520  113.812    3.415
  144.780    0.269    0.502  106.536    3.417
  145.085    0.284    0.501  101.692    3.549
  145.389    0.296    0.529   96.844    3.826
  145.694    0.271    0.530   87.746    4.203
  145.999    0.270    0.486   76.222    6.708
  146.304    0.299    0.371   71.983   10.122
  146.609    0.330    0.358   68.352   12.671
  146.913    0.315    0.394   64.115   13.412
  147.218    0.290    0.416   61.089   14.194
  147.523    0.284    0.424   58.669   15.303
  147.828    0.308    0.440   53.825   16.496
  148.133    0.310    0.414   50.191   18.123
  148.437    0.332    0.407   51.416   18.826
  148.742    0.330    0.407   56.893   18.837
  149.047    0.311    0.408   67.225   18.155
  149.352    0.283    0.417   71.487   16.549
  149.657    0.254    0.422   69.069   15.951
  149.961    0.254    0.432   61.189   15.959
  150.266    0.267    0.419   59.983   16.578
  150.571    0.266    0.414   66.069   16.897
  150.876    0.302    0.439   72.151   16.289
  151.181    0.294    0.444   75.201   15.698
  151.485    0.262    0.422   75.208   14.580
  151.790    0.245    0.414   71.577   15.431
  152.095    0.308    0.431   70.980   15.729
  152.400    0.322    0.433   77.670   15.159
  152.705    0.298    0.443   93.467   13.310
  153.009    0.266    0.421  100.767   11.905
  153.314    0.231    0.382  102.600    9.520
  153.619    0.249    0.407  100.183    7.613
  153.924    0.235    0.443   98.371    6.940
  154.228    0.235    0.470  103.240    7.208
  154.533    0.248    0.500  103.251    8.693
  154.838    0.265    0.449   99.011   11.727
  155.143    0.272    0.416   93.562   14.142
  155.448    0.296    0.411   93.572   15.830
  155.752    0.287    0.402   93.581   16.137
  156.057    0.255    0.415   98.451   15.270
  156.362    0.260    0.401   93.603   14.719
  156.667    0.276    0.418   85.720   14.724
  156.972    0.295    0.433   85.734   15.011
  157.276    0.301    0.442   83.314   16.492
  157.581    0.282    0.419   76.645   17.448
  157.886    0.272    0.361   62.691   19.536
  158.191    0.294    0.340   49.345   20.289
  158.496    0.322    0.361   46.322   20.681
  158.800    0.269    0.396   54.833   19.204
  159.105    0.280    0.370   71.238   15.646
  159.410    0.286    0.344   95.535   11.398
  159.715    0.244    0.368   99.796   10.005
  160.020    0.208    0.394  101.021    8.951
  160.324    0.186    0.408   97.393    9.474
  160.629    0.174    0.420   94.973    9.839
  160.934    0.218    0.425   92.555   10.411
  161.239    0.220    0.407  109.567   10.036
  161.544    0.223    0.401  124.758    8.488
  161.848    0.232    0.441  117.483    5.956
  162.153    0.198    0.497  112.030    4.945
  162.458    0.223    0.520  120.545    4.423
  162.763    0.199    0.544  124.197    4.108
  163.068    0.226    0.532  125.422    4.109
  163.372    0.185    0.520  118.753    4.269
  163.677    0.168    0.514  107.228    4.272
  163.982    0.146    0.539  100.560    4.194
  164.287    0.197    0.543  124.252    3.753
  164.591    0.209    0.499  127.300    3.754
  164.896    0.227    0.487  118.809    4.047
  165.201    0.237    0.458  108.499    4.881
  165.506    0.221    0.427  109.726    6.585
  165.811    0.232    0.411  114.596    8.557
  166.115    0.233    0.404  117.031    9.226
  166.420    0.233    0.411  119.473    8.412
  166.725    0.230    0.422  115.232    8.107
  167.030    0.219    0.425  107.352    7.961
  167.335    0.239    0.439   99.471    8.745
  167.639    0.245    0.448   97.659   10.161
  167.944    0.280    0.415  100.099   12.028
  168.249    0.290    0.409  101.930   13.462
  168.554    0.287    0.415  103.763   13.470
  168.859    0.297    0.456   95.881   12.985
  169.163    0.284    0.455   88.606   12.751
  169.468    0.306    0.437   82.545   13.246
  169.773    0.317    0.427   74.058   14.016
  170.078    0.314    0.451   66.784   15.690
  170.383    0.320    0.466   63.756   16.915
  170.687    0.322    0.450   61.947   17.241
  170.992    0.329    0.445   69.243   17.252
  171.297    0.339    0.444   80.793   16.632
  171.602    0.346    0.419   78.980   16.028
  171.907    0.310    0.424   65.029   15.168
  172.211    0.310    0.438   62.615   15.173
  172.516    0.319    0.445   62.013   15.472
  172.821    0.322    0.458   60.811   15.770
  173.126    0.324    0.443   62.645   16.377
  173.431    0.321    0.436   62.046   17.009
  173.735    0.319    0.411   61.451   17.024
  174.040    0.306    0.406   66.927   17.030
  174.345    0.305    0.411   71.187   16.116
  174.650    0.323    0.456   71.808   15.825
  174.954    0.328    0.458   68.784   15.254
  175.259    0.336    0.430   65.758   15.260
  175.564    0.329    0.413   63.340   15.271
  175.869    0.316    0.424   63.349   16.159
  176.174    0.261    0.430   59.113   17.752
  176.478    0.195    0.402   55.479   20.623
  176.783    0.120    0.202   54.275   28.345
  177.088    0.039    0.126   56.108   47.846
  177.393    0.031    0.126   58.548   58.794
  177.698    0.035    0.190   57.957   59.941
  178.002    0.091    0.247   61.607   47.929
  178.307    0.150    0.296   68.298   28.430
  178.612    0.256    0.364   70.737   18.514
  178.917    0.319    0.452   81.678   12.750
  179.222    0.282    0.466   93.833    7.850
  179.526    0.254    0.490   95.057    5.113
  179.831    0.290    0.511   85.963    4.245
  180.136    0.275    0.516   77.475    4.247
  180.441    0.264    0.480   72.627    4.754
  180.746    0.251    0.424   68.994    5.627
  181.050    0.253    0.411   71.435    6.181
  181.355    0.240    0.443   78.733    7.048
  181.660    0.272    0.453   84.814    7.742
  181.965    0.280    0.449   88.467    8.347
  182.270    0.298    0.448   90.910    8.510
  182.574    0.309    0.427   87.884   10.075
  182.879    0.299    0.423   83.038   10.660
  183.184    0.310    0.406   86.694   11.495
  183.489    0.309    0.400   90.350   11.717
  183.794    0.294    0.404   92.177   11.294
  184.098    0.289    0.410   95.226    9.552
  184.403    0.278    0.412   94.023    7.784
  184.708    0.251    0.416   86.139    7.503
  185.013    0.247    0.455   73.400    8.089
  185.318    0.273    0.483   64.911    9.224
  185.622    0.325    0.487   59.457   14.182
  185.927    0.401    0.463   63.718   16.479
  186.232    0.418    0.551   64.337   16.486
  186.537    0.393    0.413   57.676   16.498
  186.841    0.301    0.418   56.468   15.899
  187.146    0.320    0.427   57.692   14.490
  187.451    0.332    0.441   61.346   14.505
  187.756    0.335    0.463   65.000   14.239
  188.061    0.345    0.430   66.832   14.247
  188.365    0.344    0.444   65.629   14.257
  188.670    0.351    0.446   61.999   14.533
  188.975    0.345    0.436   58.972   14.816
  189.280    0.333    0.444   54.129   15.104
  189.585    0.332    0.447   54.140   15.117
  189.889    0.330    0.417   56.580   14.843
