~VERSION INFORMATION
 VERS.                 2.0:   CWLS LOG ASCII STANDARD -VERSION 2.0
 WRAP.                  NO:   ONE LINE PER DEPTH STEP
~WELL INFORMATION BLOCK
#MNEM.UNIT           DATA                    DESCRIPTION OF MNEMONIC
#---------    -------------------            -------------------------------
# Generated from Intellog Unique Number	CC_80_83/WELL/2413
NULL.         -999.25                        : NULL_VALUE
WELL.         UNIX ET AL DROPOFF             : Well_name    - WELL
LOC .         11-28-080-17W4                 : Location     - LOCATION          
UWI .         00/11-28-080-17W4/0            : Uwi          - UNIQUE WELL ID    
ENTR.         DW                             : Entered      - ENTERED BY        
SRVC.         SCHLUMBERGER                   : Scn          - SERVICE COMPANY   
DATE.         04 MAR 77                      : Date         - LOG DATE
STRT.M        137.16                         : top_depth    - START DEPTH       
STOP.M        320.04                         : bot_depth    - STOP DEPTH        
STEP.M        0.305                          : increment    - STEP LENGTH       
~CURVE INFORMATION BLOCK
#MNEM UNIT       ERCB CURVE CODE    CURVE DESCRIPTION
#-----------   ------------------   ----------------------------------
DEPT.M        00 001 00 00         : DEPTH        - DEPTH                       
DPHI.V/V      00 890 00 00         : PHID         - DENSITY POROSITY (LIMESTONE)
NPHI.V/V      00 330 00 00         : PHIN         - NEUTRON POROSITY (LIMESTONE)
GR  .API      00 310 00 00         : GR           - GAMMA RAY                   
ILD .OHMM     00 120 00 00         : RESD         - DEEP RESISTIVITY (DIL)      
~PARAMETER INFORMATION       
#MNEM.UNIT           DATA             DESCRIPTION OF MNEMONIC
#---------         -----------     ------------------------------
GL  .M        541.965              : gl           - GROUND LEVEL ELEVATION      
EREF.M        545.318              : kb           - ELEVATION OF DEPTH REFERENCE
DATM.M        545.318              : datum        - DATUM ELEVATION             
TDD .M        323.393              : tdd          - TOTAL DEPTH DRILLER         
RUN .         ONE                  : Run          - RUN NUMBER                  
ENG .         BILL                 : Engineer     - RECORDING ENGINEER          
WIT .         JIM                  : Witness      - WITNESSED BY                
MUD .         GEL                  : Mud_type     - MUD TYPE                    
MATR.         LIMESTONE            : Logunit      - NEUTRON MATRIX              
TMAX.C        19.4444              : BHT          - MAXIMUM RECORDED TEMPERATURE
BHTD.M        323.393              : BHTDEP       - MAXIMUM RECORDED TEMPERATURE
MATR.         1                    : LOGUNIT      - NEUTRON MATRIX              
RMT .C        25                   : MDTP         - TEMPERATURE OF MUD          
NEUT.         1                    : NEUTRON      - NEUTRON TYPE                
RESI.         0                    : RESIST       - RESISTIVITY TYPE            
RMC .OHMM     0.25                 : RMC          - RESISTIVITY OF MUD CAKE     
RMF .OHMM     0.25                 : RMF          - RESISTIVITY OF MUD FILTRATE 
SUFT.C        15                   : SUFT         - SURFACE TEMPERATURE         
~A  DEPTH     PHID     PHIN       GR     RESD
# ...
  190.194    0.333    0.417   60.840   14.851
  190.499    0.339    0.439   62.671   14.316
  190.804    0.345    0.453   57.828   14.323
  191.109    0.344    0.436   55.407   14.337
  191.413    0.338    0.427   54.812   14.343
  191.718    0.330    0.423   56.645   14.894
  192.023    0.340    0.417   62.120   15.190
  192.328    0.320    0.414   65.775   15.198
  192.633    0.311    0.413   62.144   15.206
  192.937    0.323    0.417   60.940   14.931
  193.242    0.320    0.430   63.988   14.665
  193.547    0.320    0.442   61.568   14.672
  193.852    0.325    0.446   56.120   14.682
  194.157    0.339    0.448   55.520   14.148
  194.461    0.341    0.441   54.317   13.895
  194.766    0.329    0.437   55.542   14.169
  195.071    0.334    0.448   56.771   14.992
  195.376    0.320    0.462   54.355   15.288
  195.681    0.313    0.415   52.542   15.294
  195.985    0.314    0.393   52.553   15.300
  196.290    0.340    0.415   54.990   14.478
  196.595    0.351    0.441   58.647   14.216
  196.900    0.336    0.437   58.051   13.707
  197.204    0.342    0.414   58.669   13.460
  197.509    0.348    0.414   59.895   12.972
  197.814    0.349    0.425   59.903   12.739
  198.119    0.358    0.439   61.132   12.746
  198.424    0.365    0.441   61.749   13.245
  198.728    0.354    0.430   61.152   13.500
  199.033    0.326    0.434   58.127   13.506
  199.338    0.345    0.470   56.926   13.265
  199.643    0.347    0.489   56.934   13.025
  199.948    0.359    0.450   56.945   13.034
  200.252    0.353    0.448   55.135   12.799
  200.557    0.350    0.454   54.543   13.296
  200.862    0.354    0.443   53.340   13.554
  201.167    0.354    0.443   52.135   13.562
  201.472    0.340    0.451   50.930   13.823
  201.776    0.339    0.435   49.728   13.579
  202.081    0.354    0.429   48.524   13.332
  202.386    0.360    0.418   47.320   13.096
  202.691    0.363    0.420   47.334   12.861
  202.996    0.368    0.476   48.557   12.868
  203.300    0.368    0.465   51.608   12.875
  203.605    0.361    0.451   52.224   13.126
  203.910    0.346    0.451   52.233   13.636
  204.215    0.359    0.483   53.459   14.160
  204.520    0.332    0.449   55.899   14.436
  204.824    0.285    0.463   58.341   13.917
  205.129    0.244    0.458   57.136   13.664
  205.434    0.323    0.449   52.897   12.932
  205.739    0.354    0.436   51.693   12.939
  206.044    0.349    0.425   49.885   12.945
  206.348    0.349    0.421   49.893   12.952
  206.653    0.334    0.416   54.762   13.202
  206.958    0.338    0.449   52.952   13.214
  207.263    0.344    0.475   54.785   13.219
  207.567    0.347    0.458   53.582   13.473
  207.872    0.340    0.448   54.806   15.082
  208.177    0.335    0.428   55.427   17.197
  208.482    0.281    0.435   54.221   19.978
  208.787    0.237    0.267   53.627   27.979
  209.091    0.034    0.167   54.244   35.027
  209.396    0.012    0.156   52.436   41.466
  209.701    0.028    0.148   53.660   39.972
  210.006    0.022    0.139   51.243   39.252
  210.311    0.009    0.118   45.792   40.016
  210.615    0.000    0.113   43.371   43.954
  210.920    0.000    0.119   40.956   60.414
  211.225    0.000    0.126   40.356   81.499
  211.530    0.012    0.140   40.975  127.663
  211.835    0.023    0.156   44.023  142.895
  212.139    0.031    0.153   49.501  127.814
  212.444    0.052    0.154   53.763   83.229
  212.749    0.159    0.196   58.021   39.457
  213.054    0.197    0.346   63.500   21.719
  213.359    0.283    0.429   62.296   15.824
  213.663    0.333    0.425   59.879   14.967
  213.968    0.337    0.414   62.317   14.162
  214.273    0.324    0.450   62.936   13.910
  214.578    0.293    0.466   62.338   13.915
  214.883    0.310    0.447   66.601   14.189
  215.187    0.296    0.428   72.682   14.194
  215.492    0.293    0.421   73.909   14.472
  215.797    0.304    0.445   66.634   14.210
  216.102    0.310    0.456   64.824   13.703
  216.407    0.310    0.439   67.871   13.708
  216.711    0.309    0.425   67.274   13.459
  217.016    0.312    0.434   67.284   13.725
  217.321    0.315    0.445   71.549   13.989
  217.626    0.323    0.422   72.772   14.002
  217.930    0.310    0.414   66.711   14.008
  218.235    0.311    0.417   68.546   13.504
  218.540    0.304    0.438   69.165   13.508
  218.845    0.310    0.477   67.959   13.772
  219.150    0.321    0.498   68.581   13.778
  219.454    0.316    0.474   71.019   13.537
  219.759    0.309    0.473   74.065   13.044
  220.064    0.302    0.455   78.327   11.887
  220.369    0.288    0.454   90.481    9.687
  220.674    0.265    0.439   92.921    8.828
  220.978    0.269    0.433   85.645    8.836
  221.283    0.267    0.450   77.763    9.005
  221.588    0.255    0.450   78.991    9.353
  221.893    0.237    0.462   88.108    9.184
  222.198    0.246    0.438   93.584    8.529
  222.502    0.275    0.450   95.419    7.774
  222.807    0.274    0.473   93.605    7.492
  223.112    0.266    0.486   88.153    7.639
  223.417    0.261    0.480   77.841    8.391
  223.722    0.253    0.453   77.852    9.217
  224.026    0.252    0.428   76.652    9.576
  224.331    0.283    0.434   79.090    9.402
  224.636    0.266    0.447   79.708    9.065
  224.941    0.261    0.456   77.901    9.068
  225.246    0.279    0.436   79.730    8.906
  225.550    0.283    0.430   87.027    8.911
  225.855    0.251    0.436   88.860    9.084
  226.160    0.213    0.442   84.620    9.435
  226.465    0.252    0.435   80.989    9.800
  226.770    0.267    0.434   79.788    9.627
  227.074    0.262    0.436   82.834    9.452
  227.379    0.276    0.454   86.487    8.614
  227.684    0.278    0.468   87.106    6.889
  227.989    0.275    0.447   93.191    5.937
  228.294    0.249    0.431   94.416    5.310
  228.598    0.242    0.458   92.605    4.841
  228.903    0.252    0.493   91.400    4.666
  229.208    0.249    0.514   92.019    4.582
  229.513    0.277    0.522   96.279    4.584
  229.817    0.281    0.526  102.364    4.761
  230.122    0.281    0.524  101.162    5.038
  230.427    0.287    0.531   96.920    6.308
  230.732    0.292    0.544   89.039    7.060
  231.037    0.287    0.532   90.873    7.613
  231.341    0.233    0.492   94.526    7.204
  231.646    0.232    0.464   94.538    7.073
  231.951    0.219    0.458   96.976    6.447
  232.256    0.230    0.465  101.239    6.330
  232.561    0.234    0.473  103.073    6.219
  232.865    0.252    0.478  102.476    6.339
  233.170    0.237    0.470  101.271    6.341
  233.475    0.233    0.472   98.853    6.711
  233.780    0.260    0.477   89.759    7.372
  234.085    0.264    0.466   88.554    8.099
  234.389    0.270    0.450   89.172    8.732
  234.694    0.256    0.456   87.969    8.901
  234.999    0.233    0.477   85.553    8.906
  235.304    0.207    0.478   88.598    8.426
  235.609    0.186    0.439   95.288    7.825
  235.913    0.182    0.441  103.800    7.542
  236.218    0.245    0.429  106.850    7.138
  236.523    0.240    0.455  103.217    7.009
  236.828    0.241    0.465   98.979    6.882
  237.133    0.268    0.489   99.596    6.886
  237.437    0.269    0.486  100.820    6.762
  237.742    0.257    0.491   98.402    7.026
  238.047    0.254    0.475   93.558    7.296
  238.352    0.255    0.460   87.496    7.720
  238.657    0.255    0.456   82.651    8.324
  238.961    0.244    0.450   86.911    8.177
  239.266    0.230    0.441   92.998    8.181
  239.571    0.284    0.422   94.828    8.339
  239.876    0.249    0.422   89.983    9.163
  240.180    0.278    0.474   94.848    9.339
  240.485    0.270    0.439  101.540    9.700
  240.790    0.247    0.440  100.337    9.706
  241.095    0.250    0.465   98.528    9.182
  241.400    0.225    0.474   97.322    8.526
  241.704    0.191    0.487  102.191    7.628
  242.009    0.156    0.495  103.418    7.351
  242.314    0.217    0.492  107.679    7.089
  242.619    0.217    0.478  106.476    7.092
  242.924    0.220    0.449  101.024    7.366
