~VERSION INFORMATION
 VERS.                 2.0:   CWLS LOG ASCII STANDARD -VERSION 2.0
 WRAP.                  NO:   ONE LINE PER DEPTH STEP
~WELL INFORMATION BLOCK
#MNEM.UNIT           DATA                    DESCRIPTION OF MNEMONIC
#---------    -------------------            -------------------------------
# Generated from Intellog Unique Number	CW_73_75/WELL/1039
WELL.         AMOCO 63 MARTEN HILLS 11-15    : Well_name    - WELL
LOC .         00/11-15-075-25W4/0            : Location     - LOCATION
UWI .         00/11-15-075-25W4/0            : Uwi          - UNIQUE WELL ID
ENTR.         JAYE                           : Entered      - ENTERED BY
SRVC.         SCHLUMBERGER                   : Scn          - SERVICE COMPANY
DATE.         6 MAR 75                       : Date         - LOG DATE
STRT.M        423.672                        : top_depth    - START DEPTH
STOP.M        632.672                        : bot_depth    - STOP DEPTH
STEP.M        0.25                           : increment    - STEP LENGTH
 NULL. -999.2500:NULL Value
~CURVE INFORMATION BLOCK
#MNEM UNIT       ERCB CURVE CODE    CURVE DESCRIPTION
#-----------   ------------------   ----------------------------------
DEPT.M        00 001 00 00         : DEPTH        - DEPTH
ILD .OHMM     00 120 00 00         : RESD         - DEEP RESISTIVITY (DIL)
NPHI.V/V      00 330 00 00         : PHIN         - NEUTRON POROSITY (SANDSTONE)
DPHI.V/V      00 890 00 00         : PHID         - DENSITY POROSITY (SANDSTONE)
GR  .API      00 310 00 00         : GR           - GAMMA RAY
CALI.MM       00 280 01 00         : CAL          - CALIPER
~PARAMETER INFORMATION
#MNEM.UNIT           DATA             DESCRIPTION OF MNEMONIC
#---------         -----------     ------------------------------
GL  .M        700.126              : gl           - GROUND LEVEL ELEVATION
EREF.M        704.088              : kb           - ELEVATION OF DEPTH REFERENCE
DATM.M        700.126              : datum        - DATUM ELEVATION
TDD .M        632.46               : tdd          - TOTAL DEPTH DRILLER
RUN .         ONE                  : Run          - RUN NUMBER
ENG .         SIMPSON              : Engineer     - RECORDING ENGINEER
WIT .         CAMPBELL             : Witness      - WITNESSED BY
BASE.         EDM                  : Branch       - HOME BASE OF LOGGING UNIT
MUD .         GEL                  : Mud_type     - MUD TYPE
MATR.         SANDSTONE            : Logunit      - NEUTRON MATRIX
TMAX.C        28.3333              : BHT          - MAXIMUM RECORDED TEMPERATURE
BHTD.M        633.679              : BHTDEP       - MAXIMUM RECORDED TEMPERATURE
RMT .C        16.1111              : MDTP         - TEMPERATURE OF MUD
MUDD.KG/M     1068                 : MWT          - MUD DENSITY
NEUT.         1                    : NEUTRON      - NEUTRON TYPE
RESI.         0                    : RESIST       - RESISTIVITY TYPE
RM  .OHMM     5.2                  : RM           - RESISTIVITY OF MUD
RMC .OHMM     0                    : RMC          - RESISTIVITY OF MUD CAKE
RMF .OHMM     6.39                 : RMF          - RESISTIVITY OF MUD FILTRATE
SUFT.C        -17.7778             : SUFT         - SURFACE TEMPERATURE
~A  DEPTH     RESD     PHIN     PHID       GR      CAL
  423.672    2.457    0.538    0.214   96.543  252.620
  423.922    2.455    0.525    0.217   93.753  252.756
  424.172    2.453    0.535    0.211   91.330  253.309
  424.422    2.472    0.544    0.197   92.208  254.070
  424.672    2.470    0.548    0.202   93.335  254.413
  424.922    2.445    0.572    0.214   94.207  254.351
  425.172    2.421    0.597    0.225   91.845  254.795
  425.422    2.419    0.588    0.234   90.889  255.243
  425.672    2.417    0.586    0.242   93.233  255.383
  425.922    2.436    0.575    0.239   92.947  254.384
  426.172    2.500    0.564    0.215   92.054  252.973
  426.422    2.520    0.562    0.199   94.639  251.769
  426.672    2.539    0.570    0.224   94.784  251.806
  426.922    2.537    0.586    0.252   93.523  251.014
  427.172    2.535    0.578    0.268   95.867  242.982
  427.422    2.510    0.586    0.268   97.169  239.806
  427.672    2.420    0.590    0.255   92.731  237.256
  427.922    2.375    0.596    0.239   88.902  235.636
  428.172    2.394    0.609    0.226   85.501  233.501
  428.422    2.434    0.610    0.233   83.936  239.750
  428.672    2.454    0.594    0.234   82.551  249.093
  428.922    2.451    0.583    0.264   81.045  255.029
  429.172    2.471    0.582    0.283   83.999  249.167
  429.422    2.513    0.588    0.303   81.087  240.305
  429.672    2.601    0.589    0.328   77.018  243.651
  429.922    2.717    0.570    0.312   75.876  246.275
  430.172    2.915    0.549    0.322   75.896  247.241
  430.422    2.938    0.535    0.313   77.876  247.798
  430.672    2.782    0.591    0.286   79.241  246.074
  430.922    2.588    0.636    0.289   80.546  244.142
  431.172    2.474    0.651    0.297   80.993  253.700
  431.422    2.221    0.647    0.288   78.511  258.703
  431.672    2.104    0.628    0.307   74.927  258.219
  431.922    2.083    0.593    0.320   71.464  256.911
  432.172    2.214    0.557    0.314   67.575  251.775
  432.422    2.484    0.491    0.349   63.015  243.739
  432.672    3.073    0.473    0.333   58.207  236.637
  432.922    6.840    0.468    0.307   54.014  230.775
  433.172    9.333    0.462    0.306   51.775  227.396
  433.422   12.961    0.452    0.323   50.207  225.573
  433.672   15.064    0.412    0.276   49.130  225.192
  433.922   14.917    0.366    0.121   49.702  225.644
  434.172   11.511    0.327    0.097   51.739  228.062
  434.422    9.124    0.430    0.148   54.263  229.233
  434.672    7.427    0.485    0.245   57.707  228.029
  434.922    6.435    0.497    0.298   59.136  228.583
  435.172    5.726    0.500    0.283   60.807  230.688
  435.422    5.187    0.496    0.276   62.047  233.000
  435.672    4.868    0.494    0.269   63.231  234.897
  435.922    4.778    0.506    0.261   63.253  234.834
  436.172    4.774    0.520    0.245   60.341  233.108
  436.422    4.942    0.513    0.289   59.018  230.560
  436.672    5.116    0.505    0.282   59.042  228.938
  436.922    5.343    0.510    0.256   58.817  227.939
  437.172    5.532    0.505    0.238   58.597  227.153
  437.422    5.677    0.489    0.285   58.311  226.258
  437.672    5.824    0.484    0.308   57.967  225.779
  437.922    5.872    0.498    0.309   57.988  225.295
  438.172    5.917    0.492    0.300   57.949  224.713
  438.422    5.912    0.492    0.290   57.908  224.535
  438.672    5.960    0.506    0.295   57.927  224.162
  438.922    5.954    0.504    0.312   57.766  224.198
  439.172    6.001    0.497    0.299   57.669  224.337
  439.422    6.157    0.493    0.309   57.442  224.371
  439.672    6.262    0.503    0.315   57.160  224.820
  439.922    6.369    0.495    0.287   57.363  224.863
  440.172    6.535    0.480    0.291   57.872  224.999
  440.422    6.765    0.450    0.260   58.260  225.343
  440.672    6.880    0.410    0.220   58.466  225.692
  440.922    7.122    0.456    0.273   58.426  225.622
  441.172    7.243    0.475    0.328   57.897  224.625
  441.422    7.430    0.491    0.323   57.735  221.768
  441.672    7.423    0.489    0.310   57.942  219.732
  441.922    7.353    0.472    0.317   58.024  218.324
  442.172    7.088    0.463    0.313   58.411  218.044
  442.422    6.772    0.478    0.284   58.859  219.224
  442.672    6.471    0.485    0.297   59.186  221.538
  442.922    6.640    0.483    0.318   59.757  222.916
  443.172    6.753    0.494    0.320   59.658  223.677
  443.422    7.181    0.455    0.303   56.810  224.023
  443.672    7.983    0.370    0.251   53.589  224.781
  443.922    8.953    0.298    0.212   48.112  226.058
  444.172    9.603    0.300    0.160   43.794  227.749
  444.422    9.855    0.335    0.100   42.838  227.064
  444.672    9.760    0.396    0.240   45.795  225.032
  444.922    9.162    0.463    0.277   45.081  223.100
  445.172    8.151    0.465    0.327   43.636  221.378
  445.422    7.720    0.458    0.324   46.897  220.485
  445.672    7.577    0.492    0.327   49.118  219.896
  445.922    7.500    0.511    0.335   48.466  219.622
  446.172    7.495    0.498    0.330   46.351  219.146
  446.422    7.488    0.477    0.331   46.310  218.971
  446.672    7.481    0.471    0.339   47.860  218.287
  446.922    7.539    0.479    0.335   50.264  217.701
  447.172    7.532    0.480    0.326   51.507  217.217
  447.422    7.525    0.472    0.312   51.896  217.050
  447.672    7.518    0.462    0.311   52.954  217.913
  447.922    7.510    0.461    0.318   54.015  219.706
  448.172    7.437    0.451    0.317   55.196  221.399
  448.422    7.365    0.448    0.313   56.688  223.092
  448.672    7.227    0.449    0.315   57.867  224.371
  448.922    7.029    0.466    0.313   59.416  225.544
  449.172    6.839    0.477    0.310   61.822  226.514
  449.422    6.593    0.471    0.302   65.997  226.753
  449.672    6.187    0.469    0.269   70.480  226.897
  449.922    6.020    0.468    0.245   73.983  227.548
  450.172    5.908    0.449    0.231   78.038  228.414
  450.422    5.903    0.448    0.213   74.821  229.587
  450.672    5.948    0.451    0.195   66.717  231.386
  450.922    5.996    0.446    0.192   60.076  231.211
  451.172    6.099    0.437    0.206   50.688  229.284
  451.422    6.258    0.427    0.234   44.354  226.528
  451.672    6.593    0.426    0.263   39.610  224.077
  451.922    6.767    0.408    0.288   38.717  222.150
  452.172    6.943    0.381    0.311   41.487  220.736
  452.422    6.997    0.387    0.324   46.212  219.945
  452.672    6.991    0.413    0.303   52.223  219.878
  452.922    6.923    0.442    0.267   52.366  220.019
  453.172    6.794    0.465    0.265   47.316  221.199
  453.422    6.787    0.430    0.282   45.260  221.852
  453.672    6.782    0.415    0.281   47.789  222.928
  453.922    6.835    0.413    0.265   52.635  223.890
  454.172    6.828    0.432    0.262   63.715  225.066
  454.422    6.701    0.429    0.230   72.779  226.136
  454.672    6.460    0.425    0.212   68.099  226.481
  454.922    6.118    0.430    0.229   66.467  226.516
  455.172    5.847    0.460    0.238   71.745  225.415
  455.422    5.636    0.475    0.229   79.893  224.105
  455.672    5.533    0.489    0.233   85.474  222.697
  455.922    5.526    0.483    0.250   84.338  221.175
  456.172    5.671    0.477    0.238   82.094  219.764
  456.422    5.922    0.491    0.241   77.289  220.529
  456.672    6.132    0.483    0.256   74.256  223.976
  456.922    6.126    0.470    0.302   73.544  226.497
  457.172    5.549    0.462    0.300   76.803  227.880
  457.422    4.852    0.461    0.290   82.876  228.844
  457.672    3.777    0.473    0.269   88.397  231.576
  457.922    3.273    0.501    0.239   91.414  235.435
  458.172    2.886    0.552    0.230   93.569  244.679
  458.422    2.615    0.593    0.252   95.424  249.787
  458.672    2.476    0.577    0.234   96.913  251.582
  458.922    2.452    0.583    0.257   98.402  252.447
  459.172    2.428    0.589    0.293  100.315  252.066
  459.422    2.447    0.574    0.297  104.004  249.002
  459.672    2.467    0.579    0.281  106.106  245.521
  459.922    2.508    0.605    0.294  107.834  241.518
