~VERSION INFORMATION
 VERS.                 2.0:   CWLS LOG ASCII STANDARD -VERSION 2.0
 WRAP.                  NO:   ONE LINE PER DEPTH STEP
~WELL INFORMATION BLOCK
#MNEM.UNIT           DATA                    DESCRIPTION OF MNEMONIC
#---------    -------------------            -------------------------------
# Generated from Intellog Unique Number	nealta/WELL/2321
WELL.         AMOCO MISTAHAE                 : Well_name    - WELL
LOC .         11-26-078-01W5                 : Location     - LOCATION
UWI .         00/11-26-078-01W5/0            : Uwi          - UNIQUE WELL ID
ENTR.         MAX                            : Entered      - ENTERED BY
SRVC.         COMPUTALOG                     : Scn          - SERVICE COMPANY
STRT.M        285                            : top_depth    - START DEPTH
STOP.M        535                            : bot_depth    - STOP DEPTH
STEP.M        0.25                           : increment    - STEP LENGTH
 NULL. -999.2500:NULL Value
~CURVE INFORMATION BLOCK
#MNEM UNIT       ERCB CURVE CODE    CURVE DESCRIPTION
#-----------   ------------------   ----------------------------------
DEPT.M        00 001 00 00         : DEPTH        - DEPTH
CALI.MM       00 280 01 00         : CAL          - CALIPER
GR  .API      00 310 00 00         : GR           - GAMMA RAY
ILD .OHMM     00 120 00 00         : RESD         - DEEP RESISTIVITY (DIL)
NPHI.V/V      00 330 00 00         : PHIN         - NEUTRON POROSITY (SANDSTONE)
DPHI.V/V      00 890 00 00         : PHID         - DENSITY POROSITY (SANDSTONE)
~PARAMETER INFORMATION
#MNEM.UNIT           DATA             DESCRIPTION OF MNEMONIC
#---------         -----------     ------------------------------
GL  .M        587.78               : gl           - GROUND LEVEL ELEVATION
EREF.M        591.88               : kb           - ELEVATION OF DEPTH REFERENCE
DATM.M        587.78               : datum        - DATUM ELEVATION
TDD .M        535.31               : tdd          - TOTAL DEPTH DRILLER
RUN .         ONE                  : Run          - RUN NUMBER
ENG .         BILL                 : Engineer     - RECORDING ENGINEER
WIT .         JIM                  : Witness      - WITNESSED BY
MUD .         GEL                  : Mud_type     - MUD TYPE
MATR.         SANDSTONE            : Logunit      - NEUTRON MATRIX
TMAX.C        22                   : BHT          - MAXIMUM RECORDED TEMPERATURE
BHTD.M        535.31               : BHTDEP       - MAXIMUM RECORDED TEMPERATURE
RMT .C        14.3                 : MDTP         - TEMPERATURE OF MUD
MUDD.KG/M     1100                 : MWT          - MUD DENSITY
NEUT.         1                    : NEUTRON      - NEUTRON TYPE
RESI.         0                    : RESIST       - RESISTIVITY TYPE
RM  .OHMM     2.6                  : RM           - RESISTIVITY OF MUD
RMC .OHMM     3.5                  : RMC          - RESISTIVITY OF MUD CAKE
RMF .OHMM     2.4                  : RMF          - RESISTIVITY OF MUD FILTRATE
SUFT.C        -20                  : SUFT         - SURFACE TEMPERATURE
~A  DEPTH      CAL       GR     RESD     PHIN     PHID
# ...
  431.000  200.623   84.900   13.260    0.383    0.193
  431.250  200.531   77.662   12.658    0.370    0.178
  431.500  200.466   77.917   12.422    0.372    0.174
  431.750  200.392   76.664   11.966    0.359    0.165
  432.000  199.819   78.422   11.526    0.353    0.152
  432.250  198.729   87.662   11.207    0.346    0.140
  432.500  198.165   93.014   10.894    0.365    0.145
  432.750  197.093   88.472   10.495    0.401    0.173
  433.000  196.021   89.326   10.393    0.395    0.175
  433.250  195.448   91.079   10.290    0.391    0.165
  433.500  194.875   91.639   10.281    0.365    0.172
  433.750  194.792   91.894   10.367    0.354    0.169
  434.000  195.208   93.647   10.645    0.380    0.176
  434.250  196.123   90.597   10.637    0.393    0.180
  434.500  197.066   92.649   10.247    0.368    0.179
  434.750  197.991   87.818   10.056    0.362    0.171
  435.000  198.416   88.672    9.776    0.352    0.169
  435.250  199.840   93.420    9.679    0.343    0.169
  435.500  200.764   90.980    9.851    0.378    0.168
  435.750  201.180   82.544   10.588    0.379    0.168
  436.000  200.607   78.301   10.975    0.354    0.161
  436.250  199.535   76.759   11.064    0.328    0.126
  436.500  197.955   81.801   10.466    0.298    0.078
  436.750  196.892   86.554    9.722    0.279    0.104
  437.000  196.310   92.500    9.030    0.330    0.150
  437.250  196.236   90.359    8.620    0.362    0.156
  437.500  197.160   90.309    8.458    0.366    0.162
  437.750  198.085   91.169    8.451    0.367    0.165
  438.000  198.991   89.028    8.521    0.383    0.161
  438.250  198.926   91.974    8.994    0.387    0.153
  438.500  198.862   91.036    9.581    0.358    0.149
  438.750  198.788   78.707   10.297    0.332    0.148
  439.000  198.206   79.561   10.289    0.334    0.146
  439.250  198.132   86.705   10.276    0.367    0.142
  439.500  198.040   82.157   10.181    0.335    0.137
  439.750  197.975   89.905    9.809    0.336    0.135
  440.000  197.910   93.760    9.194    0.301    0.136
  440.250  198.336  102.102    8.459    0.304    0.141
  440.500  199.242  109.545    8.224    0.331    0.151
  440.750  200.675  113.400    8.219    0.362    0.165
  441.000  206.101  109.756    8.440    0.352    0.174
  441.250  215.012   98.325    9.073    0.339    0.154
  441.500  216.926   94.981   11.083    0.326    0.144
  441.750  211.851  100.328   11.489    0.299    0.149
  442.000  199.307   85.902   13.782    0.316    0.149
  442.250  197.718   78.975   14.680    0.344    0.127
  442.500  198.152   68.442   16.519    0.327    0.096
  442.750  197.561   62.103   19.279    0.251    0.069
  443.000  197.506   58.764   21.496    0.211    0.084
  443.250  198.430   73.401   21.875    0.213    0.124
  443.500  198.846   73.650   20.882    0.274    0.159
  443.750  198.273   76.002   20.864    0.372    0.199
  444.000  198.190   81.954   22.632    0.341    0.204
  444.250  198.107   76.507   25.010    0.280    0.156
  444.500  198.043   67.478   28.655    0.238    0.091
  444.750  197.479   62.636   29.164    0.183    0.071
  445.000  198.394   62.592   28.879    0.191    0.096
  445.250  199.328   55.054   27.318    0.216    0.089
  445.500  199.245   59.209   25.840    0.253    0.108
  445.750  198.663   62.453   24.438    0.293    0.148
  446.000  199.097   66.003   23.980    0.323    0.159
  446.250  200.003   63.568   23.311    0.323    0.159
  446.500  200.003   60.224   22.050    0.287    0.112
  446.750  199.828   68.272   20.112    0.178    0.041
  447.000  200.299   79.614   15.991    0.214    0.044
  447.250  201.206   86.159   14.582    0.237    0.077
  447.500  202.639   87.312   13.422    0.256    0.092
  447.750  202.565   87.867   12.353    0.271    0.112
  448.000  201.493   96.808   11.264    0.276    0.115
  448.250  200.892   90.469   10.656    0.266    0.125
  448.500  201.844   82.338   10.360    0.285    0.128
  448.750  202.260   70.308   10.163    0.326    0.122
  449.000  202.168   85.843   10.057    0.328    0.129
  449.250  201.613   83.098   10.056    0.327    0.150
  449.500  201.031   82.150   10.048    0.333    0.154
  449.750  199.959   90.186   10.317    0.322    0.135
  450.000  199.876   89.249   10.502    0.319    0.112
  450.250  199.793   89.504   10.492    0.336    0.127
  450.500  200.228   90.353   10.294    0.346    0.151
  450.750  200.662   91.512   10.100    0.332    0.168
  451.000  200.588   90.874    9.910    0.327    0.160
  451.250  200.015   84.835    9.812    0.334    0.147
  451.500  199.942   86.282    9.803    0.337    0.143
  451.750  200.358   82.650    9.796    0.326    0.142
  452.000  199.785   86.199    9.700    0.315    0.147
  452.250  199.702   89.749    9.515    0.304    0.152
  452.500  199.619   82.506    9.336    0.327    0.150
  452.750  199.619   82.461    9.074    0.315    0.143
  453.000  199.490   90.210    9.069    0.334    0.116
  453.250  199.416  102.750    8.981    0.328    0.118
  453.500  199.416  105.701    8.810    0.330    0.132
  453.750  199.231   91.874    8.644    0.350    0.148
  454.000  200.174   88.835    8.638    0.341    0.162
  454.250  200.609   88.186    8.631    0.307    0.156
  454.500  201.025   84.248    8.783    0.311    0.146
  454.750  200.960   78.513    9.019    0.331    0.113
  455.000  200.868   77.265    9.347    0.340    0.120
  455.250  200.286   79.018    9.513    0.331    0.127
  455.500  200.221   84.969    9.505    0.342    0.095
  455.750  199.658   90.011    9.412    0.324    0.094
  456.000  199.565   89.368    9.318    0.343    0.144
  456.250  199.510   80.638    9.143    0.344    0.146
  456.500  199.408   80.294    9.136    0.338    0.156
  456.750  199.834   78.447    9.213    0.341    0.160
  457.000  199.760   80.200    9.375    0.327    0.152
  457.250  200.204   87.349    9.894    0.316    0.148
  457.500  200.130   84.604   10.540    0.322    0.142
  457.750  201.055   78.264   12.415    0.293    0.123
  458.000  201.471   80.921   13.104    0.295    0.128
  458.250  201.397   77.571   14.477    0.304    0.154
  458.500  200.325   77.533   15.707    0.308    0.184
  458.750  199.243   78.387   17.511    0.303    0.164
  459.000  199.660   74.444   18.995    0.311    0.125
  459.250  201.092   72.902   20.049    0.279    0.094
  459.500  202.507   67.766   21.167    0.250    0.072
  459.750  202.877   61.427   22.752    0.210    0.052
  460.000  203.358   55.392   24.458    0.187    0.057
  460.250  203.293   50.844   25.581    0.183    0.041
  460.500  202.212   53.196   26.758    0.183    0.016
  460.750  201.149   51.959   27.472    0.181    0.026
  461.000  201.066   46.824   27.204    0.195    0.038
  461.250  201.999   55.759   26.693    0.216    0.056
  461.500  203.895   64.406   25.484    0.228    0.078
  461.750  204.838   74.245   23.882    0.252    0.102
  462.000  204.764   71.511   22.184    0.274    0.157
  462.250  204.672   70.263   20.232    0.286    0.150
  462.500  204.099   77.406   17.789    0.304    0.157
  462.750  204.025   77.662   14.016    0.329    0.166
  463.000  204.025   80.019   12.210    0.306    0.154
  463.250  203.868   84.162   11.238    0.324    0.142
  463.500  203.794   86.813   10.827    0.334    0.128
  463.750  203.739   84.074   10.526    0.333    0.110
  464.000  203.739   89.415   10.516    0.349    0.099
  464.250  203.591   86.680   10.502    0.341    0.115
  464.500  203.009   83.037   10.500    0.310    0.078
  464.750  202.926   86.891   10.492    0.308    0.057
  465.000  203.351   83.248   10.484    0.304    0.139
  465.250  203.777   87.091   10.380    0.295    0.134
  465.500  205.210   87.652   10.185    0.298    0.138
  465.750  206.116   82.810    9.812    0.272    0.146
  466.000  206.042   84.562    9.281    0.266    0.126
  466.250  205.968   82.128    8.939    0.233    0.121
  466.500  205.404   83.575    8.852    0.256    0.126
  466.750  205.820   99.710    9.090    0.282    0.141
  467.000  206.736  103.248    9.595    0.305    0.146
  467.250  207.170   96.027    9.595    0.300    0.152
