~VERSION INFORMATION
 VERS.                 2.0:   CWLS LOG ASCII STANDARD -VERSION 2.0
 WRAP.                  NO:   ONE LINE PER DEPTH STEP
~WELL INFORMATION BLOCK
#MNEM.UNIT           DATA                    DESCRIPTION OF MNEMONIC
#---------    -------------------            -------------------------------
# Generated from Intellog Unique Number	CS_67_68/WELL/2213
WELL.         13-03-067-05W4                 : Well_name    - WELL
LOC .         00/13-03-067-05W4/0            : Location     - LOCATION
UWI .         00/13-03-067-05W4/0            : Uwi          - UNIQUE WELL ID
ENTR.         SP                             : Entered      - ENTERED BY
SRVC.         SCHLUMBERGER                   : Scn          - SERVICE COMPANY
STRT.M        325                            : top_depth    - START DEPTH
STOP.M        545                            : bot_depth    - STOP DEPTH
STEP.M        0.25                           : increment    - STEP LENGTH
 NULL. -999.2500:NULL Value
~CURVE INFORMATION BLOCK
#MNEM UNIT       ERCB CURVE CODE    CURVE DESCRIPTION
#-----------   ------------------   ----------------------------------
DEPT.M        00 001 00 00         : DEPTH        - DEPTH
ILD .OHMM     00 120 00 00         : RESD         - DEEP RESISTIVITY (DIL)
DPHI.V/V      00 890 00 00         : PHID         - DENSITY POROSITY (LIMESTONE)
NPHI.V/V      00 330 00 00         : PHIN         - NEUTRON POROSITY (LIMESTONE)
GR  .API      00 310 00 00         : GR           - GAMMA RAY
CALI.MM       00 280 01 00         : CAL          - CALIPER
~PARAMETER INFORMATION
#MNEM.UNIT           DATA             DESCRIPTION OF MNEMONIC
#---------         -----------     ------------------------------
GL  .M        654.2                : gl           - GROUND LEVEL ELEVATION
EREF.M        657.56               : kb           - ELEVATION OF DEPTH REFERENCE
DATM.M        657.56               : datum        - DATUM ELEVATION
TDD .M        554                  : tdd          - TOTAL DEPTH DRILLER
RUN .         ONE                  : Run          - RUN NUMBER
ENG .         BILL                 : Engineer     - RECORDING ENGINEER
WIT .         JIM                  : Witness      - WITNESSED BY
MUD .         GEL                  : Mud_type     - MUD TYPE
MATR.         LIMESTONE            : Logunit      - NEUTRON MATRIX
TMAX.C        22                   : BHT          - MAXIMUM RECORDED TEMPERATURE
BHTD.M        553.5                : BHTDEP       - MAXIMUM RECORDED TEMPERATURE
MATR.         1                    : LOGUNIT      - NEUTRON MATRIX
RMT .C        25                   : MDTP         - TEMPERATURE OF MUD
NEUT.         1                    : NEUTRON      - NEUTRON TYPE
RESI.         0                    : RESIST       - RESISTIVITY TYPE
RMC .OHMM     0.25                 : RMC          - RESISTIVITY OF MUD CAKE
RMF .OHMM     0.25                 : RMF          - RESISTIVITY OF MUD FILTRATE
SUFT.C        15                   : SUFT         - SURFACE TEMPERATURE
~A  DEPTH     RESD     PHID     PHIN       GR      CAL
  325.000    2.646    0.301    0.540   82.912  260.428
  325.250    2.817    0.304    0.537   81.690  263.807
  325.500    2.868    0.312    0.506   81.879  268.312
  325.750    2.902    0.307    0.522   81.392  273.941
  326.000    2.883    0.286    0.534   79.986  279.264
  326.250    2.847    0.283    0.544   80.972  283.154
  326.500    2.822    0.280    0.477   78.830  287.149
  326.750    2.793    0.278    0.479   78.343  288.995
  327.000    2.795    0.293    0.501   81.415  288.389
  327.250    2.834    0.299    0.518   81.357  290.953
  327.500    2.918    0.275    0.524   79.522  293.924
  327.750    3.032    0.281    0.536   77.871  294.033
  328.000    3.145    0.299    0.524   78.120  287.908
  328.250    3.213    0.315    0.509   83.276  282.089
  328.500    3.228    0.339    0.501   87.328  275.147
  328.750    3.236    0.306    0.507   89.663  270.043
  329.000    3.306    0.293    0.518   91.078  267.189
  329.250    3.378    0.286    0.531   89.794  264.948
  329.500    3.471    0.281    0.514   88.695  260.560
  329.750    3.441    0.288    0.499   90.110  254.435
  330.000    3.304    0.288    0.489   90.544  250.968
  330.250    3.154    0.279    0.486   90.120  247.806
  330.500    3.000    0.276    0.483   91.841  244.645
  330.750    2.902    0.273    0.481   93.194  241.893
  331.000    2.872    0.265    0.486   92.585  239.754
  331.250    2.923    0.265    0.509   90.506  238.330
  331.500    3.021    0.267    0.522   88.793  237.214
  331.750    3.175    0.257    0.541   87.263  237.324
  332.000    3.349    0.244    0.497   86.164  239.682
  332.250    3.500    0.233    0.508   90.707  242.960
  332.500    3.603    0.255    0.521   92.796  245.421
  332.750    3.552    0.258    0.509   87.711  247.165
  333.000    3.469    0.259    0.483   82.257  249.934
  333.250    3.464    0.262    0.456   84.408  250.757
  333.500    3.415    0.265    0.457   94.960  251.174
  333.750    3.348    0.257    0.477  101.097  251.182
  334.000    3.226    0.266    0.489   94.111  251.189
  334.250    3.115    0.273    0.488   87.922  255.182
  334.500    3.047    0.278    0.496   84.982  259.993
  334.750    2.882    0.280    0.505   83.821  261.943
  335.000    3.029    0.276    0.493   83.151  261.746
  335.250    3.344    0.284    0.477   81.316  259.300
  335.500    4.040    0.312    0.496   75.985  252.358
  335.750    5.245    0.341    0.455   69.367  246.845
  336.000    7.043    0.363    0.372   62.686  239.085
  336.250   11.882    0.369    0.254   50.242  239.910
  336.500   17.600    0.371    0.261   45.954  241.042
  336.750   22.043    0.379    0.287   53.624  242.685
  337.000   25.943    0.391    0.298   59.393  245.350
  337.250   25.238    0.400    0.275   54.062  246.890
  337.500   22.428    0.406    0.227   51.245  244.751
  337.750   18.871    0.413    0.199   49.962  240.568
  338.000   15.878    0.418    0.195   54.995  237.714
  338.250   13.285    0.424    0.202   56.287  239.868
  338.500   10.948    0.396    0.250   53.532  242.840
  338.750    8.559    0.365    0.297   51.636  245.504
  339.000    7.093    0.353    0.360   54.461  248.373
  339.250    5.879    0.348    0.392   57.164  250.323
  339.500    5.088    0.341    0.397   61.400  249.614
  339.750    4.557    0.337    0.416   66.862  249.213
  340.000    4.325    0.338    0.421   71.221  248.403
  340.250    4.272    0.338    0.420   67.300  248.104
  340.500    4.251    0.340    0.430   61.786  248.520
  340.750    4.246    0.343    0.442   60.257  248.630
  341.000    4.273    0.347    0.420   60.200  248.534
  341.250    4.366    0.349    0.397   58.487  248.441
  341.500    4.402    0.354    0.402   55.303  248.448
  341.750    4.506    0.360    0.409   57.208  248.864
  342.000    4.630    0.357    0.409   63.223  249.689
  342.250    4.812    0.344    0.419   70.034  251.434
  342.500    4.982    0.332    0.421   74.699  253.281
  342.750    5.090    0.324    0.410   77.709  254.003
  343.000    5.123    0.318    0.403   80.718  254.011
  343.250    5.097    0.327    0.399   78.515  254.018
  343.500    5.025    0.329    0.405   70.608  254.230
  343.750    4.954    0.328    0.416   61.659  254.954
  344.000    4.874    0.337    0.425   51.852  255.369
  344.250    4.787    0.346    0.416   43.945  255.889
  344.500    4.772    0.351    0.401   40.209  256.202
  344.750    4.748    0.336    0.393   43.034  256.209
  345.000    4.734    0.340    0.397   38.194  256.319
  345.250    4.782    0.342    0.388   35.316  256.429
  345.500    4.859    0.330    0.381   48.690  256.538
  345.750    4.965    0.288    0.377   61.941  256.546
  346.000    5.101    0.256    0.388   68.629  257.268
  346.250    5.351    0.233    0.398   74.398  259.831
  346.500    5.571    0.216    0.387   81.087  262.087
  346.750    5.779    0.215    0.390   84.219  257.598
  347.000    5.972    0.240    0.394   83.427  254.845
  347.250    6.159    0.260    0.389   83.370  251.889
  347.500    6.329    0.267    0.400   83.681  250.465
  347.750    6.454    0.272    0.412   84.299  249.757
  348.000    6.422    0.282    0.419   85.590  249.355
  348.250    6.260    0.293    0.410   89.091  249.466
  348.500    5.886    0.283    0.426   91.732  250.291
  348.750    5.341    0.264    0.437   94.189  251.833
  349.000    4.818    0.254    0.440   96.831  253.065
  349.250    4.388    0.248    0.471   98.491  254.914
  349.500    4.073    0.243    0.509   99.415  255.839
  349.750    3.851    0.243    0.519  100.708  257.073
  350.000    3.754    0.274    0.510  102.000  254.219
  350.250    3.990    0.291    0.520  101.391  254.839
  350.500    4.266    0.328    0.512   94.711  259.651
  350.750    4.543    0.391    0.505   84.475  264.770
  351.000    4.820    0.367    0.522   76.323  267.945
  351.250    5.191    0.332    0.490   71.176  260.286
  351.500    5.571    0.307    0.456   66.458  256.001
  351.750    5.844    0.289    0.468   66.831  254.782
  352.000    6.107    0.269    0.490   68.797  254.482
  352.250    6.299    0.278    0.489   70.948  253.979
  352.500    6.461    0.264    0.459   72.547  253.680
  352.750    6.551    0.277    0.459   73.840  253.586
  353.000    6.569    0.278    0.479   74.948  253.594
  353.250    6.574    0.263    0.466   75.566  253.907
  353.500    6.628    0.252    0.433   76.306  254.118
  353.750    6.810    0.250    0.451   77.292  253.206
  354.000    6.972    0.251    0.467   76.437  252.395
  354.250    7.029    0.272    0.451   75.583  251.790
  354.500    6.851    0.281    0.443   76.139  251.388
  354.750    6.504    0.292    0.462   77.677  251.498
  355.000    6.220    0.293    0.473   78.908  251.505
  355.250    6.097    0.287    0.470   79.281  251.617
  355.500    6.022    0.281    0.464   78.181  251.828
  355.750    5.903    0.279    0.466   75.671  252.245
  356.000    5.689    0.285    0.450   72.119  252.455
  356.250    5.482    0.306    0.433   69.671  252.565
  356.500    5.234    0.362    0.427   67.467  252.777
  356.750    4.931    0.357    0.430   67.717  252.784
  357.000    4.935    0.349    0.425   68.764  252.996
  357.250    5.080    0.342    0.428   68.645  253.821
  357.500    5.250    0.316    0.442   69.202  254.544
  357.750    5.612    0.283    0.424   75.585  255.677
  358.000    5.898    0.270    0.398   79.391  257.216
  358.250    6.141    0.268    0.386   79.886  263.764
  358.500    6.274    0.272    0.378   79.645  270.927
  358.750    6.303    0.273    0.373   79.036  275.942
  359.000    6.225    0.263    0.374   79.838  280.754
  359.250    6.114    0.299    0.385   80.762  284.032
  359.500    6.107    0.359    0.412   80.644  285.368
  359.750    6.088    0.340    0.423   78.073  275.665
  360.000    6.127    0.312    0.425   71.270  257.888
  360.250    6.476    0.305    0.423   68.147  249.209
  360.500    7.564    0.299    0.447   66.251  250.135
  360.750    8.638    0.285    0.464   68.463  250.449
  361.000    9.679    0.141    0.366   65.462  250.458
  361.250   11.348    0.111    0.266   57.311  250.567
