~VERSION INFORMATION
 VERS.                 2.0:   CWLS LOG ASCII STANDARD -VERSION 2.0
 WRAP.                  NO:   ONE LINE PER DEPTH STEP
~WELL INFORMATION BLOCK
#MNEM.UNIT           DATA                    DESCRIPTION OF MNEMONIC
#---------    -------------------            -------------------------------
# Generated from Intellog Unique Number	CS_67_68/WELL/2213
WELL.         13-03-067-05W4                 : Well_name    - WELL
LOC .         00/13-03-067-05W4/0            : Location     - LOCATION
UWI .         00/13-03-067-05W4/0            : Uwi          - UNIQUE WELL ID
ENTR.         SP                             : Entered      - ENTERED BY
SRVC.         SCHLUMBERGER                   : Scn          - SERVICE COMPANY
STRT.M        325                            : top_depth    - START DEPTH
STOP.M        545                            : bot_depth    - STOP DEPTH
STEP.M        0.25                           : increment    - STEP LENGTH
 NULL. -999.2500:NULL Value
~CURVE INFORMATION BLOCK
#MNEM UNIT       ERCB CURVE CODE    CURVE DESCRIPTION
#-----------   ------------------   ----------------------------------
DEPT.M        00 001 00 00         : DEPTH        - DEPTH
ILD .OHMM     00 120 00 00         : RESD         - DEEP RESISTIVITY (DIL)
DPHI.V/V      00 890 00 00         : PHID         - DENSITY POROSITY (LIMESTONE)
NPHI.V/V      00 330 00 00         : PHIN         - NEUTRON POROSITY (LIMESTONE)
GR  .API      00 310 00 00         : GR           - GAMMA RAY
CALI.MM       00 280 01 00         : CAL          - CALIPER
~PARAMETER INFORMATION
#MNEM.UNIT           DATA             DESCRIPTION OF MNEMONIC
#---------         -----------     ------------------------------
GL  .M        654.2                : gl           - GROUND LEVEL ELEVATION
EREF.M        657.56               : kb           - ELEVATION OF DEPTH REFERENCE
DATM.M        657.56               : datum        - DATUM ELEVATION
TDD .M        554                  : tdd          - TOTAL DEPTH DRILLER
RUN .         ONE                  : Run          - RUN NUMBER
ENG .         BILL                 : Engineer     - RECORDING ENGINEER
WIT .         JIM                  : Witness      - WITNESSED BY
MUD .         GEL                  : Mud_type     - MUD TYPE
MATR.         LIMESTONE            : Logunit      - NEUTRON MATRIX
TMAX.C        22                   : BHT          - MAXIMUM RECORDED TEMPERATURE
BHTD.M        553.5                : BHTDEP       - MAXIMUM RECORDED TEMPERATURE
MATR.         1                    : LOGUNIT      - NEUTRON MATRIX
RMT .C        25                   : MDTP         - TEMPERATURE OF MUD
NEUT.         1                    : NEUTRON      - NEUTRON TYPE
RESI.         0                    : RESIST       - RESISTIVITY TYPE
RMC .OHMM     0.25                 : RMC          - RESISTIVITY OF MUD CAKE
RMF .OHMM     0.25                 : RMF          - RESISTIVITY OF MUD FILTRATE
SUFT.C        15                   : SUFT         - SURFACE TEMPERATURE
~A  DEPTH     RESD     PHID     PHIN       GR      CAL
# ...
  434.500    7.875    0.333    0.445   54.078  254.070
  434.750    7.821    0.326    0.431   55.308  254.180
  435.000    7.681    0.327    0.432   57.582  254.391
  435.250    7.543    0.331    0.429   60.407  254.604
  435.500    7.310    0.331    0.411   62.190  254.508
  435.750    6.979    0.331    0.402   61.274  254.721
  436.000    6.663    0.339    0.436   59.869  254.932
  436.250    6.471    0.348    0.454   59.935  254.940
  436.500    6.354    0.352    0.460   61.349  255.049
  436.750    6.263    0.348    0.450   63.193  255.057
  437.000    6.175    0.346    0.455   64.056  255.270
  437.250    6.178    0.346    0.462   64.614  255.378
  437.500    6.068    0.347    0.456   65.477  255.284
  437.750    5.793    0.346    0.453   65.971  254.780
  438.000    5.562    0.341    0.462   66.159  254.481
  438.250    5.340    0.333    0.469   64.998  253.364
  438.500    5.146    0.326    0.474   65.126  252.247
  438.750    4.978    0.319    0.483   66.663  251.743
  439.000    4.825    0.315    0.474   68.078  251.342
  439.250    4.711    0.318    0.479   67.163  250.736
  439.500    4.662    0.328    0.485   66.002  250.335
  439.750    4.683    0.320    0.491   67.969  250.138
  440.000    4.731    0.318    0.483   70.488  250.044
  440.250    4.797    0.320    0.479   70.799  250.357
  440.500    4.919    0.318    0.483   69.699  251.182
  440.750    5.036    0.309    0.488   69.275  252.007
  441.000    5.136    0.301    0.489   70.015  252.934
  441.250    5.188    0.294    0.482   73.208  254.271
  441.500    5.202    0.288    0.474   75.114  255.606
  441.750    5.118    0.292    0.464   73.953  258.272
  442.000    4.706    0.293    0.451   72.669  262.470
  442.250    4.190    0.276    0.443   74.820  268.303
  442.500    3.709    0.262    0.451   76.971  275.465
  442.750    3.347    0.282    0.495   77.773  284.568
  443.000    3.147    0.302    0.524   77.900  293.877
  443.250    2.871    0.317    0.504   78.089  300.323
  443.500    2.685    0.304    0.528   77.909  304.624
  443.750    2.450    0.329    0.554   76.012  308.106
  444.000    2.295    0.364    0.575   74.239  312.100
  444.250    2.208    0.376    0.547   73.752  315.071
  444.500    2.256    0.348    0.527   74.370  310.070
  444.750    2.434    0.318    0.530   75.663  301.493
  445.000    2.573    0.302    0.544   75.790  295.061
  445.250    2.845    0.297    0.559   74.751  291.082
  445.500    3.267    0.305    0.512   72.425  286.592
  445.750    4.298    0.352    0.449   70.039  276.277
  446.000    5.282    0.362    0.401   68.141  269.436
  446.250    6.335    0.352    0.390   66.674  259.836
  446.500    7.372    0.346    0.395   66.924  253.405
  446.750    8.277    0.338    0.431   67.909  251.061
  447.000    8.982    0.342    0.468   63.560  250.148
  447.250   10.218    0.346    0.470   60.867  249.338
  447.500   11.801    0.348    0.471   59.276  249.142
  447.750   12.879    0.337    0.481   59.159  250.171
  448.000   14.515    0.341    0.499   58.978  252.223
  448.250   15.605    0.340    0.495   58.676  253.149
  448.500   15.793    0.336    0.489   58.558  253.668
  448.750   14.088    0.340    0.483   61.261  253.778
  449.000   13.424    0.340    0.476   63.780  253.888
  449.250   12.840    0.334    0.462   65.624  253.589
  449.500   12.258    0.324    0.448   64.892  253.391
  449.750   12.015    0.323    0.441   64.099  253.093
  450.000   13.066    0.328    0.439   63.245  252.895
  450.250   13.783    0.331    0.448   60.919  253.004
  450.500   15.045    0.336    0.456   58.778  253.013
  450.750   15.721    0.343    0.457   57.127  253.225
  451.000   16.276    0.348    0.453   55.536  253.231
  451.250   16.630    0.350    0.450   53.947  253.239
  451.500   16.677    0.345    0.449   53.705  253.246
  451.750   16.654    0.346    0.450   56.838  253.152
  452.000   16.635    0.355    0.452   55.739  252.852
  452.250   16.616    0.361    0.462   55.497  252.759
  452.500   16.473    0.357    0.460   56.790  252.663
  452.750   16.177    0.357    0.459   57.776  252.568
  453.000   15.475    0.358    0.465   57.841  252.474
  453.250   15.024    0.357    0.470   57.355  252.480
  453.500   14.783    0.356    0.477   59.874  252.181
  453.750   14.850    0.355    0.483   61.657  252.086
  454.000   15.432    0.354    0.486   61.968  251.481
  454.250   16.252    0.350    0.442   60.071  250.773
  454.500   16.824    0.346    0.423   58.542  250.269
  454.750   17.320    0.343    0.451   58.179  249.458
  455.000   17.730    0.349    0.464   57.999  248.649
  455.250   18.079    0.352    0.443   55.796  248.043
  455.500   18.402    0.350    0.426   54.452  247.643
  455.750   18.346    0.348    0.412   53.474  247.648
  456.000   18.120    0.345    0.402   54.889  248.269
  456.250   17.829    0.345    0.401   55.507  249.401
  456.500   17.643    0.350    0.427   54.224  250.329
  456.750   17.720    0.356    0.449   54.045  250.540
  457.000   18.590    0.350    0.468   54.907  250.752
  457.250   19.538    0.345    0.467   52.889  250.555
  457.500   20.536    0.353    0.451   49.826  250.460
  457.750   21.420    0.358    0.470   47.807  250.468
  458.000   21.763    0.357    0.445   48.793  250.374
  458.250   21.334    0.352    0.440   51.005  250.176
  458.500   20.404    0.353    0.460   49.231  249.775
  458.750   19.775    0.354    0.446   48.131  249.476
  459.000   19.383    0.352    0.422   48.013  249.074
  459.250   19.220    0.355    0.443   49.244  248.368
  459.500   19.230    0.357    0.482   51.395  247.964
  459.750   18.921    0.288    0.500   53.116  247.665
  460.000   18.581    0.242    0.300   51.711  247.673
  460.250   17.975    0.215    0.274   48.035  248.293
  460.500   17.292    0.340    0.350   49.328  248.914
  460.750   16.789    0.351    0.388   51.479  250.046
  461.000   16.332    0.356    0.420   52.894  252.098
  461.250   15.742    0.359    0.444   53.144  253.536
  461.500   15.487    0.352    0.463   52.657  254.667
  461.750   15.209    0.348    0.457   52.600  254.369
  462.000   14.852    0.353    0.461   52.298  253.865
  462.250   14.585    0.355    0.467   51.076  252.442
  462.500   14.461    0.355    0.476   49.915  251.222
  462.750   14.498    0.361    0.459   51.576  249.799
  463.000   14.592    0.365    0.445   55.873  248.784
  463.250   14.521    0.366    0.436   59.434  248.893
  463.500   14.641    0.363    0.437   58.948  250.230
  463.750   15.359    0.359    0.444   55.825  251.465
  464.000   16.020    0.355    0.458   53.315  251.982
  464.250   15.352    0.351    0.459   52.215  251.581
  464.500   14.602    0.347    0.461   49.890  251.077
  464.750   14.179    0.343    0.476   48.299  250.778
  465.000   13.766    0.346    0.488   51.738  251.092
  465.250   13.168    0.349    0.480   55.730  251.509
  465.500   12.666    0.348    0.470   56.776  251.822
  465.750   12.208    0.341    0.456   56.964  251.830
  466.000   12.032    0.331    0.446   56.785  251.837
  466.250   11.751    0.323    0.435   54.949  251.742
  466.500   11.540    0.325    0.429   53.727  252.158
  466.750   11.419    0.331    0.432   54.590  251.450
  467.000   11.256    0.335    0.443   56.251  250.946
  467.250   11.055    0.335    0.451   57.727  250.750
  467.500   10.918    0.336    0.459   53.009  251.882
  467.750   10.781    0.335    0.446   52.278  252.812
  468.000   10.588    0.327    0.433   52.773  252.817
  468.250   10.437    0.320    0.421   50.876  253.030
  468.500   10.252    0.314    0.411   48.796  253.648
  468.750   10.123    0.319    0.418   49.843  253.861
  469.000    9.980    0.316    0.444   52.485  254.482
  469.250    9.800    0.303    0.457   54.267  255.000
  469.500    9.480    0.283    0.448   56.724  255.927
  469.750    8.883    0.263    0.425   57.035  257.366
  470.000    8.447    0.264    0.401   57.899  258.395
  470.250    8.034    0.293    0.422   59.252  259.833
  470.500    7.583    0.308    0.465   60.729  261.067
  470.750    6.985    0.317    0.487   61.959  260.666
