~VERSION INFORMATION
 VERS.                 2.0:   CWLS LOG ASCII STANDARD -VERSION 2.0
 WRAP.                  NO:   ONE LINE PER DEPTH STEP
~WELL INFORMATION BLOCK
#MNEM.UNIT           DATA                    DESCRIPTION OF MNEMONIC
#---------    -------------------            -------------------------------
# Generated from Intellog Unique Number	CS_67_68/WELL/2213
WELL.         13-03-067-05W4                 : Well_name    - WELL
LOC .         00/13-03-067-05W4/0            : Location     - LOCATION
UWI .         00/13-03-067-05W4/0            : Uwi          - UNIQUE WELL ID
ENTR.         SP                             : Entered      - ENTERED BY
SRVC.         SCHLUMBERGER                   : Scn          - SERVICE COMPANY
STRT.M        325                            : top_depth    - START DEPTH
STOP.M        545                            : bot_depth    - STOP DEPTH
STEP.M        0.25                           : increment    - STEP LENGTH
 NULL. -999.2500:NULL Value
~CURVE INFORMATION BLOCK
#MNEM UNIT       ERCB CURVE CODE    CURVE DESCRIPTION
#-----------   ------------------   ----------------------------------
DEPT.M        00 001 00 00         : DEPTH        - DEPTH
ILD .OHMM     00 120 00 00         : RESD         - DEEP RESISTIVITY (DIL)
DPHI.V/V      00 890 00 00         : PHID         - DENSITY POROSITY (LIMESTONE)
NPHI.V/V      00 330 00 00         : PHIN         - NEUTRON POROSITY (LIMESTONE)
GR  .API      00 310 00 00         : GR           - GAMMA RAY
CALI.MM       00 280 01 00         : CAL          - CALIPER
~PARAMETER INFORMATION
#MNEM.UNIT           DATA             DESCRIPTION OF MNEMONIC
#---------         -----------     ------------------------------
GL  .M        654.2                : gl           - GROUND LEVEL ELEVATION
EREF.M        657.56               : kb           - ELEVATION OF DEPTH REFERENCE
DATM.M        657.56               : datum        - DATUM ELEVATION
TDD .M        554                  : tdd          - TOTAL DEPTH DRILLER
RUN .         ONE                  : Run          - RUN NUMBER
ENG .         BILL                 : Engineer     - RECORDING ENGINEER
WIT .         JIM                  : Witness      - WITNESSED BY
MUD .         GEL                  : Mud_type     - MUD TYPE
MATR.         LIMESTONE            : Logunit      - NEUTRON MATRIX
TMAX.C        22                   : BHT          - MAXIMUM RECORDED TEMPERATURE
BHTD.M        553.5                : BHTDEP       - MAXIMUM RECORDED TEMPERATURE
MATR.         1                    : LOGUNIT      - NEUTRON MATRIX
RMT .C        25                   : MDTP         - TEMPERATURE OF MUD
NEUT.         1                    : NEUTRON      - NEUTRON TYPE
RESI.         0                    : RESIST       - RESISTIVITY TYPE
RMC .OHMM     0.25                 : RMC          - RESISTIVITY OF MUD CAKE
RMF .OHMM     0.25                 : RMF          - RESISTIVITY OF MUD FILTRATE
SUFT.C        15                   : SUFT         - SURFACE TEMPERATURE
~A  DEPTH     RESD     PHID     PHIN       GR      CAL
# ...
  507.500    7.929    0.205    0.355   93.399  256.033
  507.750    7.416    0.185    0.370  100.947  256.450
  508.000    7.254    0.183    0.378   97.272  256.662
  508.250    7.124    0.191    0.388   92.308  256.771
  508.500    7.049    0.195    0.383   89.799  257.085
  508.750    7.015    0.199    0.375   91.337  257.194
  509.000    6.981    0.204    0.371   92.690  256.896
  509.250    6.921    0.213    0.373   93.737  255.984
  509.500    6.887    0.203    0.384   92.516  255.173
  509.750    6.853    0.195    0.365   91.477  253.954
  510.000    6.806    0.188    0.379   90.929  253.041
  510.250    6.735    0.182    0.401   92.038  252.333
  510.500    6.689    0.178    0.380   93.821  251.932
  510.750    6.593    0.183    0.364   95.052  251.735
  511.000    6.725    0.191    0.362   94.198  251.743
  511.250    6.653    0.194    0.373   91.381  252.057
  511.500    6.486    0.196    0.371   86.295  252.167
  511.750    6.334    0.197    0.365   83.234  252.378
  512.000    6.254    0.196    0.359   84.404  252.590
  512.250    6.271    0.196    0.376   86.187  252.700
  512.500    6.288    0.193    0.386   87.417  252.809
  512.750    6.304    0.193    0.376   89.998  252.918
  513.000    6.368    0.202    0.365   91.964  253.028
  513.250    6.458    0.200    0.379   87.859  252.831
  513.500    6.487    0.197    0.391   85.718  252.634
  513.750    6.529    0.206    0.385   86.213  252.438
  514.000    6.571    0.201    0.384   87.812  252.445
  514.250    6.539    0.198    0.395   90.146  252.248
  514.500    6.458    0.197    0.410   92.482  251.847
  514.750    6.402    0.196    0.417   93.835  251.649
  515.000    6.335    0.191    0.392   95.863  251.555
  515.250    6.233    0.194    0.380   97.217  251.460
  515.500    6.075    0.205    0.387   90.967  251.467
  515.750    5.800    0.210    0.382   87.536  251.271
  516.000    5.333    0.202    0.377   89.994  251.176
  516.250    5.090    0.209    0.375   91.593  251.183
  516.500    4.778    0.229    0.381   90.248  251.498
  516.750    4.335    0.255    0.377   66.581  251.299
  517.000    3.926    0.288    0.370   51.193  251.307
  517.250    3.712    0.330    0.366   36.970  251.417
  517.500    3.954    0.294    0.351   45.253  251.731
  517.750    4.203    0.226    0.331   57.400  251.943
  518.000    4.501    0.195    0.322   69.363  251.952
  518.250    4.895    0.230    0.348   81.816  251.957
  518.500    5.077    0.264    0.358   73.787  251.762
  518.750    5.013    0.280    0.364   66.739  251.665
  519.000    4.662    0.293    0.369   61.470  251.571
  519.250    4.327    0.293    0.384   58.040  251.783
  519.500    4.154    0.287    0.384   57.125  251.994
  519.750    4.071    0.284    0.384   59.337  252.104
  520.000    4.029    0.284    0.371   62.591  252.316
  520.250    4.024    0.283    0.356   65.907  252.425
  520.500    3.982    0.282    0.349   68.242  252.535
  520.750    3.925    0.288    0.339   75.729  252.645
  521.000    3.855    0.277    0.326   88.979  252.448
  521.250    3.793    0.289    0.330  105.541  252.149
  521.500    3.711    0.302    0.344   93.465  251.645
  521.750    3.617    0.311    0.354   81.572  251.039
  522.000    3.485    0.311    0.344   72.623  250.537
  522.250    3.315    0.310    0.338   65.391  250.236
  522.500    3.171    0.312    0.344   64.108  250.244
  522.750    3.090    0.321    0.354   70.735  250.456
  523.000    3.035    0.324    0.371   76.320  250.566
  523.250    2.997    0.324    0.389   82.089  250.573
  523.500    2.983    0.326    0.382   66.394  250.580
  523.750    2.957    0.337    0.376   56.280  250.485
  524.000    2.943    0.338    0.368   49.110  250.186
  524.250    2.922    0.329    0.364   51.445  249.785
  524.500    2.892    0.319    0.358   45.011  249.384
  524.750    2.867    0.331    0.366   40.845  249.084
  525.000    2.837    0.341    0.379   38.825  248.887
  525.250    2.833    0.347    0.380   37.051  249.099
  525.500    2.798    0.343    0.374   34.970  249.209
  525.750    2.764    0.342    0.368   33.319  249.115
  526.000    2.735    0.345    0.362   31.852  248.815
  526.250    2.701    0.350    0.354   30.017  248.926
  526.500    2.658    0.352    0.341   29.530  248.829
  526.750    2.625    0.350    0.330   29.841  248.531
  527.000    2.588    0.344    0.328   31.808  249.153
  527.250    2.565    0.341    0.337   29.175  249.976
  527.500    2.552    0.336    0.344   26.543  251.415
  527.750    2.540    0.329    0.348   26.180  252.853
  528.000    2.532    0.324    0.351   27.349  253.576
  528.250    2.529    0.332    0.353   27.906  253.481
  528.500    2.513    0.334    0.354   25.887  252.876
  528.750    2.495    0.337    0.357   22.886  252.577
  529.000    2.469    0.339    0.366   21.051  252.278
  529.250    2.438    0.340    0.377   21.791  251.774
  529.500    2.426    0.341    0.391   24.249  250.656
  529.750    2.397    0.341    0.402   25.725  249.437
  530.000    2.394    0.340    0.380   24.993  248.524
  530.250    2.392    0.338    0.382   23.833  248.123
  530.500    2.380    0.332    0.374   22.426  248.642
  530.750    2.381    0.328    0.361   21.756  248.854
  531.000    2.387    0.323    0.349   24.336  248.350
  531.250    2.380    0.321    0.361   27.408  247.539
  531.500    2.386    0.326    0.367   28.515  247.445
  531.750    2.388    0.336    0.360   27.969  248.271
  532.000    2.390    0.341    0.351   27.850  249.096
  532.250    2.387    0.341    0.342   27.364  249.409
  532.500    2.371    0.337    0.333   26.510  249.520
  532.750    2.359    0.335    0.326   24.491  249.220
  533.000    2.339    0.344    0.322   23.698  248.818
  533.250    2.332    0.351    0.337   23.641  248.110
  533.500    2.321    0.346    0.355   24.258  247.504
  533.750    2.301    0.340    0.371   25.428  246.900
  534.000    2.285    0.345    0.377   26.598  246.803
  534.250    2.269    0.343    0.374   26.357  246.607
  534.500    2.246    0.338    0.371   25.871  246.614
  534.750    2.239    0.333    0.368   24.833  246.520
  535.000    2.212    0.345    0.370   23.672  246.628
  535.250    2.204    0.351    0.374   22.389  246.738
  535.500    2.185    0.352    0.385   21.044  246.950
  535.750    2.175    0.351    0.378   19.944  246.957
  536.000    2.156    0.352    0.373   19.581  246.965
  536.250    2.137    0.353    0.378   19.953  246.972
  536.500    2.115    0.351    0.384   21.245  246.776
  536.750    2.089    0.348    0.370   24.133  246.681
  537.000    2.071    0.345    0.362   26.161  246.484
  537.250    2.057    0.347    0.355   27.699  246.288
  537.500    2.043    0.352    0.352   29.052  245.887
  537.750    2.033    0.351    0.358   30.467  245.792
  538.000    2.008    0.351    0.376   32.005  245.492
  538.250    1.998    0.359    0.390   33.051  245.193
  538.500    1.996    0.368    0.392   33.178  244.587
  538.750    2.001    0.369    0.391   31.772  244.287
  539.000    2.002    0.367    0.385   30.244  243.988
  539.250    2.004    0.366    0.380   30.248  243.485
  539.500    2.055    0.399    0.373   32.706  243.288
  539.750    2.119    0.415    0.369   36.574  243.090
  540.000    2.174    0.387    0.428   39.828  244.119
  540.250    2.217    0.366    0.431   38.484  245.661
  540.500    2.235    0.355    0.403   36.096  246.486
  540.750    2.254    0.350    0.383   33.832  247.004
  541.000    2.251    0.351    0.379   35.430  247.115
  541.250    2.240    0.353    0.378   38.440  247.121
  541.500    2.238    0.355    0.361   41.266  247.129
  541.750    2.231    0.360    0.349   42.741  247.136
  542.000    2.245    0.361    0.354   38.453  246.735
  542.250    2.268    0.357    0.373   34.103  246.027
  542.500    2.313    0.363    0.392   29.509  245.727
  542.750    2.386    0.372    0.396   28.532  245.531
  543.000    2.461    0.360    0.384   28.721  245.333
  543.250    2.533    0.338    0.378   30.136  245.341
  543.500    2.998    0.302    0.367   32.163  245.757
  543.750    4.133    0.126    0.306   26.035  246.173
