~VERSION INFORMATION
 VERS.                 2.0:   CWLS LOG ASCII STANDARD -VERSION 2.0
 WRAP.                  NO:   ONE LINE PER DEPTH STEP
~WELL INFORMATION BLOCK
#MNEM.UNIT           DATA                    DESCRIPTION OF MNEMONIC
#---------    -------------------            -------------------------------
# Generated from Intellog Unique Number	nealta/WELL/2321
WELL.         AMOCO MISTAHAE                 : Well_name    - WELL
LOC .         11-26-078-01W5                 : Location     - LOCATION
UWI .         00/11-26-078-01W5/0            : Uwi          - UNIQUE WELL ID
ENTR.         MAX                            : Entered      - ENTERED BY
SRVC.         COMPUTALOG                     : Scn          - SERVICE COMPANY
STRT.M        285                            : top_depth    - START DEPTH
STOP.M        535                            : bot_depth    - STOP DEPTH
STEP.M        0.25                           : increment    - STEP LENGTH
 NULL. -999.2500:NULL Value
~CURVE INFORMATION BLOCK
#MNEM UNIT       ERCB CURVE CODE    CURVE DESCRIPTION
#-----------   ------------------   ----------------------------------
DEPT.M        00 001 00 00         : DEPTH        - DEPTH
CALI.MM       00 280 01 00         : CAL          - CALIPER
GR  .API      00 310 00 00         : GR           - GAMMA RAY
ILD .OHMM     00 120 00 00         : RESD         - DEEP RESISTIVITY (DIL)
NPHI.V/V      00 330 00 00         : PHIN         - NEUTRON POROSITY (SANDSTONE)
DPHI.V/V      00 890 00 00         : PHID         - DENSITY POROSITY (SANDSTONE)
~PARAMETER INFORMATION
#MNEM.UNIT           DATA             DESCRIPTION OF MNEMONIC
#---------         -----------     ------------------------------
GL  .M        587.78               : gl           - GROUND LEVEL ELEVATION
EREF.M        591.88               : kb           - ELEVATION OF DEPTH REFERENCE
DATM.M        587.78               : datum        - DATUM ELEVATION
TDD .M        535.31               : tdd          - TOTAL DEPTH DRILLER
RUN .         ONE                  : Run          - RUN NUMBER
ENG .         BILL                 : Engineer     - RECORDING ENGINEER
WIT .         JIM                  : Witness      - WITNESSED BY
MUD .         GEL                  : Mud_type     - MUD TYPE
MATR.         SANDSTONE            : Logunit      - NEUTRON MATRIX
TMAX.C        22                   : BHT          - MAXIMUM RECORDED TEMPERATURE
BHTD.M        535.31               : BHTDEP       - MAXIMUM RECORDED TEMPERATURE
RMT .C        14.3                 : MDTP         - TEMPERATURE OF MUD
MUDD.KG/M     1100                 : MWT          - MUD DENSITY
NEUT.         1                    : NEUTRON      - NEUTRON TYPE
RESI.         0                    : RESIST       - RESISTIVITY TYPE
RM  .OHMM     2.6                  : RM           - RESISTIVITY OF MUD
RMC .OHMM     3.5                  : RMC          - RESISTIVITY OF MUD CAKE
RMF .OHMM     2.4                  : RMF          - RESISTIVITY OF MUD FILTRATE
SUFT.C        -20                  : SUFT         - SURFACE TEMPERATURE
~A  DEPTH      CAL       GR     RESD     PHIN     PHID
# ...
  504.000  199.104   85.785    7.113    0.330    0.181
  504.250  199.529   95.330    6.728    0.308    0.207
  504.500  199.455   92.291    6.724    0.359    0.257
  504.750  200.370   90.749    6.905    0.373    0.259
  505.000  200.297   90.100    6.899    0.512    0.376
  505.250  200.713   78.969    6.708    0.600    0.354
  505.500  200.713   77.732    6.345    0.559    0.246
  505.750  200.556   79.784    6.113    0.309    0.140
  506.000  200.482   83.933    5.889    0.275    0.148
  506.250  200.907   88.975    5.570    0.366    0.183
  506.500  201.351   93.429    5.126    0.524    0.248
  506.750  201.777   95.181    5.029    0.529    0.211
  507.000  202.202   99.025    5.165    0.500    0.178
  507.250  202.609  107.372    5.402    0.480    0.167
  507.500  201.047  111.222    5.650    0.457    0.157
  507.750  199.975   90.501    5.910    0.431    0.136
  508.000  199.392   82.070    6.125    0.407    0.062
  508.250  200.816   77.528    6.176    0.263    0.032
  508.500  199.254   85.570    6.116    0.241    0.079
  508.750  197.174   99.314    5.628    0.385    0.168
  509.000  196.601  109.453    5.133    0.428    0.170
  509.250  198.025  117.501    4.855    0.435    0.148
  509.500  200.937  101.572    4.720    0.422    0.140
  509.750  201.852   98.532    4.760    0.406    0.124
  510.000  199.800   94.589    4.933    0.407    0.137
  510.250  194.226   89.154    5.207    0.333    0.140
  510.500  193.145   81.616    5.446    0.309    0.137
  510.750  195.558   75.582    5.908    0.310    0.161
  511.000  198.498   83.325    6.236    0.420    0.191
  511.250  201.909  103.658    6.463    0.435    0.188
  511.500  202.842   90.724    6.884    0.348    0.178
  511.750  203.268   96.969    7.333    0.375    0.215
  512.000  201.678   94.235    8.103    0.412    0.182
  512.250  200.098   83.403   10.649    0.301    0.044
  512.500  199.543   71.074   12.774    0.114    0.001
  512.750  199.959   60.841   14.374    0.077   -0.023
  513.000  200.384   50.608   13.473    0.090   -0.033
  513.250  200.311   44.867   11.632    0.103    0.035
  513.500  199.747   63.703    8.836    0.119    0.062
  513.750  200.163   97.813    8.058    0.211    0.096
  514.000  201.088  102.555    7.834    0.264    0.132
  514.250  200.505   93.526    7.972    0.318    0.167
  514.500  199.932   90.780    7.972    0.301    0.161
  514.750  199.868   92.239    8.033    0.266    0.176
  515.000  199.286   70.919    9.634    0.248    0.208
  515.250  199.212   68.473    9.541    0.256    0.228
  515.500  199.129   76.809    8.861    0.283    0.234
  515.750  200.044   83.659    8.007    0.314    0.215
  516.000  200.978   86.621    7.235    0.338    0.226
  516.250  201.412   91.369    6.970    0.368    0.229
  516.500  201.329   76.039    6.902    0.345    0.226
  516.750  199.767   69.705    7.088    0.306    0.221
  517.000  197.188   72.351    7.413    0.271    0.218
  517.250  198.612   74.403    7.683    0.309    0.191
  517.500  200.526   71.968    7.676    0.317    0.177
  517.750  199.962   64.131    7.464    0.303    0.204
  518.000  198.391   67.082    7.190    0.311    0.228
  518.250  197.818   67.931    6.927    0.321    0.231
  518.500  197.725   67.293    6.927    0.357    0.244
  518.750  198.160   69.645    6.666    0.329    0.212
  519.000  199.575   72.895    6.422    0.313    0.212
  519.250  200.000   71.054    6.245    0.303    0.201
  519.500  198.429   74.603    6.071    0.306    0.198
  519.750  197.366   79.052    6.011    0.293    0.192
  520.000  199.270   76.606    6.007    0.277    0.191
  520.250  202.700   88.542    6.007    0.262    0.182
  520.500  202.617   94.193    6.050    0.286    0.163
  520.750  201.554   89.956    6.047    0.281    0.149
  521.000  201.461   93.805    6.043    0.290    0.125
  521.250  201.388   99.152    5.927    0.295    0.158
  521.500  201.831   91.609    5.924    0.304    0.194
  521.750  201.758   89.773    5.811    0.338    0.220
  522.000  200.667  101.709    5.755    0.388    0.195
  522.250  200.593  115.747    5.698    0.339    0.155
  522.500  201.028  122.896    5.642    0.324    0.144
  522.750  201.444  115.059    5.637    0.317    0.161
  523.000  200.871  111.122    5.685    0.320    0.175
  523.250  200.298  102.686    5.731    0.305    0.165
  523.500  200.705   98.144    5.727    0.299    0.142
  523.750  201.648   95.099    5.671    0.293    0.146
  524.000  202.563   90.567    5.564    0.279    0.135
  524.250  202.489   87.223    5.458    0.278    0.067
  524.500  202.425   87.473    5.405    0.268    0.111
  524.750  203.349   86.535    5.351    0.300    0.133
  525.000  203.775   78.987    5.494    0.307    0.101
  525.250  203.193   81.050    5.593    0.288    0.139
  525.500  203.110   87.900    5.639    0.291    0.164
  525.750  203.036   93.846    5.584    0.297    0.177
  526.000  202.962   97.995    5.478    0.307    0.175
  526.250  202.897  100.940    5.326    0.330    0.174
  526.500  202.814   91.311    5.226    0.317    0.177
  526.750  203.240   85.577    5.221    0.319    0.181
  527.000  203.157   84.029    5.170    0.321    0.178
  527.250  203.083   83.985    5.026    0.318    0.176
  527.500  203.009   84.839    4.932    0.320    0.188
  527.750  202.926   92.887    4.707    0.348    0.190
  528.000  202.926  100.025    4.254    0.379    0.189
  528.250  202.769   99.088    3.706    0.420    0.190
  528.500  202.714  100.830    3.319    0.469    0.183
  528.750  202.622  102.588    3.139    0.496    0.203
  529.000  202.557   98.051    3.165    0.533    0.208
  529.250  202.492  100.403    3.251    0.511    0.202
  529.500  202.419  103.049    3.369    0.481    0.211
  529.750  202.336  103.298    3.397    0.431    0.203
  530.000  203.260  101.168    3.243    0.425    0.194
  530.250  203.177   93.931    2.487    0.503    0.201
  530.500  202.604   92.389    2.069    0.470    0.187
  530.750  202.530   94.741    2.087    0.465    0.002
  531.000  202.466   97.680    2.223    0.455    0.039
  531.250  202.373   99.144    2.412    0.438    0.183
  531.500  202.808   99.988    2.973    0.417    0.189
  531.750  203.233   98.451    3.255    0.406    0.186
  532.000  203.659  100.199    3.729    0.432    0.195
  532.250  204.084  102.251    3.761    0.432    0.197
  532.500  203.493  106.699    3.623    0.432    0.201
  532.750  203.437  103.665    3.365    0.416    0.201
  533.000  203.345   98.524    3.456    0.417    0.200
  533.250  203.780  107.171    3.615    0.435    0.196
  533.500  204.205  112.218    3.781    0.437    0.173
  533.750  204.131  111.874    3.883    0.411    0.149
  534.000  204.557  100.743    3.916    0.395    0.144
  534.250  204.973  106.389    3.913    0.407    0.142
  534.500  204.890  108.436    3.910    0.417    0.137
  534.750  204.807  104.803    3.906    0.424    0.138
  535.000  204.252   98.164    3.939    0.435    0.146
