~VERSION INFORMATION
 VERS.                 2.0:   CWLS LOG ASCII STANDARD -VERSION 2.0
 WRAP.                  NO:   ONE LINE PER DEPTH STEP
~WELL INFORMATION BLOCK
#MNEM.UNIT           DATA                    DESCRIPTION OF MNEMONIC
#---------    -------------------            -------------------------------
# Generated from Intellog Unique Number	CW_73_75/WELL/1039
WELL.         AMOCO 63 MARTEN HILLS 11-15    : Well_name    - WELL
LOC .         00/11-15-075-25W4/0            : Location     - LOCATION
UWI .         00/11-15-075-25W4/0            : Uwi          - UNIQUE WELL ID
ENTR.         JAYE                           : Entered      - ENTERED BY
SRVC.         SCHLUMBERGER                   : Scn          - SERVICE COMPANY
DATE.         6 MAR 75                       : Date         - LOG DATE
STRT.M        423.672                        : top_depth    - START DEPTH
STOP.M        632.672                        : bot_depth    - STOP DEPTH
STEP.M        0.25                           : increment    - STEP LENGTH
 NULL. -999.2500:NULL Value
~CURVE INFORMATION BLOCK
#MNEM UNIT       ERCB CURVE CODE    CURVE DESCRIPTION
#-----------   ------------------   ----------------------------------
DEPT.M        00 001 00 00         : DEPTH        - DEPTH
ILD .OHMM     00 120 00 00         : RESD         - DEEP RESISTIVITY (DIL)
NPHI.V/V      00 330 00 00         : PHIN         - NEUTRON POROSITY (SANDSTONE)
DPHI.V/V      00 890 00 00         : PHID         - DENSITY POROSITY (SANDSTONE)
GR  .API      00 310 00 00         : GR           - GAMMA RAY
CALI.MM       00 280 01 00         : CAL          - CALIPER
~PARAMETER INFORMATION
#MNEM.UNIT           DATA             DESCRIPTION OF MNEMONIC
#---------         -----------     ------------------------------
GL  .M        700.126              : gl           - GROUND LEVEL ELEVATION
EREF.M        704.088              : kb           - ELEVATION OF DEPTH REFERENCE
DATM.M        700.126              : datum        - DATUM ELEVATION
TDD .M        632.46               : tdd          - TOTAL DEPTH DRILLER
RUN .         ONE                  : Run          - RUN NUMBER
ENG .         SIMPSON              : Engineer     - RECORDING ENGINEER
WIT .         CAMPBELL             : Witness      - WITNESSED BY
BASE.         EDM                  : Branch       - HOME BASE OF LOGGING UNIT
MUD .         GEL                  : Mud_type     - MUD TYPE
MATR.         SANDSTONE            : Logunit      - NEUTRON MATRIX
TMAX.C        28.3333              : BHT          - MAXIMUM RECORDED TEMPERATURE
BHTD.M        633.679              : BHTDEP       - MAXIMUM RECORDED TEMPERATURE
RMT .C        16.1111              : MDTP         - TEMPERATURE OF MUD
MUDD.KG/M     1068                 : MWT          - MUD DENSITY
NEUT.         1                    : NEUTRON      - NEUTRON TYPE
RESI.         0                    : RESIST       - RESISTIVITY TYPE
RM  .OHMM     5.2                  : RM           - RESISTIVITY OF MUD
RMC .OHMM     0                    : RMC          - RESISTIVITY OF MUD CAKE
RMF .OHMM     6.39                 : RMF          - RESISTIVITY OF MUD FILTRATE
SUFT.C        -17.7778             : SUFT         - SURFACE TEMPERATURE
~A  DEPTH     RESD     PHIN     PHID       GR      CAL
# ...
  606.172    7.663    0.414    0.121   97.505  237.275
  606.422    7.462    0.399    0.139   97.099  237.212
  606.672    7.268    0.385    0.125   97.120  237.344
  606.922    7.273    0.403    0.100   97.508  237.586
  607.172    7.278    0.418    0.114   98.508  237.938
  607.422    7.416    0.414    0.128   98.529  237.659
  607.672    7.697    0.409    0.139   96.411  237.493
  607.922    7.914    0.409    0.142   93.563  237.011
  608.172    8.065    0.401    0.128   91.383  236.635
  608.422    7.998    0.374    0.093   86.149  236.257
  608.672    7.790    0.356    0.063   88.371  236.707
  608.922    7.654    0.378    0.009   93.342  238.912
  609.172    7.253    0.408    0.067   96.478  242.364
  609.422    6.392    0.393    0.098   91.184  239.088
  609.672    4.827    0.369    0.102   94.139  236.019
  609.922    3.515    0.408    0.088   99.354  235.642
  610.172    2.933    0.446    0.120  102.126  235.996
  610.422    2.562    0.480    0.168  101.109  236.237
  610.672    2.362    0.561    0.216  100.396  236.591
  610.922    2.519    0.566    0.231   99.562  236.720
  611.172    2.786    0.556    0.215   97.142  237.070
  611.422    3.166    0.542    0.206   94.902  237.208
  611.672    3.664    0.526    0.194   90.583  237.451
  611.922    5.039    0.501    0.168   87.857  237.598
  612.172    6.327    0.464    0.144   86.290  237.524
  612.422    7.945    0.441    0.109   84.293  237.253
  612.672   10.536    0.413    0.124   79.242  236.766
  612.922   13.720    0.380    0.103   73.276  231.734
  613.172   18.194    0.318    0.082   68.653  229.078
  613.422   32.856    0.282    0.163   40.506  227.773
  613.672   58.265    0.208    0.325   29.224  227.396
  613.922   80.858    0.154    0.360   27.230  227.224
  614.172   78.747    0.119    0.368   28.411  226.946
  614.422   70.027    0.122    0.366   29.349  226.468
  614.672   63.408    0.133    0.372   29.126  225.675
  614.922   55.887    0.141    0.368   29.882  225.299
  615.172   50.609    0.148    0.356   30.698  224.820
  615.422   45.826    0.150    0.344   31.390  224.752
  615.672   38.591    0.153    0.350   31.534  224.891
  615.922   29.677    0.161    0.363   32.106  224.823
  616.172   24.765    0.174    0.354   34.388  224.960
  616.422   20.111    0.183    0.356   37.158  224.895
  616.672   15.749    0.185    0.351   40.908  224.931
  616.922   12.111    0.201    0.341   43.006  225.188
  617.172    9.063    0.219    0.324   45.167  225.418
  617.422    7.097    0.257    0.296   47.448  225.766
  617.672    5.609    0.340    0.284   49.795  225.903
  617.922    4.767    0.374    0.272   51.279  225.834
  618.172    4.317    0.364    0.269   52.955  225.569
  618.422    4.128    0.356    0.275   53.646  225.185
  618.672    4.094    0.354    0.273   53.726  224.914
  618.922    4.134    0.356    0.263   52.465  224.645
  619.172    4.175    0.362    0.269   50.531  224.166
  619.422    4.254    0.360    0.271   48.110  223.688
  619.672    4.335    0.359    0.259   45.506  223.503
  619.922    4.418    0.379    0.255   43.935  222.917
  620.172    4.503    0.386    0.246   41.818  222.953
  620.422    4.549    0.387    0.240   40.005  222.991
  620.672    4.633    0.384    0.258   39.294  223.135
  620.922    4.764    0.379    0.257   40.784  223.271
  621.172    4.944    0.382    0.255   43.066  223.101
  621.422    5.370    0.388    0.269   45.835  223.655
  621.672    5.831    0.382    0.250   51.235  223.793
  621.922    6.390    0.373    0.246   55.351  224.139
  622.172    6.939    0.363    0.234   62.030  227.797
  622.422    7.957    0.357    0.199   75.861  233.421
  622.672    8.564    0.371    0.167   76.250  235.119
  622.922    8.649    0.371    0.144   72.972  233.183
  623.172    8.270    0.362    0.118   67.555  228.360
  623.422    7.696    0.348    0.136   65.498  225.811
  623.672    7.359    0.344    0.169   67.904  224.911
  623.922    6.911    0.362    0.193   70.490  224.119
  624.172    6.731    0.376    0.213   72.956  223.637
  624.422    6.675    0.380    0.227   69.924  223.263
  624.672    6.802    0.371    0.229   71.104  222.995
  624.922    7.058    0.374    0.210   80.841  222.817
  625.172    7.391    0.374    0.201   93.083  222.439
  625.422    7.810    0.367    0.198  104.164  222.473
  625.672    8.179    0.361    0.190   94.412  222.202
  625.922    8.566    0.353    0.196   82.210  222.137
  626.172    8.889    0.344    0.178   74.349  222.170
  626.422    9.224    0.336    0.160   66.551  222.517
  626.672    9.573    0.329    0.158   61.988  224.934
  626.922    9.666    0.340    0.150   57.854  229.005
  627.172    9.673    0.377    0.109   54.883  231.733
  627.422    9.506    0.405    0.124   53.682  234.151
  627.672    9.174    0.421    0.125   52.358  232.835
  627.922    8.934    0.370    0.126   50.486  232.149
  628.172    8.621    0.315    0.164   48.796  231.773
  628.422    8.396    0.288    0.150   47.657  231.806
  628.672    8.102    0.285    0.184   47.861  232.568
  628.922    7.819    0.296    0.171   48.801  233.017
  629.172    7.545    0.309    0.160   50.598  230.052
  629.422    7.281    0.325    0.193   51.958  209.292
  629.672    6.963    0.336    0.188   54.609  127.177
  629.922    6.719    0.342    0.177   56.278  127.177
  630.172    6.254    0.345    0.327   58.011  123.532
  630.422    5.926    0.347    0.235   59.437  161.430
  630.672    5.465    0.340    0.231   60.987  184.644
  630.922    5.179    0.325    0.230   62.908  224.410
  631.172    5.089    0.307    0.217   64.272  228.586
  631.422    5.046    0.295    0.235   65.391  229.759
  631.672    5.004    0.317    0.218   66.327  229.381
  631.922    4.963    0.338    0.209   67.511  226.830
  632.172    4.966    0.356    0.255   68.756  210.830
  632.422    4.970    0.372    0.283   69.693  207.040
  632.672    5.019    0.382    0.325   70.507  205.321
