~VERSION INFORMATION
 VERS.                 2.0:   CWLS LOG ASCII STANDARD -VERSION 2.0
 WRAP.                  NO:   ONE LINE PER DEPTH STEP
~WELL INFORMATION BLOCK
#MNEM.UNIT           DATA                    DESCRIPTION OF MNEMONIC
#---------    -------------------            -------------------------------
# Generated from Intellog Unique Number	CW_70_72/WELL/1073
NULL.         -999.25                        : NULL_VALUE
WELL.         CHEVRON MITSUE                 : Well_name    - WELL              
LOC .         16-11-072-04W5                 : Location     - LOCATION          
UWI .         02/16-11-072-04W5/0            : Uwi          - UNIQUE WELL ID    
ENTR.         JAYE                           : Entered      - ENTERED BY        
SRVC.         WESTERN ATLAS                  : Scn          - SERVICE COMPANY   
DATE.         10 MAR 86                      : Date         - LOG DATE          
STRT.M        460                            : top_depth    - START DEPTH       
STOP.M        695                            : bot_depth    - STOP DEPTH        
STEP.M        0.25                           : increment    - STEP LENGTH       
~CURVE INFORMATION BLOCK
#MNEM UNIT       ERCB CURVE CODE    CURVE DESCRIPTION
#-----------   ------------------   ----------------------------------
DEPT.M        00 001 00 00         : DEPTH        - DEPTH                       
DPHI.V/V      00 890 00 00         : PHID         - DENSITY POROSITY (SANDSTONE)
NPHI.V/V      00 330 00 00         : PHIN         - NEUTRON POROSITY (SANDSTONE)
GR  .API      00 310 00 00         : GR           - GAMMA RAY                   
CALI.MM       00 280 01 00         : CAL          - CALIPER                     
ILD .OHMM     00 120 00 00         : RESD         - DEEP RESISTIVITY (DIL)      
~PARAMETER INFORMATION       
#MNEM.UNIT           DATA             DESCRIPTION OF MNEMONIC
#---------         -----------     ------------------------------
GL  .M        659.91               : gl           - GROUND LEVEL ELEVATION      
EREF.M        663.41               : kb           - ELEVATION OF DEPTH REFERENCE
DATM.M        659.91               : datum        - DATUM ELEVATION             
TDD .M        693                  : tdd          - TOTAL DEPTH DRILLER         
RUN .         ONE                  : Run          - RUN NUMBER                  
ENG .         BARSS                : Engineer     - RECORDING ENGINEER          
WIT .         GUO                  : Witness      - WITNESSED BY                
BASE.         G.P.                 : Branch       - HOME BASE OF LOGGING UNIT   
MUD .         GEL CHEN             : Mud_type     - MUD TYPE                    
MATR.         SANDSTONE            : Logunit      - NEUTRON MATRIX              
TMAX.C        28                   : BHT          - MAXIMUM RECORDED TEMPERATURE
BHTD.M        692.9                : BHTDEP       - MAXIMUM RECORDED TEMPERATURE
RMT .C        17.8                 : MDTP         - TEMPERATURE OF MUD          
MUDD.KG/M     1185                 : MWT          - MUD DENSITY                 
NEUT.         1                    : NEUTRON      - NEUTRON TYPE                
RESI.         0                    : RESIST       - RESISTIVITY TYPE            
RM  .OHMM     4                    : RM           - RESISTIVITY OF MUD          
RMC .OHMM     3.55                 : RMC          - RESISTIVITY OF MUD CAKE     
RMF .OHMM     2.95                 : RMF          - RESISTIVITY OF MUD FILTRATE 
SUFT.C        32                   : SUFT         - SURFACE TEMPERATURE         
~A  DEPTH     PHID     PHIN       GR      CAL     RESD
# ...
  533.000    0.268    0.441   70.853  216.283    2.998
  533.250    0.255    0.398   73.376  216.819    3.031
  533.500    0.240    0.361   75.837  217.357    3.035
  533.750    0.262    0.387   76.285  217.893    3.044
  534.000    0.287    0.384   69.245  218.851    3.077
  534.250    0.296    0.423   63.023  219.386    3.133
  534.500    0.270    0.416   65.737  220.762    3.234
  534.750    0.278    0.376   69.142  221.296    3.413
  535.000    0.289    0.360   73.177  220.891    3.629
  535.250    0.231    0.374   76.706  219.434    3.838
  535.500    0.216    0.353   75.393  216.090    4.271
  535.750    0.242    0.319   71.121  213.797    4.823
  536.000    0.301    0.316   58.419  213.600    5.296
  536.250    0.334    0.326   55.532  213.820    5.654
  536.500    0.340    0.341   63.341  214.252    6.045
  536.750    0.335    0.353   62.972  214.579    6.216
  537.000    0.326    0.378   58.763  215.325    6.247
  537.250    0.308    0.391   59.840  215.549    6.127
  537.500    0.310    0.377   63.056  215.663    5.931
  537.750    0.311    0.356   63.190  215.887    5.655
  538.000    0.316    0.409   59.232  216.108    5.011
  538.250    0.329    0.418   57.793  216.227    4.465
  538.500    0.336    0.359   56.101  215.922    4.387
  538.750    0.330    0.396   54.348  215.935    4.605
  539.000    0.280    0.423   52.530  216.368    4.990
  539.250    0.162    0.345   49.076  216.065    5.407
  539.500    0.215    0.311   49.209  215.866    5.676
  539.750    0.338    0.391   54.880  215.566    5.845
  540.000    0.384    0.425   58.159  215.579    5.723
  540.250    0.367    0.447   58.922  215.591    5.426
  540.500    0.358    0.392   58.426  215.707    5.222
  540.750    0.356    0.354   58.055  215.613    5.054
  541.000    0.355    0.396   57.119  215.941    4.930
  541.250    0.354    0.418   55.490  215.954    4.826
  541.500    0.352    0.419   56.252  216.281    4.698
  541.750    0.352    0.425   58.839  216.398    4.591
  542.000    0.352    0.427   58.406  216.514    4.486
  542.250    0.352    0.412   58.728  216.526    4.342
  542.500    0.352    0.415   59.616  216.014    4.179
  542.750    0.334    0.433   61.889  214.978    3.992
  543.000    0.338    0.449   64.979  214.465    3.835
  543.250    0.348    0.431   62.470  213.851    3.841
  543.500    0.355    0.399   59.646  213.861    4.008
  543.750    0.357    0.394   61.919  213.872    4.544
  544.000    0.348    0.391   66.267  214.199    5.046
  544.250    0.331    0.361   67.092  214.738    5.753
  544.500    0.335    0.341   65.401  215.170    6.709
  544.750    0.348    0.321   62.514  215.285    7.635
  545.000    0.368    0.325   56.922  215.506    8.305
  545.250    0.376    0.345   49.567  215.834    8.700
  545.500    0.382    0.358   54.293  216.160    8.280
  545.750    0.387    0.332   65.752  216.594    6.171
  546.000    0.392    0.292   66.641  216.922    5.335
  546.250    0.398    0.293   62.621  217.352    4.270
  546.500    0.392    0.376   59.986  217.574    3.042
  546.750    0.348    0.377   59.993  218.006    2.449
  547.000    0.355    0.381   60.190  218.123    2.066
  547.250    0.351    0.402   60.259  218.344    1.974
  547.500    0.339    0.411   58.945  218.566    1.943
  547.750    0.349    0.454   57.254  218.579    1.923
  548.000    0.357    0.426   57.513  218.382    1.905
  548.250    0.363    0.397   60.730  218.394    1.918
  548.500    0.365    0.398   62.247  218.196    1.956
  548.750    0.362    0.404   61.625  218.207    1.974
  549.000    0.359    0.386   63.394  217.591    2.022
  549.250    0.354    0.384   63.842  217.499    2.102
  549.500    0.350    0.370   58.879  217.407    2.145
  549.750    0.347    0.354   54.859  217.419    2.189
  550.000    0.344    0.369   60.088  217.224    2.221
  550.250    0.334    0.380   59.593  217.336    2.236
  550.500    0.330    0.390   58.971  217.559    2.243
  550.750    0.325    0.357   59.419  217.676    2.263
  551.000    0.310    0.357   59.425  218.110    2.270
  551.250    0.313    0.401   62.139  218.330    2.286
  551.500    0.306    0.394   66.802  218.342    2.298
  551.750    0.293    0.391   70.836  220.138    2.279
  552.000    0.284    0.395   75.689  221.828    2.231
  552.250    0.282    0.398   82.680  222.468    2.197
  552.500    0.312    0.409   89.168  222.167    2.224
  552.750    0.299    0.440   84.771  221.445    2.270
  553.000    0.284    0.448   78.927  220.512    2.414
  553.250    0.249    0.384   75.977  221.050    2.606
  553.500    0.192    0.358   71.517  223.683    2.787
  553.750    0.151    0.350   66.553  227.680    2.618
  554.000    0.262    0.357   72.035  231.468    2.139
  554.250    0.299    0.439   82.487  234.415    1.825
  554.500    0.323    0.474   89.415  234.847    1.605
  554.750    0.312    0.465   95.211  233.077    1.319
  555.000    0.304    0.558   92.324  231.412    1.156
  555.250    0.327    0.610   91.451  230.900    1.121
  555.500    0.306    0.611   89.382  231.751    1.118
  555.750    0.272    0.586   91.214  234.701    1.122
  556.000    0.268    0.566   93.989  236.809    1.182
  556.250    0.291    0.549   95.381  240.702    1.310
  556.500    0.319    0.511   87.271  245.327    1.493
  556.750    0.330    0.506   85.266  240.306    1.693
  557.000    0.233    0.430   89.237  228.678    2.046
  557.250    0.168    0.324   89.937  223.867    2.478
  557.500    0.167    0.327   88.623  223.144    3.017
  557.750    0.206    0.364   88.441  223.891    3.545
  558.000    0.199    0.373   86.120  224.640    3.516
  558.250    0.174    0.361   82.164  225.492    3.391
  558.500    0.176    0.359   79.403  225.815    3.307
  558.750    0.168    0.372   78.781  226.144    3.281
  559.000    0.167    0.388   82.123  226.367    3.310
  559.250    0.172    0.389   81.061  226.378    3.473
  559.500    0.163    0.391   87.234  226.178    3.646
  559.750    0.148    0.439   85.731  225.247    3.936
  560.000    0.159    0.395   82.781  224.420    4.241
  560.250    0.181    0.382   84.487  222.230    4.639
  560.500    0.167    0.401   81.600  217.210    5.211
  560.750    0.157    0.416   78.525  214.495    5.918
  561.000    0.295    0.373   77.715  213.143    6.786
  561.250    0.326    0.333   77.597  212.319    7.693
  561.500    0.329    0.301   76.723  212.434    8.689
  561.750    0.331    0.276   75.660  212.551    9.469
  562.000    0.344    0.249   69.564  212.566   10.089
  562.250    0.356    0.235   69.257  212.473   10.372
  562.500    0.347    0.252   69.327  212.380   10.366
  562.750    0.341    0.265   68.517  212.499   10.302
  563.000    0.355    0.265   66.133  212.405   10.354
  563.250    0.372    0.250   61.987  212.207   10.565
  563.500    0.407    0.254   62.498  212.639   10.820
  563.750    0.401    0.260   65.148  212.964   10.916
  564.000    0.398    0.253   67.861  213.082   10.910
  564.250    0.397    0.239   61.702  213.094   10.639
  564.500    0.401    0.229   57.306  213.000   10.261
  564.750    0.411    0.235   58.760  212.700    9.619
  565.000    0.412    0.248   61.221  212.606    9.070
  565.250    0.395    0.257   58.271  212.617    8.518
  565.500    0.386    0.242   57.964  212.524    8.261
  565.750    0.381    0.263   62.438  212.647    8.041
  566.000    0.380    0.292   62.320  212.444    7.902
  566.250    0.397    0.286   58.678  212.667    7.692
  566.500    0.413    0.269   59.881  212.470    7.502
  566.750    0.409    0.246   61.461  212.379    7.289
  567.000    0.391    0.243   62.538  212.391    7.096
  567.250    0.378    0.264   65.062  212.508    6.868
  567.500    0.382    0.274   67.649  212.837    6.537
  567.750    0.373    0.290   71.809  213.266    6.094
  568.000    0.364    0.313   73.138  213.277    5.745
  568.250    0.356    0.326   65.406  213.498    5.624
  568.500    0.349    0.292   71.643  213.511    5.739
  568.750    0.337    0.273   67.183  213.522    6.079
  569.000    0.326    0.266   60.583  216.368    6.405
  569.250    0.295    0.253   55.432  217.742    6.342
