~VERSION INFORMATION
 VERS.                 2.0:   CWLS LOG ASCII STANDARD -VERSION 2.0
 WRAP.                  NO:   ONE LINE PER DEPTH STEP
~WELL INFORMATION BLOCK
#MNEM.UNIT           DATA                    DESCRIPTION OF MNEMONIC
#---------    -------------------            -------------------------------
# Generated from Intellog Unique Number	CW_70_72/WELL/1073
NULL.         -999.25                        : NULL_VALUE
WELL.         CHEVRON MITSUE                 : Well_name    - WELL              
LOC .         16-11-072-04W5                 : Location     - LOCATION          
UWI .         02/16-11-072-04W5/0            : Uwi          - UNIQUE WELL ID    
ENTR.         JAYE                           : Entered      - ENTERED BY        
SRVC.         WESTERN ATLAS                  : Scn          - SERVICE COMPANY   
DATE.         10 MAR 86                      : Date         - LOG DATE          
STRT.M        460                            : top_depth    - START DEPTH       
STOP.M        695                            : bot_depth    - STOP DEPTH        
STEP.M        0.25                           : increment    - STEP LENGTH       
~CURVE INFORMATION BLOCK
#MNEM UNIT       ERCB CURVE CODE    CURVE DESCRIPTION
#-----------   ------------------   ----------------------------------
DEPT.M        00 001 00 00         : DEPTH        - DEPTH                       
DPHI.V/V      00 890 00 00         : PHID         - DENSITY POROSITY (SANDSTONE)
NPHI.V/V      00 330 00 00         : PHIN         - NEUTRON POROSITY (SANDSTONE)
GR  .API      00 310 00 00         : GR           - GAMMA RAY                   
CALI.MM       00 280 01 00         : CAL          - CALIPER                     
ILD .OHMM     00 120 00 00         : RESD         - DEEP RESISTIVITY (DIL)      
~PARAMETER INFORMATION       
#MNEM.UNIT           DATA             DESCRIPTION OF MNEMONIC
#---------         -----------     ------------------------------
GL  .M        659.91               : gl           - GROUND LEVEL ELEVATION      
EREF.M        663.41               : kb           - ELEVATION OF DEPTH REFERENCE
DATM.M        659.91               : datum        - DATUM ELEVATION             
TDD .M        693                  : tdd          - TOTAL DEPTH DRILLER         
RUN .         ONE                  : Run          - RUN NUMBER                  
ENG .         BARSS                : Engineer     - RECORDING ENGINEER          
WIT .         GUO                  : Witness      - WITNESSED BY                
BASE.         G.P.                 : Branch       - HOME BASE OF LOGGING UNIT   
MUD .         GEL CHEN             : Mud_type     - MUD TYPE                    
MATR.         SANDSTONE            : Logunit      - NEUTRON MATRIX              
TMAX.C        28                   : BHT          - MAXIMUM RECORDED TEMPERATURE
BHTD.M        692.9                : BHTDEP       - MAXIMUM RECORDED TEMPERATURE
RMT .C        17.8                 : MDTP         - TEMPERATURE OF MUD          
MUDD.KG/M     1185                 : MWT          - MUD DENSITY                 
NEUT.         1                    : NEUTRON      - NEUTRON TYPE                
RESI.         0                    : RESIST       - RESISTIVITY TYPE            
RM  .OHMM     4                    : RM           - RESISTIVITY OF MUD          
RMC .OHMM     3.55                 : RMC          - RESISTIVITY OF MUD CAKE     
RMF .OHMM     2.95                 : RMF          - RESISTIVITY OF MUD FILTRATE 
SUFT.C        32                   : SUFT         - SURFACE TEMPERATURE         
~A  DEPTH     PHID     PHIN       GR      CAL     RESD
# ...
  606.000    0.248    0.324   88.663  215.450    7.079
  606.250    0.203    0.343   93.200  217.247    7.585
  606.500    0.180    0.362   91.382  217.049    8.082
  606.750    0.168    0.337   81.637  216.957    8.530
  607.000    0.174    0.323   79.254  217.597    8.836
  607.250    0.215    0.331   79.638  218.448    7.858
  607.500    0.195    0.346   83.043  219.824    6.386
  607.750    0.168    0.363   88.525  221.723    5.073
  608.000    0.148    0.368   89.413  224.147    4.153
  608.250    0.138    0.371   95.209  226.781    3.757
  608.500    0.134    0.385   97.922  228.472    3.664
  608.750    0.134    0.356   93.588  224.919    3.648
  609.000    0.138    0.369   96.427  225.457    3.715
  609.250    0.145    0.387   98.888  225.575    3.820
  609.500    0.156    0.382  101.034  226.006    3.890
  609.750    0.167    0.348  102.489  226.226    3.917
  610.000    0.163    0.337  100.483  226.133    3.893
  610.250    0.151    0.318   95.708  226.356    3.825
  610.500    0.160    0.357   89.801  226.997    3.710
  610.750    0.171    0.356   95.534  228.164    3.491
  611.000    0.177    0.335   99.316  229.118    3.193
  611.250    0.178    0.343   92.528  229.864    3.162
  611.500    0.174    0.352   93.228  231.241    3.232
  611.750    0.172    0.385   96.759  231.777    3.411
  612.000    0.180    0.417   98.717  230.635    3.594
  612.250    0.193    0.398   98.535  228.236    3.751
  612.500    0.218    0.416   92.125  226.361    3.893
  612.750    0.196    0.399   86.658  225.430    4.055
  613.000    0.176    0.363   90.567  225.022    4.129
  613.250    0.168    0.346   93.594  224.929    4.182
  613.500    0.170    0.332   96.747  225.151    4.242
  613.750    0.187    0.325   91.154  224.743    4.305
  614.000    0.201    0.326   89.904  224.022    4.467
  614.250    0.185    0.375   95.700  223.510    4.706
  614.500    0.167    0.389   96.588  222.683    5.062
  614.750    0.198    0.362   91.940  221.332    5.547
  615.000    0.231    0.343   87.164  220.819    5.888
  615.250    0.220    0.347   83.523  220.100    6.345
  615.500    0.206    0.343   83.404  219.377    7.275
  615.750    0.233    0.322   79.322  218.866    8.140
  616.000    0.269    0.314   70.394  218.456    8.689
  616.250    0.303    0.315   69.647  217.526    8.916
  616.500    0.304    0.320   70.535  217.013    8.827
  616.750    0.317    0.320   67.208  216.397    8.625
  617.000    0.312    0.321   66.083  216.093    8.381
  617.250    0.318    0.325   64.454  215.793    8.066
  617.500    0.325    0.331   61.567  215.489    7.882
  617.750    0.325    0.330   63.652  215.085    7.745
  618.000    0.316    0.318   66.112  214.884    7.525
  618.250    0.323    0.305   69.957  214.794    7.325
  618.500    0.336    0.292   69.524  214.805    7.157
  618.750    0.346    0.298   61.667  214.920    6.928
  619.000    0.356    0.323   60.478  215.040    6.783
  619.250    0.355    0.305   62.373  214.946    6.528
  619.500    0.352    0.298   66.848  215.275    6.248
  619.750    0.347    0.307   73.776  215.601    5.858
  620.000    0.339    0.308   61.829  215.925    5.481
  620.250    0.328    0.318   65.738  216.359    5.158
  620.500    0.328    0.333   67.506  216.476    4.772
  620.750    0.323    0.324   68.835  216.593    4.500
  621.000    0.314    0.311   71.359  216.919    4.250
  621.250    0.302    0.336   73.128  217.247    4.053
  621.500    0.307    0.358   73.137  217.469    3.842
  621.750    0.303    0.340   72.828  217.586    3.712
  622.000    0.293    0.344   71.766  217.597    3.607
  622.250    0.280    0.367   68.439  217.295    3.511
  622.500    0.267    0.344   62.406  216.888    3.444
  622.750    0.252    0.317   60.211  216.482    3.346
  623.000    0.257    0.367   62.987  216.180    3.263
  623.250    0.272    0.390   68.279  216.086    3.200
  623.500    0.278    0.392   74.138  215.995    3.157
  623.750    0.272    0.388   71.503  215.900    3.149
  624.000    0.276    0.368   72.329  215.811    3.177
  624.250    0.291    0.372   73.405  215.928    3.217
  624.500    0.293    0.381   73.287  216.147    3.222
  624.750    0.283    0.398   72.539  216.263    3.226
  625.000    0.271    0.399   68.466  220.472    3.242
  625.250    0.266    0.388   69.435  220.110    3.749
  625.500    0.271    0.378   70.028  219.530    3.787
  625.750    0.285    0.364   71.501  219.057    3.797
  626.000    0.287    0.349   71.716  218.687    3.805
  626.250    0.278    0.364   67.366  218.536    3.816
  626.500    0.270    0.378   63.889  218.789    3.832
  626.750    0.258    0.374   61.035  219.049    3.899
  627.000    0.261    0.375   62.004  219.417    3.953
  627.250    0.269    0.356   67.359  220.090    4.015
  627.500    0.267    0.404   73.651  220.559    4.071
  627.750    0.268    0.379   72.054  221.021    4.104
  628.000    0.271    0.341   66.823  221.812    4.115
  628.250    0.267    0.334   64.723  222.483    4.116
  628.500    0.260    0.342   72.460  223.158    4.118
  628.750    0.256    0.328   75.306  222.904    4.122
  629.000    0.268    0.349   73.522  222.216    4.131
  629.250    0.263    0.344   74.176  222.269    4.142
  629.500    0.258    0.393   75.397  222.627    4.159
  629.750    0.254    0.406   74.863  223.099    4.178
  630.000    0.248    0.395   72.137  223.145    4.188
  630.250    0.257    0.365   74.422  223.621    4.199
  630.500    0.266    0.344   77.334  223.662    4.209
  630.750    0.266    0.374   77.739  223.717    4.227
  631.000    0.263    0.366   76.328  223.780    4.278
  631.250    0.258    0.345   69.658  223.619    4.337
  631.500    0.265    0.338   71.253  223.448    4.389
  631.750    0.275    0.331   75.105  223.401    4.441
  632.000    0.271    0.360   80.210  222.936    4.503
  632.250    0.265    0.362   82.054  222.983    4.591
  632.500    0.256    0.354   77.010  223.021    4.725
  632.750    0.245    0.342   75.228  222.977    4.882
  633.000    0.232    0.320   77.823  223.124    5.139
  633.250    0.209    0.309   74.909  223.170    5.411
  633.500    0.194    0.336   68.362  223.439    5.859
  633.750    0.182    0.350   74.844  223.276    6.169
  634.000    0.175    0.335   78.257  223.325    6.470
  634.250    0.172    0.297   69.642  223.581    6.797
  634.500    0.168    0.307   69.234  223.427    7.074
  634.750    0.162    0.316   70.954  223.275    7.255
  635.000    0.153    0.301   71.175  223.107    7.453
  635.250    0.159    0.301   74.147  223.265    7.557
  635.500    0.166    0.325   71.048  223.727    7.546
  635.750    0.159    0.312   70.826  224.195    7.424
  636.000    0.156    0.300   76.056  225.200    7.114
  636.250    0.159    0.310   83.225  225.769    6.639
  636.500    0.165    0.335   89.270  226.126    6.091
  636.750    0.170    0.336   92.745  226.796    5.559
  637.000    0.168    0.349   96.034  228.003    4.977
  637.250    0.162    0.378   99.006  229.303    4.680
  637.500    0.179    0.385  100.602  231.028    4.853
  637.750    0.194    0.363   91.674  231.388    5.109
  638.000    0.170    0.333   95.588  230.389    5.461
  638.250    0.143    0.300   96.373  227.619    5.936
  638.500    0.121    0.295   94.521  223.914    6.660
  638.750    0.108    0.307   98.188  221.358    7.146
  639.000    0.098    0.301   98.091  220.046    7.493
  639.250    0.092    0.289   98.121  219.164    7.640
  639.500    0.103    0.285   93.889  219.001    7.602
  639.750    0.122    0.304   98.305  218.951    7.621
  640.000    0.139    0.327   98.903  218.581    7.728
  640.250    0.153    0.349   97.111  217.905    8.195
  640.500    0.163    0.340   88.624  217.221    8.890
  640.750    0.172    0.317   81.074  217.162    9.593
  641.000    0.183    0.288   71.081  218.051   10.388
  641.250    0.170    0.298   59.400  219.250   11.040
  641.500    0.159    0.317   62.623  220.449   10.380
  641.750    0.151    0.335   71.172  222.274    9.191
  642.000    0.179    0.351   86.928  223.995    7.971
  642.250    0.157    0.344   93.096  225.295    7.017
