~VERSION INFORMATION
 VERS.                 2.0:   CWLS LOG ASCII STANDARD -VERSION 2.0
 WRAP.                  NO:   ONE LINE PER DEPTH STEP
~WELL INFORMATION BLOCK
#MNEM.UNIT           DATA                    DESCRIPTION OF MNEMONIC
#---------    -------------------            -------------------------------
# Generated from Intellog Unique Number	CW_70_72/WELL/1073
NULL.         -999.25                        : NULL_VALUE
WELL.         CHEVRON MITSUE                 : Well_name    - WELL              
LOC .         16-11-072-04W5                 : Location     - LOCATION          
UWI .         02/16-11-072-04W5/0            : Uwi          - UNIQUE WELL ID    
ENTR.         JAYE                           : Entered      - ENTERED BY        
SRVC.         WESTERN ATLAS                  : Scn          - SERVICE COMPANY   
DATE.         10 MAR 86                      : Date         - LOG DATE          
STRT.M        460                            : top_depth    - START DEPTH       
STOP.M        695                            : bot_depth    - STOP DEPTH        
STEP.M        0.25                           : increment    - STEP LENGTH       
~CURVE INFORMATION BLOCK
#MNEM UNIT       ERCB CURVE CODE    CURVE DESCRIPTION
#-----------   ------------------   ----------------------------------
DEPT.M        00 001 00 00         : DEPTH        - DEPTH                       
DPHI.V/V      00 890 00 00         : PHID         - DENSITY POROSITY (SANDSTONE)
NPHI.V/V      00 330 00 00         : PHIN         - NEUTRON POROSITY (SANDSTONE)
GR  .API      00 310 00 00         : GR           - GAMMA RAY                   
CALI.MM       00 280 01 00         : CAL          - CALIPER                     
ILD .OHMM     00 120 00 00         : RESD         - DEEP RESISTIVITY (DIL)      
~PARAMETER INFORMATION       
#MNEM.UNIT           DATA             DESCRIPTION OF MNEMONIC
#---------         -----------     ------------------------------
GL  .M        659.91               : gl           - GROUND LEVEL ELEVATION      
EREF.M        663.41               : kb           - ELEVATION OF DEPTH REFERENCE
DATM.M        659.91               : datum        - DATUM ELEVATION             
TDD .M        693                  : tdd          - TOTAL DEPTH DRILLER         
RUN .         ONE                  : Run          - RUN NUMBER                  
ENG .         BARSS                : Engineer     - RECORDING ENGINEER          
WIT .         GUO                  : Witness      - WITNESSED BY                
BASE.         G.P.                 : Branch       - HOME BASE OF LOGGING UNIT   
MUD .         GEL CHEN             : Mud_type     - MUD TYPE                    
MATR.         SANDSTONE            : Logunit      - NEUTRON MATRIX              
TMAX.C        28                   : BHT          - MAXIMUM RECORDED TEMPERATURE
BHTD.M        692.9                : BHTDEP       - MAXIMUM RECORDED TEMPERATURE
RMT .C        17.8                 : MDTP         - TEMPERATURE OF MUD          
MUDD.KG/M     1185                 : MWT          - MUD DENSITY                 
NEUT.         1                    : NEUTRON      - NEUTRON TYPE                
RESI.         0                    : RESIST       - RESISTIVITY TYPE            
RM  .OHMM     4                    : RM           - RESISTIVITY OF MUD          
RMC .OHMM     3.55                 : RMC          - RESISTIVITY OF MUD CAKE     
RMF .OHMM     2.95                 : RMF          - RESISTIVITY OF MUD FILTRATE 
SUFT.C        32                   : SUFT         - SURFACE TEMPERATURE         
~A  DEPTH     PHID     PHIN       GR      CAL     RESD
# ...
  496.500    0.262    0.378   69.529  218.483    3.383
  496.750    0.273    0.433   66.704  215.665    3.060
  497.000    0.253    0.407   65.957  214.206    2.864
  497.250    0.227    0.358   66.719  212.647    2.994
  497.500    0.266    0.358   71.949  212.137    3.196
  497.750    0.289    0.369   79.003  213.091    3.707
  498.000    0.252    0.351   74.669  216.143    4.054
  498.250    0.219    0.323   57.437  218.777    4.114
  498.500    0.169    0.287   63.043  216.484    3.930
  498.750    0.212    0.326   72.238  215.131    3.615
  499.000    0.249    0.387   75.391  214.618    3.377
  499.250    0.267    0.419   72.755  214.844    3.095
  499.500    0.276    0.441   68.485  215.064    2.951
  499.750    0.280    0.433   69.183  215.180    2.829
  500.000    0.289    0.413   73.218  215.612    2.786
  500.250    0.301    0.395   73.666  215.626    2.779
  500.500    0.308    0.427   76.819  215.428    2.778
  500.750    0.293    0.434   77.205  215.441    2.771
  501.000    0.275    0.393   78.029  215.660    2.769
  501.250    0.272    0.386   83.510  215.988    2.762
  501.500    0.264    0.403   78.421  216.525    2.771
  501.750    0.251    0.406   78.743  217.061    2.775
  502.000    0.251    0.406   75.919  217.492    2.789
  502.250    0.246    0.392   83.162  216.666    2.793
  502.500    0.248    0.438   86.756  214.581    2.796
  502.750    0.258    0.428   82.233  213.440    2.811
  503.000    0.273    0.423   84.254  213.138    2.835
  503.250    0.285    0.440   84.261  212.941    2.871
  503.500    0.308    0.449   74.516  212.951    2.886
  503.750    0.324    0.454   73.831  212.965    2.906
  504.000    0.308    0.455   79.816  213.080    2.932
  504.250    0.291    0.444   75.671  212.989    2.930
  504.500    0.282    0.422   79.705  213.000    2.945
  504.750    0.285    0.427   77.761  213.223    2.938
  505.000    0.284    0.442   80.034  213.759    2.931
  505.250    0.285    0.420   84.760  214.192    2.929
  505.500    0.288    0.409   74.512  214.203    2.917
  505.750    0.295    0.407   65.144  214.531    2.887
  506.000    0.301    0.408   65.718  214.543    2.875
  506.250    0.293    0.416   64.467  214.346    2.868
  506.500    0.309    0.419   70.388  214.149    2.856
  506.750    0.325    0.431   69.453  213.950    2.854
  507.000    0.311    0.434   65.370  214.277    2.858
  507.250    0.312    0.394   67.643  214.603    2.862
  507.500    0.308    0.392   70.544  214.721    2.854
  507.750    0.293    0.419   75.710  215.153    2.864
  508.000    0.282    0.429   84.212  215.374    2.862
  508.250    0.285    0.425   84.156  215.176    2.849
  508.500    0.283    0.422   77.368  214.874    2.832
  508.750    0.285    0.412   73.978  214.887    2.804
  509.000    0.286    0.441   68.826  215.213    2.776
  509.250    0.289    0.430   63.737  215.749    2.743
  509.500    0.297    0.378   59.088  217.021    2.691
  509.750    0.311    0.385   55.509  217.035    2.634
  510.000    0.317    0.378   52.055  216.731    2.647
  510.250    0.314    0.394   58.670  215.905    2.758
  510.500    0.289    0.415   63.145  215.708    2.889
  510.750    0.282    0.443   68.374  215.614    3.066
  511.000    0.296    0.400   71.716  215.627    3.188
  511.250    0.302    0.416   72.856  215.638    3.210
  511.500    0.310    0.421   70.033  215.441    3.155
  511.750    0.319    0.396   66.264  214.928    3.118
  512.000    0.312    0.380   68.600  214.625    3.035
  512.250    0.307    0.401   70.935  214.218    2.937
  512.500    0.314    0.400   65.657  214.022    2.833
  512.750    0.310    0.372   61.512  213.404    2.778
  513.000    0.304    0.381   59.884  213.104    2.725
  513.250    0.316    0.371   58.696  212.904    2.744
  513.500    0.330    0.357   56.374  212.603    2.832
  513.750    0.334    0.389   56.319  212.405    2.983
  514.000    0.343    0.412   53.495  212.103    3.119
  514.250    0.375    0.440   49.852  211.803    3.225
  514.500    0.406    0.457   47.280  211.709    3.359
  514.750    0.399    0.479   44.645  211.510    3.434
  515.000    0.433    0.505   47.484  211.419    3.510
  515.250    0.450    0.500   43.464  211.642    3.423
  515.500    0.442    0.470   34.600  211.655    3.308
  515.750    0.432    0.444   36.369  211.770    3.089
  516.000    0.420    0.424   42.542  212.095    2.962
  516.250    0.401    0.410   45.067  212.107    2.905
  516.500    0.386    0.424   45.578  212.225    2.888
  516.750    0.391    0.455   42.439  212.236    2.891
  517.000    0.402    0.491   37.790  211.831    2.967
  517.250    0.397    0.453   37.231  212.576    3.078
  517.500    0.392    0.448   40.133  213.533    3.183
  517.750    0.411    0.474   44.041  214.279    3.347
  518.000    0.423    0.411   44.174  214.712    3.486
  518.250    0.419    0.409   41.162  215.038    3.632
  518.500    0.423    0.438   39.155  216.517    3.748
  518.750    0.469    0.484   41.616  220.199    3.911
  519.000    0.492    0.502   57.605  225.140    4.021
  519.250    0.427    0.469   76.551  229.138    4.102
  519.500    0.277    0.440   91.596  230.723    4.210
  519.750    0.326    0.415   83.614  222.136    4.410
  520.000    0.321    0.391   77.958  220.157    4.824
  520.250    0.312    0.357   70.729  214.820    5.798
  520.500    0.386    0.295   66.395  214.309    6.761
  520.750    0.406    0.265   65.899  214.215    7.855
  521.000    0.396    0.263   65.969  214.334    8.739
  521.250    0.399    0.287   70.004  214.765    9.086
  521.500    0.386    0.301   72.276  214.987    8.486
  521.750    0.366    0.289   68.887  215.103    7.778
  522.000    0.371    0.263   65.181  215.326    6.725
  522.250    0.386    0.239   65.062  215.760    5.815
  522.500    0.367    0.306   68.216  216.191    5.009
  522.750    0.354    0.331   63.819  216.307    4.132
  523.000    0.348    0.359   59.422  216.952    3.480
  523.250    0.345    0.384   60.499  216.960    3.026
  523.500    0.344    0.380   63.526  217.393    2.742
  523.750    0.341    0.389   66.050  217.408    2.634
  524.000    0.337    0.378   64.799  217.416    2.588
  524.250    0.335    0.374   62.856  217.115    2.611
  524.500    0.332    0.397   63.367  216.918    2.630
  524.750    0.333    0.420   67.023  216.612    2.673
  525.000    0.337    0.446   65.521  216.626    2.707
  525.250    0.339    0.416   60.117  216.427    2.751
  525.500    0.340    0.390   57.544  216.338    2.792
  525.750    0.338    0.387   56.482  216.349    2.870
  526.000    0.334    0.358   52.777  216.360    2.939
  526.250    0.326    0.366   52.659  216.266    2.988
  526.500    0.311    0.393   53.295  215.964    3.124
  526.750    0.280    0.416   56.826  215.347    3.254
  527.000    0.318    0.429   62.119  214.521    3.487
  527.250    0.340    0.417   61.182  214.639    3.807
  527.500    0.335    0.393   56.848  214.547    4.308
  527.750    0.315    0.386   59.562  214.978    4.903
  528.000    0.306    0.405   58.310  215.199    5.185
  528.250    0.304    0.393   56.870  215.738    5.390
  528.500    0.314    0.371   55.620  216.483    5.636
  528.750    0.321    0.358   54.053  217.123    5.905
  529.000    0.323    0.353   58.968  218.709    7.016
  529.250    0.315    0.303   61.241  219.875    8.544
  529.500    0.206    0.228   55.334  219.886   10.523
  529.750    0.068    0.195   50.748  217.696   11.774
  530.000    0.074    0.202   48.616  215.506   11.142
  530.250    0.124    0.278   55.734  213.423    8.720
  530.500    0.174    0.311   59.264  212.805    6.966
  530.750    0.218    0.364   61.222  212.607    5.085
  531.000    0.274    0.431   64.186  212.516    4.355
  531.250    0.293    0.435   70.297  212.423    3.816
  531.500    0.298    0.394   74.394  212.751    3.368
  531.750    0.300    0.368   76.163  212.973    3.146
  532.000    0.295    0.403   75.101  213.507    3.085
  532.250    0.287    0.444   72.466  214.358    3.037
  532.500    0.268    0.408   70.271  215.525    3.007
  532.750    0.254    0.416   69.272  216.167    3.000
