~VERSION INFORMATION
 VERS.                 2.0:   CWLS LOG ASCII STANDARD -VERSION 2.0
 WRAP.                  NO:   ONE LINE PER DEPTH STEP
~WELL INFORMATION BLOCK
#MNEM.UNIT           DATA                    DESCRIPTION OF MNEMONIC
#---------    -------------------            -------------------------------
# Generated from Intellog Unique Number	CW_70_72/WELL/1073
NULL.         -999.25                        : NULL_VALUE
WELL.         CHEVRON MITSUE                 : Well_name    - WELL              
LOC .         16-11-072-04W5                 : Location     - LOCATION          
UWI .         02/16-11-072-04W5/0            : Uwi          - UNIQUE WELL ID    
ENTR.         JAYE                           : Entered      - ENTERED BY        
SRVC.         WESTERN ATLAS                  : Scn          - SERVICE COMPANY   
DATE.         10 MAR 86                      : Date         - LOG DATE          
STRT.M        460                            : top_depth    - START DEPTH       
STOP.M        695                            : bot_depth    - STOP DEPTH        
STEP.M        0.25                           : increment    - STEP LENGTH       
~CURVE INFORMATION BLOCK
#MNEM UNIT       ERCB CURVE CODE    CURVE DESCRIPTION
#-----------   ------------------   ----------------------------------
DEPT.M        00 001 00 00         : DEPTH        - DEPTH                       
DPHI.V/V      00 890 00 00         : PHID         - DENSITY POROSITY (SANDSTONE)
NPHI.V/V      00 330 00 00         : PHIN         - NEUTRON POROSITY (SANDSTONE)
GR  .API      00 310 00 00         : GR           - GAMMA RAY                   
CALI.MM       00 280 01 00         : CAL          - CALIPER                     
ILD .OHMM     00 120 00 00         : RESD         - DEEP RESISTIVITY (DIL)      
~PARAMETER INFORMATION       
#MNEM.UNIT           DATA             DESCRIPTION OF MNEMONIC
#---------         -----------     ------------------------------
GL  .M        659.91               : gl           - GROUND LEVEL ELEVATION      
EREF.M        663.41               : kb           - ELEVATION OF DEPTH REFERENCE
DATM.M        659.91               : datum        - DATUM ELEVATION             
TDD .M        693                  : tdd          - TOTAL DEPTH DRILLER         
RUN .         ONE                  : Run          - RUN NUMBER                  
ENG .         BARSS                : Engineer     - RECORDING ENGINEER          
WIT .         GUO                  : Witness      - WITNESSED BY                
BASE.         G.P.                 : Branch       - HOME BASE OF LOGGING UNIT   
MUD .         GEL CHEN             : Mud_type     - MUD TYPE                    
MATR.         SANDSTONE            : Logunit      - NEUTRON MATRIX              
TMAX.C        28                   : BHT          - MAXIMUM RECORDED TEMPERATURE
BHTD.M        692.9                : BHTDEP       - MAXIMUM RECORDED TEMPERATURE
RMT .C        17.8                 : MDTP         - TEMPERATURE OF MUD          
MUDD.KG/M     1185                 : MWT          - MUD DENSITY                 
NEUT.         1                    : NEUTRON      - NEUTRON TYPE                
RESI.         0                    : RESIST       - RESISTIVITY TYPE            
RM  .OHMM     4                    : RM           - RESISTIVITY OF MUD          
RMC .OHMM     3.55                 : RMC          - RESISTIVITY OF MUD CAKE     
RMF .OHMM     2.95                 : RMF          - RESISTIVITY OF MUD FILTRATE 
SUFT.C        32                   : SUFT         - SURFACE TEMPERATURE         
~A  DEPTH     PHID     PHIN       GR      CAL     RESD
# ...
  642.500    0.132    0.330   96.698  226.181    6.561
  642.750    0.128    0.320   96.536  224.773    6.676
  643.000    0.151    0.335   92.620  222.638    6.963
  643.250    0.154    0.339   84.696  222.574    7.181
  643.500    0.156    0.348   79.715  223.358    7.402
  643.750    0.151    0.324   87.513  224.243    7.395
  644.000    0.139    0.302   84.724  225.023    7.274
  644.250    0.131    0.324   77.362  226.228    7.142
  644.500    0.124    0.354   86.664  226.683    7.148
  644.750    0.136    0.333   88.323  226.842    7.273
  645.000    0.137    0.323   84.972  224.801    7.459
  645.250    0.132    0.312   85.627  222.971    7.748
  645.500    0.120    0.298   88.852  224.174    7.931
  645.750    0.119    0.304   91.388  225.474    8.162
  646.000    0.131    0.319   93.359  225.637    8.335
  646.250    0.143    0.335   93.450  225.052    8.406
  646.500    0.143    0.354   88.721  224.378    8.441
  646.750    0.134    0.351   94.015  224.111    8.431
  647.000    0.127    0.319   96.735  223.949    8.310
  647.250    0.122    0.297   97.770  224.212    8.082
  647.500    0.114    0.306   99.802  224.573    7.849
  647.750    0.101    0.310   97.326  225.039    7.242
  648.000    0.072    0.309  100.995  226.031    5.739
  648.250    0.112    0.321  105.029  227.338    3.788
  648.500    0.146    0.349  109.507  228.536    2.562
  648.750    0.180    0.388  103.024  229.732    2.210
  649.000    0.227    0.490   99.420  231.553    1.815
  649.250    0.248    0.545   95.754  232.753    1.448
  649.500    0.261    0.592   92.840  232.389    1.297
  649.750    0.261    0.508   98.697  231.606    1.278
  650.000    0.252    0.439  102.862  230.717    1.501
  650.250    0.236    0.441  103.705  230.040    1.714
  650.500    0.226    0.407  100.727  229.456    1.997
  650.750    0.227    0.402   99.006  228.877    2.296
  651.000    0.220    0.439  100.350  228.198    2.758
  651.250    0.201    0.420  103.013  227.830    3.208
  651.500    0.156    0.377  103.045  226.846    3.904
  651.750    0.114    0.329   97.247  225.845    4.841
  652.000    0.108    0.302   88.944  224.437    5.770
  652.250    0.132    0.350   95.242  223.342    6.155
  652.500    0.076    0.339   97.337  222.973    6.158
  652.750    0.065    0.346  101.061  222.712    6.126
  653.000    0.058    0.353   99.776  222.753    6.039
  653.250    0.076    0.319   89.721  223.430    5.942
  653.500    0.120    0.317   91.821  223.898    6.103
  653.750    0.141    0.322   95.609  224.267    6.270
  654.000    0.119    0.322   99.584  224.624    6.477
  654.250    0.095    0.319  102.495  225.516    6.704
  654.500    0.105    0.313   99.331  226.814    6.837
  654.750    0.086    0.293   89.025  230.522    6.828
  655.000    0.058    0.311   81.225  235.684    6.348
  655.250    0.121    0.319   91.154  245.970    5.444
  655.500    0.148    0.344   95.129  255.624    5.052
  655.750    0.179    0.395   91.150  244.502    4.895
  656.000    0.167    0.412   95.504  233.798    4.943
  656.250    0.137    0.373   99.166  227.374    5.031
  656.500    0.112    0.331   98.131  221.159    5.199
  656.750    0.074    0.304   89.017  218.495    5.381
  657.000    0.045    0.291   90.487  223.563    5.528
  657.250    0.091    0.316  100.664  229.664    5.786
  657.500    0.122    0.346  107.711  233.366    6.148
  657.750    0.165    0.385  102.729  224.021    6.622
  658.000    0.112    0.333   96.433  220.319    7.237
  658.250    0.077    0.301   94.585  219.744    7.562
  658.500    0.041    0.270   88.162  220.421    7.783
  658.750    0.062    0.273   94.395  221.618    6.904
  659.000    0.087    0.288  104.821  222.392    6.493
  659.250    0.104    0.306  109.988  221.819    6.708
  659.500    0.116    0.320  109.895  221.143    7.236
  659.750    0.127    0.330  105.852  219.726    8.369
  660.000    0.138    0.283   92.164  218.527   10.695
  660.250    0.167    0.251   80.982  217.751   12.488
  660.500    0.203    0.220   65.727  217.068   15.279
  660.750    0.295    0.208   54.671  216.387   17.021
  661.000    0.325    0.204   46.183  215.801   16.683
  661.250    0.327    0.224   43.207  215.548   13.168
  661.500    0.319    0.249   46.307  215.486   12.477
  661.750    0.296    0.259   51.161  215.546   13.359
  662.000    0.292    0.234   54.697  215.900   14.960
  662.250    0.292    0.239   53.037  216.473   15.958
  662.500    0.132    0.244   49.120  217.146   16.736
  662.750    0.091    0.203   40.757  217.508   17.166
  663.000    0.068    0.169   33.583  217.874   17.437
  663.250    0.047    0.171   35.242  218.450   17.381
  663.500    0.038    0.168   33.582  218.818   16.971
  663.750    0.042    0.170   31.731  219.392   16.445
  664.000    0.046    0.171   32.011  220.056   16.180
  664.250    0.045    0.166   34.427  220.631   15.975
  664.500    0.046    0.155   38.524  220.887   15.777
  664.750    0.048    0.150   40.996  221.255   15.515
  665.000    0.048    0.155   38.335  221.095   15.351
  665.250    0.045    0.165   39.178  221.038   15.074
  665.500    0.041    0.176   40.211  220.368   14.915
  665.750    0.036    0.179   41.810  220.111   14.510
  666.000    0.032    0.183   43.404  219.936   13.851
  666.250    0.034    0.186   45.001  219.372   13.272
  666.500    0.036    0.181   47.410  219.099   12.911
  666.750    0.046    0.179   52.264  219.046   12.747
  667.000    0.057    0.192   55.300  219.199   12.635
  667.250    0.061    0.191   47.375  219.247   12.524
  667.500    0.059    0.177   45.023  219.412   12.436
  667.750    0.058    0.193   49.250  219.353   12.441
  668.000    0.064    0.197   46.713  219.294   12.448
  668.250    0.058    0.194   49.814  219.147   12.504
  668.500    0.052    0.190   54.666  219.189   12.610
  668.750    0.051    0.185   53.007  219.762   12.853
  669.000    0.050    0.192   48.966  220.337   13.011
  669.250    0.053    0.184   45.612  220.484   13.339
  669.500    0.054    0.175   46.267  221.580   13.627
  669.750    0.050    0.167   44.293  221.646   13.892
  670.000    0.045    0.165   43.635  221.692   14.004
  670.250    0.046    0.169   43.915  222.052   14.016
  670.500    0.049    0.177   43.323  222.105   14.075
  670.750    0.054    0.180   43.975  222.058   14.005
  671.000    0.062    0.188   45.822  221.986   13.957
  671.250    0.074    0.197   50.237  221.617   13.784
  671.500    0.084    0.201   53.274  221.466   13.584
  671.750    0.078    0.200   57.313  220.988   13.443
  672.000    0.065    0.194   58.908  221.047   13.247
  672.250    0.053    0.189   59.381  221.191   13.208
  672.500    0.049    0.198   54.711  221.142   13.089
  672.750    0.057    0.195   53.114  221.085   12.998
  673.000    0.049    0.190   53.079  221.347   12.935
  673.250    0.041    0.189   57.808  221.505   12.869
  673.500    0.053    0.195   60.656  221.662   12.828
  673.750    0.058    0.195   63.003  221.928   12.789
  674.000    0.063    0.190   61.592  222.068   12.941
  674.250    0.071    0.192   57.177  222.642   13.095
  674.500    0.086    0.199   54.325  223.214   13.202
  674.750    0.081    0.201   48.340  223.676   13.230
  675.000    0.071    0.201   52.068  224.461   13.189
  675.250    0.064    0.196   53.913  224.196   13.199
  675.500    0.061    0.183   49.998  224.350   13.180
  675.750    0.060    0.186   49.026  224.195   13.240
  676.000    0.062    0.201   48.618  223.934   13.372
  676.250    0.062    0.197   49.273  223.776   13.480
  676.500    0.054    0.192   54.692  223.511   13.589
  676.750    0.054    0.201   58.353  223.669   13.626
  677.000    0.048    0.178   52.433  223.722   13.707
  677.250    0.062    0.175   52.401  223.774   13.743
  677.500    0.058    0.188   52.060  223.819   13.698
  677.750    0.055    0.180   50.143  223.867   13.683
  678.000    0.070    0.183   52.491  223.811   13.715
  678.250    0.069    0.186   55.656  223.765   13.669
  678.500    0.064    0.177   59.069  223.704   13.603
  678.750    0.063    0.184   62.355  223.651   13.532
