~VERSION INFORMATION
 VERS.                 2.0:   CWLS LOG ASCII STANDARD -VERSION 2.0
 WRAP.                  NO:   ONE LINE PER DEPTH STEP
~WELL INFORMATION BLOCK
#MNEM.UNIT           DATA                    DESCRIPTION OF MNEMONIC
#---------    -------------------            -------------------------------
# Generated from Intellog Unique Number	CW_70_72/WELL/1073
NULL.         -999.25                        : NULL_VALUE
WELL.         CHEVRON MITSUE                 : Well_name    - WELL              
LOC .         16-11-072-04W5                 : Location     - LOCATION          
UWI .         02/16-11-072-04W5/0            : Uwi          - UNIQUE WELL ID    
ENTR.         JAYE                           : Entered      - ENTERED BY        
SRVC.         WESTERN ATLAS                  : Scn          - SERVICE COMPANY   
DATE.         10 MAR 86                      : Date         - LOG DATE          
STRT.M        460                            : top_depth    - START DEPTH       
STOP.M        695                            : bot_depth    - STOP DEPTH        
STEP.M        0.25                           : increment    - STEP LENGTH       
~CURVE INFORMATION BLOCK
#MNEM UNIT       ERCB CURVE CODE    CURVE DESCRIPTION
#-----------   ------------------   ----------------------------------
DEPT.M        00 001 00 00         : DEPTH        - DEPTH                       
DPHI.V/V      00 890 00 00         : PHID         - DENSITY POROSITY (SANDSTONE)
NPHI.V/V      00 330 00 00         : PHIN         - NEUTRON POROSITY (SANDSTONE)
GR  .API      00 310 00 00         : GR           - GAMMA RAY                   
CALI.MM       00 280 01 00         : CAL          - CALIPER                     
ILD .OHMM     00 120 00 00         : RESD         - DEEP RESISTIVITY (DIL)      
~PARAMETER INFORMATION       
#MNEM.UNIT           DATA             DESCRIPTION OF MNEMONIC
#---------         -----------     ------------------------------
GL  .M        659.91               : gl           - GROUND LEVEL ELEVATION      
EREF.M        663.41               : kb           - ELEVATION OF DEPTH REFERENCE
DATM.M        659.91               : datum        - DATUM ELEVATION             
TDD .M        693                  : tdd          - TOTAL DEPTH DRILLER         
RUN .         ONE                  : Run          - RUN NUMBER                  
ENG .         BARSS                : Engineer     - RECORDING ENGINEER          
WIT .         GUO                  : Witness      - WITNESSED BY                
BASE.         G.P.                 : Branch       - HOME BASE OF LOGGING UNIT   
MUD .         GEL CHEN             : Mud_type     - MUD TYPE                    
MATR.         SANDSTONE            : Logunit      - NEUTRON MATRIX              
TMAX.C        28                   : BHT          - MAXIMUM RECORDED TEMPERATURE
BHTD.M        692.9                : BHTDEP       - MAXIMUM RECORDED TEMPERATURE
RMT .C        17.8                 : MDTP         - TEMPERATURE OF MUD          
MUDD.KG/M     1185                 : MWT          - MUD DENSITY                 
NEUT.         1                    : NEUTRON      - NEUTRON TYPE                
RESI.         0                    : RESIST       - RESISTIVITY TYPE            
RM  .OHMM     4                    : RM           - RESISTIVITY OF MUD          
RMC .OHMM     3.55                 : RMC          - RESISTIVITY OF MUD CAKE     
RMF .OHMM     2.95                 : RMF          - RESISTIVITY OF MUD FILTRATE 
SUFT.C        32                   : SUFT         - SURFACE TEMPERATURE         
~A  DEPTH     PHID     PHIN       GR      CAL     RESD
# ...
  569.500    0.247    0.243   53.614  213.769    5.577
  569.750    0.172    0.263   52.552  210.950    4.532
  570.000    0.142    0.361   52.559  210.229    3.513
  570.250    0.233    0.388   53.322  211.394    3.055
  570.500    0.267    0.390   54.964  212.979    2.753
  570.750    0.292    0.404   59.565  214.146    2.977
  571.000    0.313    0.414   60.327  215.312    3.357
  571.250    0.254    0.330   55.993  216.688    3.863
  571.500    0.212    0.294   54.553  217.852    4.404
  571.750    0.165    0.275   56.197  218.495    5.002
  572.000    0.147    0.265   61.238  217.457    5.330
  572.250    0.143    0.273   57.219  215.582    4.913
  572.500    0.143    0.292   53.765  214.022    4.184
  572.750    0.161    0.308   58.491  213.090    3.413
  573.000    0.202    0.328   64.350  212.683    3.076
  573.250    0.251    0.356   66.371  212.694    2.862
  573.500    0.303    0.383   62.099  212.706    2.683
  573.750    0.310    0.391   58.144  213.560    2.549
  574.000    0.320    0.378   56.263  214.094    2.417
  574.250    0.337    0.359   59.417  214.317    2.383
  574.500    0.340    0.370   60.494  214.748    2.478
  574.750    0.296    0.385   60.878  214.551    2.863
  575.000    0.268    0.380   61.956  213.828    3.240
  575.250    0.281    0.369   63.158  213.317    3.666
  575.500    0.292    0.397   63.543  212.911    4.094
  575.750    0.254    0.355   63.424  212.400    4.774
  576.000    0.217    0.327   59.971  211.991    5.495
  576.250    0.177    0.286   58.090  211.268    5.440
  576.500    0.178    0.291   59.420  210.337    4.766
  576.750    0.202    0.330   63.076  209.196    4.335
  577.000    0.262    0.354   69.186  208.263    4.042
  577.250    0.274    0.390   70.515  207.332    3.622
  577.500    0.282    0.413   68.950  206.298    3.434
  577.750    0.279    0.414   67.825  205.785    3.287
  578.000    0.278    0.420   67.202  205.062    3.443
  578.250    0.284    0.415   71.237  204.445    3.738
  578.500    0.290    0.394   74.579  204.248    4.159
  578.750    0.277    0.427   71.441  204.260    4.627
  579.000    0.250    0.377   69.371  204.691    5.071
  579.250    0.228    0.347   69.945  205.334    5.126
  579.500    0.189    0.318   68.694  205.975    4.760
  579.750    0.153    0.280   65.933  206.512    3.986
  580.000    0.155    0.311   67.702  206.943    3.473
  580.250    0.174    0.354   67.080  207.269    3.025
  580.500    0.210    0.391   65.326  207.806    2.847
  580.750    0.247    0.383   68.353  208.342    2.751
  581.000    0.251    0.357   75.155  208.567    2.698
  581.250    0.248    0.385   79.630  209.207    2.815
  581.500    0.238    0.416   77.183  209.429    2.944
  581.750    0.233    0.390   71.088  209.754    3.136
  582.000    0.240    0.401   72.039  209.976    3.255
  582.250    0.236    0.385   73.934  210.620    3.327
  582.500    0.228    0.347   76.835  211.050    3.382
  582.750    0.223    0.361   79.926  211.376    3.355
  583.000    0.214    0.376   82.199  211.600    3.266
  583.250    0.208    0.345   83.527  211.925    3.132
  583.500    0.232    0.364   82.024  212.254    2.975
  583.750    0.251    0.371   73.663  212.371    2.929
  584.000    0.264    0.319   69.266  212.802    2.916
  584.250    0.271    0.323   74.370  213.025    2.909
  584.500    0.263    0.359   76.140  213.349    2.924
  584.750    0.253    0.375   77.594  213.889    2.961
  585.000    0.251    0.378   79.300  214.111    2.993
  585.250    0.271    0.373   79.497  214.331    3.048
  585.500    0.275    0.365   81.013  214.553    3.116
  585.750    0.263    0.367   78.442  214.774    3.233
  586.000    0.249    0.381   74.107  215.206    3.355
  586.250    0.253    0.356   75.877  215.637    3.462
  586.500    0.259    0.383   81.106  216.279    3.579
  586.750    0.249    0.400   85.643  216.711    3.673
  587.000    0.230    0.378   84.015  216.303    3.776
  587.250    0.213    0.383   85.784  215.268    3.788
  587.500    0.203    0.349   83.149  214.442    3.786
  587.750    0.219    0.368   79.380  213.930    3.749
  588.000    0.226    0.392   82.848  214.255    3.690
  588.250    0.216    0.419   81.283  214.791    3.681
  588.500    0.213    0.402   76.697  215.433    3.749
  588.750    0.210    0.380   76.704  215.657    3.957
  589.000    0.207    0.366   81.871  215.879    4.216
  589.250    0.197    0.375   87.541  216.100    4.586
  589.500    0.189    0.365   80.753  216.322    5.093
  589.750    0.177    0.323   72.140  216.440    5.774
  590.000    0.140    0.297   70.071  216.765    6.424
  590.250    0.106    0.292   71.841  217.197    6.420
  590.500    0.102    0.314   76.693  217.314    6.380
  590.750    0.144    0.340   81.796  217.640    6.246
  591.000    0.166    0.358   89.103  217.444    6.012
  591.250    0.174    0.367   89.613  217.351    5.852
  591.500    0.170    0.357   82.511  216.946    5.871
  591.750    0.166    0.327   79.183  216.956    5.868
  592.000    0.176    0.315   70.948  216.969    5.821
  592.250    0.171    0.346   74.920  217.294    5.806
  592.500    0.158    0.351   80.716  217.833    5.738
  592.750    0.147    0.339   83.554  218.367    5.512
  593.000    0.138    0.340   84.820  218.907    5.168
  593.250    0.138    0.415   84.891  219.231    4.974
  593.500    0.144    0.362   83.136  219.663    4.851
  593.750    0.140    0.346   82.891  219.780    4.839
  594.000    0.131    0.363   87.051  219.689    4.846
  594.250    0.148    0.351   91.967  219.073    4.852
  594.500    0.149    0.370   89.331  218.560    4.886
  594.750    0.142    0.389   89.213  217.103    4.901
  595.000    0.149    0.348   88.843  215.646    4.973
  595.250    0.162    0.325   87.466  214.715    4.980
  595.500    0.182    0.338   91.248  214.309    4.967
  595.750    0.204    0.351   88.109  214.109    4.909
  596.000    0.211    0.353   82.454  214.752    4.823
  596.250    0.208    0.326   82.965  215.605    4.812
  596.500    0.200    0.318   82.972  216.035    4.755
  596.750    0.186    0.315   76.121  216.466    4.708
  597.000    0.150    0.308   68.138  216.480    4.566
  597.250    0.173    0.398   78.527  216.807    4.337
  597.500    0.195    0.434   90.804  217.027    4.135
  597.750    0.177    0.437   91.063  217.146    4.048
  598.000    0.169    0.401   85.533  217.156    4.084
  598.250    0.175    0.395   78.619  217.170    4.214
  598.500    0.165    0.412   88.945  217.286    4.365
  598.750    0.186    0.377   81.779  218.034    4.599
  599.000    0.198    0.318   72.538  219.093    4.763
  599.250    0.164    0.310   65.184  220.049    4.842
  599.500    0.145    0.325   62.360  221.215    4.812
  599.750    0.176    0.357   80.551  222.485    4.650
  600.000    0.185    0.387   94.338  223.755    4.383
  600.250    0.193    0.375   95.351  224.925    4.179
  600.500    0.201    0.378   96.366  225.251    4.015
  600.750    0.190    0.361   99.708  225.996    3.990
  601.000    0.182    0.382   95.059  225.272    4.003
  601.250    0.181    0.392   89.215  222.245    4.092
  601.500    0.182    0.388   82.238  220.473    4.168
  601.750    0.183    0.372   86.587  219.437    4.260
  602.000    0.192    0.370   92.572  219.346    4.347
  602.250    0.203    0.357   84.840  220.093    4.394
  602.500    0.211    0.377   83.653  221.362    4.408
  602.750    0.210    0.334   86.805  223.891    4.397
  603.000    0.203    0.329   90.399  225.686    4.329
  603.250    0.183    0.353   92.860  226.957    4.254
  603.500    0.172    0.376   96.957  227.703    4.079
  603.750    0.172    0.345  101.306  227.819    4.024
  604.000    0.168    0.352  103.012  228.358    4.082
  604.250    0.177    0.364   98.489  228.054    4.236
  604.500    0.170    0.359   94.029  227.752    4.430
  604.750    0.170    0.380   93.785  226.924    4.667
  605.000    0.175    0.398   98.008  221.483    4.991
  605.250    0.185    0.380   94.492  215.729    5.563
  605.500    0.206    0.370   88.333  214.272    6.074
  605.750    0.240    0.337   84.691  214.391    6.582
