~VERSION INFORMATION
 VERS.                 2.0:   CWLS LOG ASCII STANDARD -VERSION 2.0
 WRAP.                  NO:   ONE LINE PER DEPTH STEP
~WELL INFORMATION BLOCK
#MNEM.UNIT           DATA                    DESCRIPTION OF MNEMONIC
#---------    -------------------            -------------------------------
# Generated from Intellog Unique Number	CW_70_72/WELL/1073
NULL.         -999.25                        : NULL_VALUE
WELL.         CHEVRON MITSUE                 : Well_name    - WELL              
LOC .         16-11-072-04W5                 : Location     - LOCATION          
UWI .         02/16-11-072-04W5/0            : Uwi          - UNIQUE WELL ID    
ENTR.         JAYE                           : Entered      - ENTERED BY        
SRVC.         WESTERN ATLAS                  : Scn          - SERVICE COMPANY   
DATE.         10 MAR 86                      : Date         - LOG DATE          
STRT.M        460                            : top_depth    - START DEPTH       
STOP.M        695                            : bot_depth    - STOP DEPTH        
STEP.M        0.25                           : increment    - STEP LENGTH       
~CURVE INFORMATION BLOCK
#MNEM UNIT       ERCB CURVE CODE    CURVE DESCRIPTION
#-----------   ------------------   ----------------------------------
DEPT.M        00 001 00 00         : DEPTH        - DEPTH                       
DPHI.V/V      00 890 00 00         : PHID         - DENSITY POROSITY (SANDSTONE)
NPHI.V/V      00 330 00 00         : PHIN         - NEUTRON POROSITY (SANDSTONE)
GR  .API      00 310 00 00         : GR           - GAMMA RAY                   
CALI.MM       00 280 01 00         : CAL          - CALIPER                     
ILD .OHMM     00 120 00 00         : RESD         - DEEP RESISTIVITY (DIL)      
~PARAMETER INFORMATION       
#MNEM.UNIT           DATA             DESCRIPTION OF MNEMONIC
#---------         -----------     ------------------------------
GL  .M        659.91               : gl           - GROUND LEVEL ELEVATION      
EREF.M        663.41               : kb           - ELEVATION OF DEPTH REFERENCE
DATM.M        659.91               : datum        - DATUM ELEVATION             
TDD .M        693                  : tdd          - TOTAL DEPTH DRILLER         
RUN .         ONE                  : Run          - RUN NUMBER                  
ENG .         BARSS                : Engineer     - RECORDING ENGINEER          
WIT .         GUO                  : Witness      - WITNESSED BY                
BASE.         G.P.                 : Branch       - HOME BASE OF LOGGING UNIT   
MUD .         GEL CHEN             : Mud_type     - MUD TYPE                    
MATR.         SANDSTONE            : Logunit      - NEUTRON MATRIX              
TMAX.C        28                   : BHT          - MAXIMUM RECORDED TEMPERATURE
BHTD.M        692.9                : BHTDEP       - MAXIMUM RECORDED TEMPERATURE
RMT .C        17.8                 : MDTP         - TEMPERATURE OF MUD          
MUDD.KG/M     1185                 : MWT          - MUD DENSITY                 
NEUT.         1                    : NEUTRON      - NEUTRON TYPE                
RESI.         0                    : RESIST       - RESISTIVITY TYPE            
RM  .OHMM     4                    : RM           - RESISTIVITY OF MUD          
RMC .OHMM     3.55                 : RMC          - RESISTIVITY OF MUD CAKE     
RMF .OHMM     2.95                 : RMF          - RESISTIVITY OF MUD FILTRATE 
SUFT.C        32                   : SUFT         - SURFACE TEMPERATURE         
~A  DEPTH     PHID     PHIN       GR      CAL     RESD
  460.000    0.209    0.460   92.808  254.972    2.063
  460.250    0.211    0.424   91.178  252.991    2.077
  460.500    0.219    0.413   93.829  253.318    2.084
  460.750    0.224    0.446   97.549  255.220    2.115
  461.000    0.220    0.447  100.323  253.971    2.162
  461.250    0.219    0.436  104.358  250.943    2.247
  461.500    0.216    0.451  104.302  243.719    2.294
  461.750    0.208    0.449  100.535  235.972    2.318
  462.000    0.207    0.424  100.164  239.026    2.361
  462.250    0.217    0.437  102.626  241.974    2.418
  462.500    0.207    0.454  106.723  241.775    2.486
  462.750    0.197    0.491  104.402  244.305    2.560
  463.000    0.193    0.466   99.061  248.618    2.662
  463.250    0.189    0.437   95.482  250.936    2.736
  463.500    0.178    0.402   92.721  249.270    2.792
  463.750    0.177    0.358   93.483  243.305    2.828
  464.000    0.183    0.348   98.084  244.786    2.891
  464.250    0.196    0.385  101.803  248.154    2.977
  464.500    0.205    0.408  100.238  249.319    3.049
  464.750    0.191    0.396   92.506  241.571    3.129
  465.000    0.189    0.403   88.927  231.727    3.211
  465.250    0.209    0.381   84.090  227.648    3.440
  465.500    0.221    0.380   77.365  222.523    3.721
  465.750    0.165    0.377   69.255  220.124    4.009
  466.000    0.138    0.324   63.914  218.667    4.176
  466.250    0.249    0.392   70.906  218.680    4.151
  466.500    0.275    0.406   73.744  219.845    3.980
  466.750    0.257    0.413   76.079  222.375    3.526
  467.000    0.237    0.415   81.688  228.258    3.130
  467.250    0.221    0.428   86.854  235.507    2.821
  467.500    0.238    0.445   93.090  237.825    2.426
  467.750    0.274    0.459   93.726  229.765    2.424
  468.000    0.292    0.418   75.927  219.709    2.743
  468.250    0.280    0.360   66.874  214.688    3.398
  468.500    0.245    0.334   58.325  213.441    4.208
  468.750    0.293    0.319   56.507  213.664    5.010
  469.000    0.304    0.321   63.373  215.459    5.616
  469.250    0.290    0.314   69.043  216.519    5.676
  469.500    0.273    0.340   71.315  217.580    5.536
  469.750    0.246    0.375   67.736  216.230    5.865
  470.000    0.222    0.375   63.969  214.773    6.260
  470.250    0.279    0.328   66.870  213.841    6.473
  470.500    0.304    0.313   71.659  213.645    6.494
  470.750    0.315    0.334   75.254  213.763    6.404
  471.000    0.317    0.352   75.701  213.774    6.223
  471.250    0.310    0.333   76.275  213.996    5.956
  471.500    0.300    0.326   76.849  214.848    5.647
  471.750    0.273    0.311   72.955  215.489    5.156
  472.000    0.242    0.331   65.915  216.340    4.771
  472.250    0.216    0.351   60.826  218.555    4.381
  472.500    0.223    0.397   69.516  221.187    3.911
  472.750    0.238    0.399   79.339  225.708    3.565
  473.000    0.241    0.368   84.820  230.440    3.255
  473.250    0.236    0.383   89.484  233.389    2.972
  473.500    0.228    0.439   88.232  231.723    2.740
  473.750    0.213    0.410   92.456  231.840    2.622
  474.000    0.200    0.388   98.315  234.474    2.706
  474.250    0.208    0.410  105.935  242.455    2.910
  474.500    0.201    0.399  108.773  235.967    3.256
  474.750    0.208    0.392   92.925  227.694    3.913
  475.000    0.258    0.402   81.356  222.044    4.793
  475.250    0.278    0.365   75.007  219.958    6.328
  475.500    0.291    0.301   64.445  218.714    8.169
  475.750    0.291    0.283   58.224  218.725    9.725
  476.000    0.288    0.316   63.893  219.157    9.849
  476.250    0.278    0.327   70.507  220.218    8.154
  476.500    0.268    0.324   75.108  220.544    6.841
  476.750    0.252    0.322   76.562  219.927    6.073
  477.000    0.232    0.329   75.877  218.262    5.202
  477.250    0.230    0.341   73.619  217.750    4.759
  477.500    0.251    0.326   75.451  217.762    4.563
  477.750    0.249    0.298   78.982  217.773    4.544
  478.000    0.268    0.339   82.198  216.213    4.869
  478.250    0.314    0.328   78.494  214.024    5.613
  478.500    0.355    0.295   64.533  211.939    6.472
  478.750    0.382    0.261   50.635  210.692    7.081
  479.000    0.366    0.273   55.361  211.020    7.658
  479.250    0.340    0.285   56.187  211.765    7.829
  479.500    0.319    0.293   58.900  212.198    7.507
  479.750    0.303    0.301   64.255  211.789    7.078
  480.000    0.258    0.325   71.246  210.229    6.475
  480.250    0.235    0.321   77.986  209.192    6.014
  480.500    0.247    0.308   72.016  208.786    5.585
  480.750    0.249    0.312   67.808  209.531    5.256
  481.000    0.225    0.274   63.788  211.117    4.946
  481.250    0.240    0.275   76.883  213.540    4.716
  481.500    0.265    0.346   96.710  217.328    4.298
  481.750    0.293    0.382  107.665  221.955    3.873
  482.000    0.237    0.411  113.713  226.791    3.438
  482.250    0.167    0.419  114.035  228.480    3.058
  482.500    0.200    0.394  109.071  217.796    2.840
  482.750    0.194    0.420  101.214  212.460    3.020
  483.000    0.228    0.389   96.502  215.724    3.224
  483.250    0.237    0.349  100.600  219.511    3.540
  483.500    0.218    0.348  102.179  219.419    3.991
  483.750    0.205    0.352   89.477  214.921    4.593
  484.000    0.206    0.310   77.593  213.153    4.959
  484.250    0.217    0.288   67.973  212.012    5.343
  484.500    0.239    0.269   60.808  212.025    5.493
  484.750    0.321    0.245   52.950  212.140    5.287
  485.000    0.350    0.255   53.650  212.048    4.589
  485.250    0.313    0.309   58.628  212.058    3.843
  485.500    0.296    0.336   59.831  212.490    3.200
  485.750    0.268    0.362   64.809  212.923    2.814
  486.000    0.239    0.353   70.982  213.039    2.623
  486.250    0.236    0.340   75.708  213.263    2.702
  486.500    0.230    0.326   80.183  213.590    2.830
  486.750    0.227    0.311   74.150  213.917    2.948
  487.000    0.235    0.333   68.243  214.453    3.048
  487.250    0.249    0.356   66.299  215.201    3.133
  487.500    0.259    0.377   67.125  215.630    3.179
  487.750    0.252    0.371   61.973  216.375    3.207
  488.000    0.255    0.360   80.353  217.332    3.273
  488.250    0.237    0.356   90.365  219.756    3.447
  488.500    0.203    0.375   97.922  222.389    3.673
  488.750    0.201    0.393  100.572  224.710    3.877
  489.000    0.198    0.411  101.902  224.406    3.788
  489.250    0.152    0.442  102.600  219.805    3.578
  489.500    0.227    0.439  105.943  216.252    3.286
  489.750    0.276    0.418  106.894  215.426    3.253
  490.000    0.342    0.368   87.773  215.438    3.479
  490.250    0.361    0.292   74.315  215.240    3.714
  490.500    0.357    0.280   71.115  214.625    3.980
  490.750    0.338    0.323   74.268  214.844    4.280
  491.000    0.314    0.404   70.122  214.648    4.492
  491.250    0.282    0.446   67.298  215.499    4.389
  491.500    0.262    0.428   67.558  216.139    4.053
  491.750    0.226    0.395   68.571  217.096    3.916
  492.000    0.206    0.371   77.261  217.737    4.110
  492.250    0.227    0.355   87.336  218.694    4.274
  492.500    0.238    0.379  101.814  218.915    4.215
  492.750    0.225    0.363  102.451  218.509    4.237
  493.000    0.200    0.351   82.136  217.785    4.290
  493.250    0.197    0.373   75.662  217.696    4.304
  493.500    0.239    0.389   68.497  217.706    4.278
  493.750    0.281    0.398   61.834  218.137    4.164
  494.000    0.288    0.374   71.720  218.152    4.068
  494.250    0.274    0.355   75.251  218.372    4.051
  494.500    0.297    0.346   69.597  218.175    4.072
  494.750    0.316    0.352   65.576  217.874    4.131
  495.000    0.293    0.371   63.129  217.570    4.136
  495.250    0.287    0.368   61.124  217.372    4.126
  495.500    0.285    0.347   58.866  217.069    4.062
  495.750    0.262    0.342   62.585  217.501    3.984
  496.000    0.241    0.346   68.193  218.981    3.821
  496.250    0.252    0.362   72.164  220.252    3.575
