~VERSION INFORMATION
 VERS.                 2.0:   CWLS LOG ASCII STANDARD -VERSION 2.0
 WRAP.                  NO:   ONE LINE PER DEPTH STEP
~WELL INFORMATION BLOCK
#MNEM.UNIT           DATA                    DESCRIPTION OF MNEMONIC
#---------    -------------------            -------------------------------
# Generated from Intellog Unique Number	CC_84_87/WELL/1055
NULL.         -999.25                        : NULL_VALUE
WELL.         PCI PCEJ HANGST OV             : Well_name    - WELL              
LOC .         04-24-084-12W4                 : Location     - LOCATION          
UWI .         AA/04-24-084-12W400            : Uwi          - UNIQUE WELL ID    
ENTR.         DW                             : Entered      - ENTERED BY        
SRVC.         SCHLUMBERGER                   : Scn          - SERVICE COMPANY   
DATE.         01 FEB 84                      : Date         - LOG DATE
STRT.M        105                            : top_depth    - START DEPTH       
STOP.M        309.899                        : bot_depth    - STOP DEPTH        
STEP.M        0.3                            : increment    - STEP LENGTH       
~CURVE INFORMATION BLOCK
#MNEM UNIT       ERCB CURVE CODE    CURVE DESCRIPTION
#-----------   ------------------   ----------------------------------
DEPT.M        00 001 00 00         : DEPTH        - DEPTH                       
DPHI.V/V      00 890 00 00         : PHID         - DENSITY POROSITY (LIMESTONE)
NPHI.V/V      00 330 00 00         : PHIN         - NEUTRON POROSITY (LIMESTONE)
GR  .API      00 310 00 00         : GR           - GAMMA RAY                   
ILD .OHMM     00 120 00 00         : RESD         - DEEP RESISTIVITY (DIL)      
~PARAMETER INFORMATION       
#MNEM.UNIT           DATA             DESCRIPTION OF MNEMONIC
#---------         -----------     ------------------------------
GL  .M        555                  : gl           - GROUND LEVEL ELEVATION      
EREF.M        558.2                : kb           - ELEVATION OF DEPTH REFERENCE
DATM.M        558.2                : datum        - DATUM ELEVATION             
TDD .M        321                  : tdd          - TOTAL DEPTH DRILLER         
RUN .         ONE                  : Run          - RUN NUMBER                  
ENG .         BILL                 : Engineer     - RECORDING ENGINEER          
WIT .         JIM                  : Witness      - WITNESSED BY                
MUD .         GEL                  : Mud_type     - MUD TYPE                    
MATR.         LIMESTONE            : Logunit      - NEUTRON MATRIX              
TMAX.C        23                   : BHT          - MAXIMUM RECORDED TEMPERATURE
BHTD.M        322                  : BHTDEP       - MAXIMUM RECORDED TEMPERATURE
MATR.         1                    : LOGUNIT      - NEUTRON MATRIX              
RMT .C        25                   : MDTP         - TEMPERATURE OF MUD          
NEUT.         1                    : NEUTRON      - NEUTRON TYPE                
RESI.         0                    : RESIST       - RESISTIVITY TYPE            
RMC .OHMM     0.25                 : RMC          - RESISTIVITY OF MUD CAKE     
RMF .OHMM     0.25                 : RMF          - RESISTIVITY OF MUD FILTRATE 
SUFT.C        4                    : SUFT         - SURFACE TEMPERATURE         
~A  DEPTH     PHID     PHIN       GR     RESD
  105.000    0.236    0.416   92.513   12.679
  105.300    0.237    0.418   93.066   12.682
  105.600    0.242    0.418   91.805   12.926
  105.900    0.259    0.417   83.886   12.929
  106.200    0.284    0.409   71.743   12.933
  106.500    0.302    0.396   59.598   12.936
  106.800    0.290    0.384   58.940   12.940
  107.100    0.216    0.387   74.004   12.701
  107.400    0.249    0.400   77.577   12.467
  107.700    0.292    0.410   72.076   12.471
  108.000    0.317    0.448   64.171   12.474
  108.300    0.315    0.477   56.858   12.245
  108.600    0.265    0.407   64.060   12.248
  108.900    0.270    0.429   71.263   12.022
  109.200    0.284    0.455   76.655   11.154
  109.500    0.286    0.471   87.483   10.348
  109.800    0.282    0.476   79.574   10.158
  110.100    0.235    0.434   77.096   10.354
  110.400    0.242    0.428   82.488   10.355
  110.700    0.254    0.426   78.804   10.165
  111.000    0.270    0.431   78.144   10.168
  111.300    0.277    0.433   79.907   10.560
  111.600    0.287    0.430   74.416   11.389
  111.900    0.292    0.424   67.094   12.052
  112.200    0.258    0.430   61.606   12.998
  112.500    0.278    0.423   56.117   13.756
  112.800    0.312    0.446   60.288   14.288
  113.100    0.324    0.423   66.281   14.025
  113.400    0.306    0.431   71.679   13.258
  113.700    0.305    0.447   72.828   12.300
  114.000    0.299    0.449   68.544   11.198
  114.300    0.299    0.444   66.677   10.587
  114.600    0.320    0.444   66.025   11.855
  114.900    0.331    0.448   59.319   12.313
  115.200    0.331    0.443   76.200   12.316
  115.500    0.246    0.427   92.469   10.400
  115.800    0.242    0.435   91.808    7.555
  116.100    0.269    0.481   86.312    5.807
  116.400    0.284    0.452   82.632    7.011
  116.700    0.284    0.439   76.540   12.565
  117.000    0.293    0.417   71.651   15.458
  117.300    0.305    0.406   72.801   17.311
  117.600    0.314    0.433   78.799   16.364
  117.900    0.287    0.420   88.416   13.819
  118.200    0.277    0.416   84.738   12.581
  118.500    0.313    0.433   81.056   13.826
  118.800    0.312    0.430   83.419   14.359
  119.100    0.252    0.402   85.177   12.591
  119.400    0.252    0.411   97.222   11.904
  119.700    0.265    0.430   98.987   11.906
  120.000    0.256    0.406   98.332   12.136
  120.300    0.245    0.401   93.434   12.368
  120.600    0.265    0.411   87.335   13.090
  120.900    0.289    0.406   83.051   13.595
  121.200    0.291    0.436   83.002   15.224
  121.500    0.293    0.447   84.156   17.047
  121.800    0.327    0.444   78.664   20.582
  122.100    0.318    0.418   81.025   22.195
  122.400    0.324    0.412   76.130   23.052
  122.700    0.328    0.435   71.854   23.060
  123.000    0.308    0.450   80.868   22.635
  123.300    0.321    0.433   76.575   22.640
  123.600    0.322    0.427   78.347   23.076
  123.900    0.312    0.433   80.681   22.652
  124.200    0.314    0.431   80.659   21.821
  124.500    0.299    0.411   81.199   19.496
  124.800    0.280    0.411   89.624   15.560
  125.100    0.287    0.425   95.610   12.895
  125.400    0.268    0.410   97.375   11.307
  125.700    0.241    0.406  100.340   10.688
  126.000    0.217    0.430   99.080    9.026
  126.300    0.220    0.462  103.870    7.914
  126.600    0.212    0.453  110.458    6.683
  126.900    0.183    0.466  111.017    6.201
  127.200    0.186    0.496  116.407    6.562
  127.500    0.126    0.516  111.517    7.211
  127.800    0.132    0.481  106.624    7.078
  128.100    0.186    0.456  124.714    6.567
  128.400    0.212    0.453  126.473    5.867
  128.700    0.219    0.481  124.606    5.049
  129.000    0.223    0.492  119.714    4.263
  129.300    0.233    0.505  120.266    3.738
  129.600    0.256    0.547  124.451    3.601
  129.900    0.274    0.540  122.579    3.884
  130.200    0.282    0.523  108.014    5.876
  130.500    0.314    0.513   88.008   13.199
  130.800    0.334    0.437   94.001   18.179
  131.100    0.336    0.432   97.581   19.239
  131.400    0.329    0.428   83.620   18.885
  131.700    0.312    0.402   82.950   17.855
  132.000    0.280    0.388   89.554   17.525
  132.300    0.285    0.409   89.506   17.863
  132.600    0.297    0.426   91.266   18.552
  132.900    0.310    0.417   88.191   18.910
  133.200    0.322    0.410   86.929   18.215
  133.500    0.326    0.401  100.785   14.001
  133.800    0.286    0.399  124.917   10.561
  134.100    0.220    0.386  126.075    7.672
  134.400    0.218    0.434  115.737    7.820
  134.700    0.246    0.475  106.008    8.923
  135.000    0.293    0.456   99.311   12.760
  135.300    0.306    0.410   96.218   15.996
  135.600    0.295    0.393   97.990   18.599
  135.900    0.292    0.385  102.167   18.257
  136.200    0.307    0.397  103.928   17.921
  136.500    0.305    0.419  104.486   16.627
  136.800    0.290    0.419  102.620   16.630
  137.100    0.272    0.400   91.681   16.020
  137.400    0.264    0.381   87.998   14.862
  137.700    0.263    0.382   87.339   14.867
  138.000    0.264    0.387   85.475   15.733
  138.300    0.299    0.404   78.773   16.341
  138.600    0.306    0.437   73.878   16.346
  138.900    0.274    0.438   68.990   16.976
  139.200    0.224    0.419   63.492   17.632
  139.500    0.238    0.402   61.629   16.357
  139.800    0.305    0.391   63.992   13.812
  140.100    0.306    0.429   69.979   15.179
  140.400    0.231    0.417   74.169   16.370
  140.700    0.249    0.411   68.667   16.069
  141.000    0.272    0.439   63.780   14.908
  141.300    0.336    0.445   61.910   13.319
  141.600    0.329    0.448   65.485   11.901
  141.900    0.318    0.437   70.871   11.041
  142.200    0.305    0.432   75.057   10.636
  142.500    0.269    0.428   78.022   10.440
  142.800    0.245    0.416   78.571   10.443
  143.100    0.284    0.430   77.319   10.445
  143.400    0.293    0.449   74.240   10.254
  143.700    0.239    0.458   74.789    9.877
  144.000    0.243    0.461   80.782    9.337
  144.300    0.288    0.421   87.384    8.995
  144.600    0.282    0.420   97.611    8.829
  144.900    0.209    0.441  105.414    8.191
  145.200    0.208    0.433  108.993    6.788
  145.500    0.225    0.442  114.383    6.298
  145.800    0.216    0.441  120.985    6.067
  146.100    0.228    0.434  123.946    6.069
  146.400    0.221    0.498  122.082    6.422
  146.700    0.201    0.503  117.798    7.328
  147.000    0.237    0.457  112.902    8.520
  147.300    0.254    0.473  111.645   10.095
  147.600    0.266    0.462  106.148   12.188
  147.900    0.302    0.459   98.235   13.394
  148.200    0.273    0.461   93.346   13.652
  148.500    0.270    0.454   90.879   13.151
  148.800    0.264    0.469   86.592   12.669
  149.100    0.257    0.492   93.183   11.976
  149.400    0.260    0.468   93.725   11.110
  149.700    0.259    0.455   93.688    9.560
  150.000    0.249    0.452   96.657    8.870
  150.300    0.270    0.476  102.046    9.747
  150.600    0.287    0.484  100.786   11.991
  150.900    0.281    0.462   98.315   12.932
  151.200    0.279    0.426  101.880   13.430
  151.500    0.280    0.428  101.234   14.214
  151.800    0.287    0.437   95.730   13.693
  152.100    0.286    0.410   93.259   12.467
  152.400    0.291    0.423   94.410   11.785
  152.700    0.300    0.437   99.202   12.473
  153.000    0.256    0.418  100.963   13.967
  153.300    0.272    0.422   94.864   15.348
  153.600    0.301    0.455   83.326   16.553
  153.900    0.292    0.460   69.968   17.191
  154.201    0.293    0.454   65.671   17.855
  154.501    0.308    0.431   67.430   18.544
  154.801    0.307    0.458   69.204   18.902
  155.101    0.304    0.503   69.146   19.266
  155.401    0.305    0.476   67.286   19.270
  155.701    0.305    0.432   67.224   19.275
  156.001    0.301    0.439   68.383   19.645
  156.301    0.299    0.456   64.103   20.024
  156.601    0.313    0.461   55.583   19.656
  156.901    0.317    0.434   54.316   19.294
