~VERSION INFORMATION
 VERS.                 2.0:   CWLS LOG ASCII STANDARD -VERSION 2.0
 WRAP.                  NO:   ONE LINE PER DEPTH STEP
~WELL INFORMATION BLOCK
#MNEM.UNIT           DATA                    DESCRIPTION OF MNEMONIC
#---------    -------------------            -------------------------------
# Generated from Intellog Unique Number	utf_inj/WELL/3489
WELL.         46-67-0-0                : Well_name    - WELL              
LOC .         09-02-094-12W4            : Location     - LOCATION          
UWI .         AA/09-02-094-12W400            : Uwi          - UNIQUE WELL ID    
ENTR.         JOETTE                         : Entered      - ENTERED BY        
SRVC.         SCHLUMBERGER                   : Scn          - SERVICE COMPANY   
DATE.         01 FEB 85                      : Date         - LOG DATE          
STRT.M        0                              : top_depth    - START DEPTH       
STOP.M        118                            : bot_depth    - STOP DEPTH        
STEP.M        0.25                           : increment    - STEP LENGTH       
NULL.         -999.250                       : null         - NULL VALUE       
~CURVE INFORMATION BLOCK
#MNEM UNIT       ERCB CURVE CODE    CURVE DESCRIPTION
#-----------   ------------------   ----------------------------------
DEPT.M        00 001 00 00         : DEPTH        - DEPTH                       
GR  .API      00 310 00 00         : GR           - GAMMA RAY                   
NPHI.V/V      00 330 00 00         : PHIN         - NEUTRON POROSITY (SANDSTONE)
RHOB.KG/M3    00 350 00 00         : DENS         - BULK DENSITY                
ILD .OHMM     00 120 00 00         : RESD         - DEEP RESISTIVITY (DIL)      
DPHI.V/V      00 890 00 00         : PHID         - DENSITY POROSITY (SANDSTONE)
~PARAMETER INFORMATION       
#MNEM.UNIT           DATA             DESCRIPTION OF MNEMONIC
#---------         -----------     ------------------------------
GL  .M        332.2                : gl           - GROUND LEVEL ELEVATION      
EREF.M        332.2                : kb           - ELEVATION OF DEPTH REFERENCE
DATM.M        332.2                : datum        - DATUM ELEVATION             
TDD .M        119.5                : tdd          - TOTAL DEPTH DRILLER         
RUN .         ONE                  : Run          - RUN NUMBER                  
ENG .         BILL                 : Engineer     - RECORDING ENGINEER          
WIT .         JIM                  : Witness      - WITNESSED BY                
MUD .         GEL                  : Mud_type     - MUD TYPE                    
MATR.         SANDSTONE            : Logunit      - NEUTRON MATRIX              
TMAX.C        8                    : BHT          - MAXIMUM RECORDED TEMPERATURE
BHTD.M        119.5                : BHTDEP       - MAXIMUM RECORDED TEMPERATURE
RMT .C        2                    : MDTP         - TEMPERATURE OF MUD          
MUDD.KG/M     1030                 : MWT          - MUD DENSITY                 
NEUT.         1                    : NEUTRON      - NEUTRON TYPE                
RESI.         0                    : RESIST       - RESISTIVITY TYPE            
RM  .OHMM     6.5                  : RM           - RESISTIVITY OF MUD          
RMC .OHMM     6.5                  : RMC          - RESISTIVITY OF MUD CAKE     
RMF .OHMM     6.5                  : RMF          - RESISTIVITY OF MUD FILTRATE 
SUFT.C        4                    : SUFT         - SURFACE TEMPERATURE         
~A  DEPTH       GR     PHIN     DENS     RESD     PHID
    0.000   17.597    0.000    0.000    0.000    1.606
    0.250   15.177    0.000    0.000    0.000    1.606
    0.500   10.333    0.000    0.000    0.000    1.606
    0.750   10.340    0.000    0.000    0.000    1.606
    1.000   18.236    0.000    0.000    0.000    1.606
    1.250   43.121    0.000    0.000    0.000    1.606
    1.500   54.052    0.000    0.000    0.000    1.606
    1.750   54.664    0.000    0.000    0.000    1.606
    2.000   55.281    0.000    0.000    0.000    1.606
    2.250   48.613    0.000    0.000    0.000    1.606
    2.500   46.803    0.000    0.000    0.000    1.606
    2.750   54.697    0.000    0.000    0.000    1.606
    3.000   54.099    0.000    0.000    0.000    1.606
    3.250   54.714    0.000    0.000    0.000    1.606
    3.500   56.541    0.000    0.000    0.000    1.606
    3.750   51.088    0.000    0.000    0.000    1.606
    4.000   46.242    0.000    0.000    0.000    1.606
    4.250   46.858    0.000    0.000    0.000    1.606
    4.500   47.471    0.000    0.000    0.000    1.606
    4.750   34.741    0.000    0.000    0.000    1.606
    5.000   35.354    0.000    0.000    0.000    1.606
    5.250   37.788    0.000    0.000    0.000    1.606
    5.500   34.156    0.000    0.000    0.000    1.606
    5.750   39.623    0.000    0.000    0.000    1.606
    6.000   37.811    0.000    0.000    0.000    1.606
    6.250   43.887    0.000    0.000    0.000    1.606
    6.500   48.142    0.000    0.000    0.000    1.606
    6.750   37.229    0.000    0.000    0.000    1.606
    7.000   45.732    0.000    0.000    0.000    1.606
    7.250   45.132    0.000    0.000    0.000    1.606
    7.500   43.927    0.000    0.000    0.000    1.606
    7.750   43.935    0.000    0.000    0.000    1.606
    8.000   46.979    0.000    0.000    0.000    1.606
    8.250   34.244    0.000    0.000    0.000    1.606
    8.500   32.430    0.000    0.000    0.000    1.606
    8.750   33.652    0.000    0.000    0.000    1.606
    9.000   49.436    0.000    0.000    0.000    1.606
    9.250   48.837    0.000    0.000    0.000    1.606
    9.500   46.418    0.000    0.000    0.000    1.606
    9.750   49.461    0.000    0.000    0.000    1.606
   10.000   42.186    0.000    0.000    0.000    1.606
   10.250   51.296    0.000    0.000    0.000    1.606
   10.500   57.371    0.000    0.000    0.000    1.606
   10.750   69.515    0.000    0.000    0.000    1.606
   11.000   70.130    0.000    0.000    0.000    1.606
   11.250   67.104    0.000    0.000    0.000    1.606
   11.500   58.617    0.000    0.000    0.000    1.606
   11.750   59.232    0.000    0.000    0.000    1.606
   12.000   70.768    0.000    0.000    0.000    1.606
   12.250   66.529    0.000    0.000    0.000    1.606
   12.500   73.212    0.000    0.000    0.000    1.606
   12.750   68.971    0.000    0.000    0.000    1.606
   13.000   68.373    0.000    0.000    0.000    1.606
   13.250   62.313    0.000    0.000    0.000    1.606
   13.500   57.468    0.000    0.000    0.000    1.606
   13.750   74.465    0.000    0.000    0.000    1.606
   14.000   62.340    0.000    0.000    0.000    1.606
   14.250   69.019    0.000    0.000    0.000    1.606
   14.500   65.387    0.000    0.000    0.000    1.606
   14.750   61.755    0.000    0.000    0.000    1.606
   15.000   70.864    0.000    0.000    0.000    1.606
   15.250   66.017    0.000    0.000    0.000    1.606
   15.500   68.454    0.000    0.000    0.000    1.606
   15.750   70.282    0.000    0.000    0.000    1.606
   16.000   64.832    0.000    0.000    0.000    1.606
   16.250   67.871    0.000    0.000    0.000    1.606
   16.500   63.632    0.000    0.000    0.000    1.606
   16.750   63.033    0.000    0.000    0.000    1.606
   17.000   69.714    0.000    0.000    0.000    1.606
   17.250   76.397    0.000    0.000    0.000    1.606
   17.500   75.191    0.000    0.000    0.000    1.606
   17.750   60.031    0.000    0.000    0.000    1.606
   18.000   56.397    0.000    0.000    0.000    1.606
   18.250   75.821    0.000    0.000    0.000    1.606
   18.500   77.650    0.000    0.000    0.000    1.606
   18.750   66.130    0.000    0.000    0.000    1.606
   19.000   75.241    0.000    0.000    0.000    1.606
   19.250   72.214    0.000    0.000    0.000    1.606
   19.500   68.582    0.000    0.000    0.000    1.606
   19.750   77.085    0.000    0.000    0.000    1.606
   20.000   64.350    0.225 2389.700    6.607    0.158
   20.250   59.504    0.178 2663.830  221.452   -0.008
   20.500   58.300    0.248 2643.690  254.538    0.004
   20.750   64.373    0.322 2345.390  149.866    0.185
   21.000   85.617    0.414 2224.470   16.802    0.258
   21.250   88.053    0.469 2196.270   15.889    0.275
   21.500   89.881    0.506 2276.900   15.667    0.226
   21.750   91.711    0.467 2301.100   15.885    0.211
   22.000   80.190    0.460 2289.010   16.794    0.219
   22.250   84.444    0.452 2234.610   15.444    0.252
   22.500   85.059    0.451 2232.600   14.204    0.253
   22.750   88.707    0.449 2224.550   13.246    0.258
   23.000   86.895    0.438 2204.410   12.880    0.270
   23.250  107.533    0.440 2204.420   12.181    0.270
   23.500   91.158    0.497 2258.850   10.303    0.237
   23.750   95.415    0.501 2244.750   11.358    0.246
   24.000   89.961    0.507 2248.790   12.521    0.243
   24.250   98.465    0.522 2252.840   11.198    0.241
   24.500   99.685    0.520 2226.640   10.889    0.257
   24.750  102.121    0.544 2242.780    9.083    0.247
   25.000   97.882    0.593 2238.760    6.778    0.249
   25.250  106.383    0.618 2250.870    6.062    0.242
   25.500  114.886    0.593 2234.750    5.895    0.252
   25.750  111.254    0.543 2246.850    5.497    0.244
   26.000  114.296    0.555 2230.740    4.985    0.254
   26.250  119.160    0.522 2236.800    5.345    0.250
   26.500  116.131    0.493 2242.860    6.058    0.247
   26.750  108.253    0.520 2242.870    6.316    0.247
   27.000  102.194    0.531 2259.000    6.142    0.237
   27.250  116.762    0.470 2281.180    6.141    0.224
   27.500  105.244    0.498 2271.120    6.492    0.230
   27.750  113.744    0.501 2267.100    6.313    0.232
   28.000  113.752    0.509 2257.030    7.673    0.238
   28.250  122.861    0.580 2263.090    8.341    0.234
   28.500  124.690    0.498 2281.240    7.154    0.223
   28.750  113.777    0.443 2283.270    6.489    0.222
   29.000  119.246    0.474 2315.530    6.488    0.203
   29.250   90.129    0.457 2418.330    7.562    0.140
   29.500  108.948    0.449 2240.970   12.144    0.248
   29.750  123.516    0.562 2220.830    6.577    0.260
   30.000  130.807    0.542 2249.060    5.117    0.243
   30.250  131.421    0.530 2234.960    4.975    0.252
   30.500  132.641    0.530 2239.000    4.705    0.249
   30.750  125.368    0.517 2218.860    4.512    0.261
   31.000  124.770    0.621 2214.840    4.326    0.264
   31.250  110.218    0.619 2210.820    4.207    0.266
   31.500  110.224    0.657 2222.920    4.207    0.259
   31.750  107.199    0.688 2212.860    4.148    0.265
   32.000  104.172    0.631 2194.730    3.762    0.276
   32.250  121.171    0.569 2178.610    3.365    0.286
   32.500  125.425    0.605 2186.690    3.411    0.281
   32.750  113.298    0.681 2180.650    3.607    0.284
   33.000  124.834    0.642 2220.970    3.657    0.260
   33.250  126.056    0.624 2255.250    3.920    0.239
   33.500  118.782    0.574 2261.310    4.633    0.236
   33.750  123.037    0.597 2271.390    4.898    0.229
   34.000  118.192    0.551 2273.420    4.763    0.228
   34.250  109.099    0.554 2335.910    4.966    0.190
   34.500  116.386    0.525 2364.140    6.654    0.173
   34.750  132.777    0.469 2315.780    7.864    0.203
   35.000  134.605    0.487 2285.560    5.627    0.221
   35.250  126.119    0.479 2289.600    5.033    0.218
   35.500  115.813    0.491 2247.280    5.175    0.244
   35.750  123.100    0.496 2263.420    6.116    0.234
   36.000  112.794    0.481 2219.090    6.466    0.261
   36.250  129.185    0.462 2259.410    6.741    0.237
