~VERSION INFORMATION
 VERS.                 2.0:   CWLS LOG ASCII STANDARD -VERSION 2.0
 WRAP.                  NO:   ONE LINE PER DEPTH STEP
~WELL INFORMATION BLOCK
#MNEM.UNIT           DATA                    DESCRIPTION OF MNEMONIC
#---------    -------------------            -------------------------------
# Generated from Intellog Unique Number	utf_inj/WELL/3489
WELL.         46-67-0-0                : Well_name    - WELL              
LOC .         09-02-094-12W4            : Location     - LOCATION          
UWI .         AA/09-02-094-12W400            : Uwi          - UNIQUE WELL ID    
ENTR.         JOETTE                         : Entered      - ENTERED BY        
SRVC.         SCHLUMBERGER                   : Scn          - SERVICE COMPANY   
DATE.         01 FEB 85                      : Date         - LOG DATE          
STRT.M        0                              : top_depth    - START DEPTH       
STOP.M        118                            : bot_depth    - STOP DEPTH        
STEP.M        0.25                           : increment    - STEP LENGTH       
NULL.         -999.250                       : null         - NULL VALUE       
~CURVE INFORMATION BLOCK
#MNEM UNIT       ERCB CURVE CODE    CURVE DESCRIPTION
#-----------   ------------------   ----------------------------------
DEPT.M        00 001 00 00         : DEPTH        - DEPTH                       
GR  .API      00 310 00 00         : GR           - GAMMA RAY                   
NPHI.V/V      00 330 00 00         : PHIN         - NEUTRON POROSITY (SANDSTONE)
RHOB.KG/M3    00 350 00 00         : DENS         - BULK DENSITY                
ILD .OHMM     00 120 00 00         : RESD         - DEEP RESISTIVITY (DIL)      
DPHI.V/V      00 890 00 00         : PHID         - DENSITY POROSITY (SANDSTONE)
~PARAMETER INFORMATION       
#MNEM.UNIT           DATA             DESCRIPTION OF MNEMONIC
#---------         -----------     ------------------------------
GL  .M        332.2                : gl           - GROUND LEVEL ELEVATION      
EREF.M        332.2                : kb           - ELEVATION OF DEPTH REFERENCE
DATM.M        332.2                : datum        - DATUM ELEVATION             
TDD .M        119.5                : tdd          - TOTAL DEPTH DRILLER         
RUN .         ONE                  : Run          - RUN NUMBER                  
ENG .         BILL                 : Engineer     - RECORDING ENGINEER          
WIT .         JIM                  : Witness      - WITNESSED BY                
MUD .         GEL                  : Mud_type     - MUD TYPE                    
MATR.         SANDSTONE            : Logunit      - NEUTRON MATRIX              
TMAX.C        8                    : BHT          - MAXIMUM RECORDED TEMPERATURE
BHTD.M        119.5                : BHTDEP       - MAXIMUM RECORDED TEMPERATURE
RMT .C        2                    : MDTP         - TEMPERATURE OF MUD          
MUDD.KG/M     1030                 : MWT          - MUD DENSITY                 
NEUT.         1                    : NEUTRON      - NEUTRON TYPE                
RESI.         0                    : RESIST       - RESISTIVITY TYPE            
RM  .OHMM     6.5                  : RM           - RESISTIVITY OF MUD          
RMC .OHMM     6.5                  : RMC          - RESISTIVITY OF MUD CAKE     
RMF .OHMM     6.5                  : RMF          - RESISTIVITY OF MUD FILTRATE 
SUFT.C        4                    : SUFT         - SURFACE TEMPERATURE         
~A  DEPTH       GR     PHIN     DENS     RESD     PHID
# ...
   36.500  129.800    0.452 2315.860    6.555    0.203
   36.750  114.032    0.481 2327.960    6.740    0.195
   37.000  109.187    0.465 2309.830    6.834    0.206
   37.250  114.049    0.493 2283.640    6.198    0.222
   37.500  119.516    0.343 2622.260    6.552    0.017
   37.750  117.098    0.292 2620.260   12.969    0.018
   38.000   91.623    0.423 2509.410   37.400    0.085
   38.250  102.552    0.457 2374.390   16.897    0.167
   38.500  111.053    0.488 2245.400    7.850    0.245
   38.750  123.197    0.475 2251.460    6.458    0.242
   39.000  123.812    0.483 2293.800    5.539    0.216
   39.250  134.742    0.543 2293.810    6.367    0.216
   39.500  137.784    0.526 2309.940    6.455    0.206
   39.750  114.127    0.480 2299.880    5.460    0.212
   40.000  123.237    0.491 2326.090    5.936    0.196
   40.250  129.919    0.454 2326.100    7.016    0.196
   40.500  132.961    0.443 2320.070    6.635    0.200
   40.750  108.701    0.511 2305.970    5.934    0.209
   41.000  115.989    0.472 2267.680    6.633    0.232
   41.250  125.703    0.486 2225.370    6.632    0.257
   41.500  136.633    0.535 2227.390    5.610    0.256
   41.750  131.181    0.499 2285.850    4.745    0.221
   42.000  126.944    0.475 2297.960    5.159    0.213
   42.250  133.624    0.543 2302.000    5.687    0.211
   42.500  138.487    0.555 2300.000    5.530    0.212
   42.750  125.145    0.545 2300.010    5.453    0.212
   43.000  123.333    0.469 2308.080    5.452    0.207
   43.250  133.656    0.493 2368.560    5.684    0.171
   43.500  122.136    0.460 2457.250    6.354    0.117
   43.750  112.436    0.431 2294.010    9.386    0.216
   44.000  107.591    0.494 2245.650    5.762    0.245
   44.250  113.665    0.557 2225.500    4.360    0.257
   44.500  121.561    0.572 2235.590    3.845    0.251
   44.750  126.423    0.586 2261.800    3.586    0.235
   45.000  134.926    0.608 2286.000    3.536    0.221
   45.250  119.157    0.513 2306.170    4.358    0.208
   45.500  120.986    0.499 2328.350    5.522    0.195
   45.750  130.702    0.499 2288.050    5.920    0.219
   46.000  115.541    0.492 2288.060    4.479    0.219
   46.250  108.875    0.506 2294.120    4.236    0.216
   46.500  117.983    0.484 2346.530    4.295    0.184
   46.750  126.486    0.472 2471.510    5.006    0.108
   47.000  129.528    0.465 2398.960    6.255    0.152
   47.250  117.402    0.524 2298.190    4.539    0.213
   47.500  104.668    0.579 2235.720    3.581    0.251
   47.750  100.429    0.608 2175.270    2.987    0.288
   48.000  104.076    0.596 2128.920    2.825    0.316
   48.250  102.871    0.625 2112.810    2.672    0.326
   48.500   94.992    0.633 2128.940    2.598    0.316
   48.750   85.899    0.625 2139.030    2.597    0.310
   49.000  101.076    0.663 2137.030    2.671    0.311
   49.250   93.195    0.737 2159.210    2.903    0.297
   49.500   91.989    0.587 2213.640    3.384    0.264
   49.750   85.930    0.616 2316.440    4.348    0.202
   50.000   97.467    0.507 2314.440    4.348    0.203
   50.250   97.475    0.546 2322.510    4.470    0.198
   50.500   99.909    0.500 2300.350    4.859    0.212
   50.750   99.917    0.489 2393.080    4.469    0.156
   51.000   85.970    0.505 2378.980    4.407    0.164
   51.250   81.731    0.481 2320.540    5.822    0.200
   51.500   92.054    0.463 2427.370    5.822    0.135
   51.750  118.154    0.466 2352.810    4.723    0.180
   52.000  114.520    0.557 2254.060    3.624    0.240
   52.250  119.381    0.589 2233.910    3.065    0.252
   52.500  113.324    0.610 2221.830    3.151    0.259
   52.750  118.184    0.585 2244.010    3.332    0.246
   53.000  124.867    0.557 2262.170    3.426    0.235
   53.250  124.875    0.566 2262.180    3.522    0.235
   53.500  124.275    0.599 2268.240    3.621    0.231
   53.750  135.205    0.522 2266.230    3.828    0.233
   54.000  111.550    0.541 2288.410    4.047    0.219
   54.250  108.524    0.581 2292.450    4.161    0.217
   54.500  101.250    0.551 2266.270    3.881    0.233
   54.750  107.326    0.614 2280.380    3.569    0.224
   55.000   95.806    0.581 2381.170    5.127    0.163
   55.250   98.848    0.500 2471.880    7.468    0.108
   55.500  118.272    0.461 2308.630    9.204    0.207
   55.750  126.168    0.518 2262.290    5.270    0.235
   56.000  123.141    0.575 2268.340    4.158    0.231
   56.250  129.825    0.545 2274.400    4.100    0.228
   56.500  114.058    0.525 2306.660    3.931    0.208
   56.750  120.132    0.495 2361.090    4.334    0.175
   57.000  108.006    0.478 2349.010    5.971    0.182
   57.250  108.619    0.490 2336.930    5.970    0.190
   57.500   89.211    0.445 2304.690    5.646    0.209
   57.750   75.871    0.410 2302.690    9.995    0.210
   58.000   75.274    0.393 2332.930    9.322    0.192
   58.250   81.955    0.422 2320.850    8.222    0.199
   58.500   89.850    0.436 2294.660    7.457    0.215
   58.750   81.363    0.447 2268.470   15.390    0.231
   59.000   55.282    0.438 2240.260   32.661    0.248
   59.250   39.514    0.403 2183.840   55.462    0.283
   59.500   45.590    0.385 2197.960   75.356    0.274
   59.750   40.744    0.483 2191.920   46.910    0.278
   60.000   41.358    0.507 2208.060   31.749    0.268
   60.250   41.368    0.470 2216.130   20.898    0.263
   60.500   41.981    0.451 2226.220   19.488    0.257
   60.750   51.091    0.457 2234.290   16.951    0.252
   61.000   54.131    0.401 2236.320   15.161    0.251
   61.250   36.544    0.353 2252.450   26.844    0.241
   61.500   20.776    0.316 2246.420  560.128    0.245
   61.750   18.358    0.271 2242.400  544.690    0.247
   62.000   33.536    0.286 2250.470   65.474    0.242
   62.250   35.970    0.345 2206.140   26.831    0.269
   62.500   30.516    0.394 2198.090   51.649    0.274
   62.750   20.209    0.442 2218.250  316.136    0.262
   63.000   12.938    0.391 2236.410  466.992    0.251
   63.250   15.374    0.347 2252.540  307.377    0.241
   63.500   17.806    0.319 2242.470   53.829    0.247
   63.750   24.488    0.345 2240.470   19.189    0.248
   64.000   31.171    0.373 2236.450   18.921    0.251
   64.250   39.067    0.397 2240.490   17.160    0.248
   64.500   46.963    0.399 2254.610   16.456    0.240
   64.750   44.546    0.392 2240.510   15.561    0.248
   65.000   42.124    0.385 2218.350   15.778    0.262
   65.250   52.447    0.365 2218.360   15.342    0.262
   65.500   57.916    0.404 2218.370   13.345    0.262
   65.750   48.823    0.404 2248.620   15.554    0.243
   66.000   39.730    0.399 2244.600   13.528    0.246
   66.250   36.096    0.421 2224.460   14.105    0.258
   66.500   56.734    0.440 2232.530   12.792    0.253
   66.750   48.249    0.452 2242.620   13.337    0.247
   67.000   45.222    0.434 2228.520   17.869    0.255
   67.250   50.691    0.434 2246.670   12.967    0.244
   67.500   54.947    0.390 2232.570   12.609    0.253
   67.750   54.954    0.443 2218.470    9.023    0.262
   68.000   40.400    0.467 2210.420   10.966    0.266
   68.250   51.331    0.387 2262.840   14.289    0.235
   68.500   56.194    0.350 2274.950   15.107    0.227
   68.750   54.380    0.406 2256.810   16.653    0.238
   69.000   50.746    0.394 2226.590    8.067    0.257
   69.250   47.721    0.419 2232.650    7.844    0.253
   69.500   54.405    0.412 2214.520    5.383    0.264
   69.750   54.412    0.498 2210.500    7.952    0.266
   70.000   48.352    0.478 2230.670    8.766    0.254
   70.250   44.112    0.437 2222.620    8.888    0.259
   70.500   38.056    0.450 2220.610   10.801    0.260
   70.750   37.456    0.379 2254.890    7.730    0.239
   71.000   34.429    0.373 2357.690   19.663    0.177
   71.250   36.864    0.322 2293.200   39.467    0.216
   71.500   52.041    0.408 2258.950   22.916    0.237
   71.750   55.688    0.427 2242.840   12.068    0.247
   72.000   47.809    0.424 2214.630    9.928    0.264
   72.250   47.210    0.400 2208.600   12.936    0.268
   72.500   38.117    0.409 2214.660   11.410    0.264
   72.750   47.227    0.399 2212.650   10.493    0.265
