~VERSION INFORMATION
 VERS.                 2.0:   CWLS LOG ASCII STANDARD -VERSION 2.0
 WRAP.                  NO:   ONE LINE PER DEPTH STEP
~WELL INFORMATION BLOCK
#MNEM.UNIT           DATA                    DESCRIPTION OF MNEMONIC
#---------    -------------------            -------------------------------
# Generated from Intellog Unique Number	CC_88_90/WELL/3135
WELL.         HUSKY OIL OPERATIONS LTD.      : Well_name    - WELL
LOC .         AA/04-08-089-07W4/0            : Location     - LOCATION
UWI .         AA/04-08-089-07W400            : Uwi          - UNIQUE WELL ID
ENTR.         JOETTE                         : Entered      - ENTERED BY
SRVC.         SCHLUMBERGER                   : Scn          - SERVICE COMPANY
DATE.         03/06/92                       : Date         - LOG DATE
STRT.M        15.240                         : top_depth    - START DEPTH
STOP.M        116.240                        : bot_depth    - STOP DEPTH
STEP.M        0.25                           : increment    - STEP LENGTH
 NULL. -999.2500:NULL Value
~CURVE INFORMATION BLOCK
#MNEM UNIT       ERCB CURVE CODE    CURVE DESCRIPTION
#-----------   ------------------   ----------------------------------
DEPT.M        00 001 00 00         : DEPTH        - DEPTH
GR  .API      00 310 00 00         : GR           - GAMMA RAY
CALI.MM       00 280 01 00         : CAL          - CALIPER
DPHI.V/V      00 890 00 00         : PHID         - DENSITY POROSITY (SANDSTONE)
ILD .OHMM     00 120 00 00         : RESD         - DEEP RESISTIVITY (DIL)
~PARAMETER INFORMATION
#MNEM.UNIT           DATA             DESCRIPTION OF MNEMONIC
#---------         -----------     ------------------------------
GL  .M        422.392              : gl           - GROUND LEVEL ELEVATION
EREF.M        423.611              : kb           - ELEVATION OF DEPTH REFERENCE
DATM.M        423.611              : datum        - DATUM ELEVATION
TDD .M        180.137              : tdd          - TOTAL DEPTH DRILLER
RUN .         ONE                  : Run          - RUN NUMBER
ENG .         JO                   : Engineer     - RECORDING ENGINEER
WIT .         TIM                  : Witness      - WITNESSED BY
MUD .         GEL                  : Mud_type     - MUD TYPE
MATR.         SANDSTONE            : Logunit      - NEUTRON MATRIX
TMAX.C        12                   : BHT          - MAXIMUM RECORDED TEMPERATURE
BHTD.M        180.137              : BHTDEP       - MAXIMUM RECORDED TEMPERATURE
RMT .C        5.55556              : MDTP         - TEMPERATURE OF MUD
MUDD.KG/M     10100                : MWT          - MUD DENSITY
NEUT.         1                    : NEUTRON      - NEUTRON TYPE
RESI.         0                    : RESIST       - RESISTIVITY TYPE
RM  .OHMM     1.5                  : RM           - RESISTIVITY OF MUD
RMC .OHMM     1.8                  : RMC          - RESISTIVITY OF MUD CAKE
RMF .OHMM     1.1                  : RMF          - RESISTIVITY OF MUD FILTRATE
SUFT.C        4                    : SUFT         - SURFACE TEMPERATURE
~A  DEPTH       GR      CAL     PHID     RESD
# ...
   58.740  102.567  954.880    0.189   41.094
   58.990  110.560  965.710    0.188   40.369
   59.240  116.708  976.983    0.193   39.687
   59.490  103.806  988.034    0.200   39.017
   59.740   81.685 1009.700    0.207   38.328
   59.990   82.302 1020.530    0.207   38.417
   60.240  101.972 1031.360    0.187   38.447
   60.490  102.590 1032.460    0.180   38.521
   60.740   88.457 1033.120    0.186   38.581
   60.990   79.857 1034.230    0.193   38.640
   61.240   83.548 1035.340    0.201   37.275
   61.490   81.093 1036.440    0.221   34.605
   61.740   77.408 1026.720    0.245   31.512
   61.990   94.619  987.154    0.304   21.195
   62.240  107.528  947.370    0.332   17.231
   62.490  105.073  887.253    0.374   16.940
   62.740   96.472  827.135    0.370   19.367
   62.990  105.079  797.519    0.377   22.583
   63.240  108.770  798.624    0.383   19.434
   63.490   95.867  809.676    0.382   16.725
   63.740   91.568  820.727    0.382   11.684
   63.990   87.884  811.444    0.379   10.847
   64.240   89.116  791.995    0.371   11.076
   64.490   77.443  752.211    0.356   12.192
   64.740   80.519  722.816    0.351   18.900
   64.990  111.865  703.145    0.337   18.567
   65.240  114.941  673.750    0.315   11.797
   65.490  114.329  634.187    0.253    8.891
   65.740  111.260  614.295    0.199   13.513
   65.990   84.836  554.399    0.128  168.694
   66.240   81.767  524.561    0.269  298.516
   66.490   84.843  536.276    0.337   29.561
   66.740   89.148  547.106    0.359   22.704
   66.990  103.900  568.546    0.351   14.978
   67.240  130.330  579.155    0.345   17.137
   67.490  124.188  600.816    0.341   13.932
   67.740  111.899  601.921    0.324   14.771
   67.990  104.529  602.585    0.268   32.199
   68.240  105.146  603.469    0.250   21.250
   68.490   91.013  604.354    0.317   10.156
   68.740   85.486  615.184    0.379    8.907
   68.990   83.031  656.958    0.429   11.205
   69.240   82.420  749.345    0.439   10.601
   69.490   84.881  841.954    0.401    9.476
   69.740   82.425  873.339    0.445    8.314
   69.990   80.585  895.000    0.455    7.716
   70.240   91.650  895.663    0.437    6.767
   70.490  115.622  906.715    0.450    7.315
   70.740  122.385  907.599    0.463    8.055
   70.990  116.857  908.705    0.465    8.706
   71.240  121.162  909.810    0.421    8.395
   71.490  121.780  910.253    0.408    8.095
   71.740  121.783  911.137    0.398    9.258
   71.990  108.880  912.464    0.385   12.092
   72.240   92.905  913.348    0.396   16.409
   72.490   83.075  914.011    0.418   22.258
   72.740  100.286  895.004    0.419   14.143
   72.990  124.257  895.667    0.396    9.880
   73.240  124.875  896.773    0.370   10.085
   73.490  116.889  917.991    0.398    7.600
   73.740  111.361  959.323    0.417    6.668
   73.990   97.229 1072.270    0.432    6.188
   74.240   84.940 1083.320    0.475    5.745
   74.490   64.663 1094.370    0.471    5.436
   74.740   41.313 1095.470    0.517    4.768
   74.990   43.774 1096.360    0.491    3.876
   75.240   40.705 1097.240    0.508    3.667
   75.490   33.333 1088.180    0.540    3.817
   75.740   35.179 1089.070    0.555    4.206
   75.990   59.151 1090.170    0.561    4.290
   76.240   99.101 1090.610    0.547    4.379
   76.490  105.250 1091.500    0.500    3.842
   76.740  108.326 1092.600    0.462    4.311
   76.990   84.361 1093.490    0.424    5.219
   77.240   68.385 1094.370    0.420    6.202
   77.490   48.722 1095.260    0.410    6.701
   77.740   46.267 1096.580    0.378    7.105
   77.990   60.406 1086.860    0.395    7.391
   78.240   65.940 1067.630    0.418    8.618
   78.490   57.953 1038.010    0.408    8.796
   78.740   45.050  998.230    0.398    7.863
   78.990   45.668  948.501    0.412    7.300
   79.240   51.203  939.218    0.410    7.887
   79.490   58.581  950.269    0.368   10.111
   79.740   58.584  971.488    0.353   11.564
   79.990   54.900  941.871    0.338   12.034
   80.240   57.975  688.359    0.290   11.826
   80.490   63.510  618.296    0.177   17.975
   80.740   61.669  598.625    0.102   69.233
   80.990   61.673  579.618    0.096  153.813
   81.240   55.530  580.281    0.105  335.305
   81.490   62.908  601.721    0.133  472.785
   81.740   75.817  612.551    0.173  438.762
   81.990   83.809  634.212    0.332   34.593
   82.240   83.198  655.209    0.356   14.755
   82.490   78.284  697.204    0.366    8.528
   82.740   67.840  738.535    0.372    7.768
   82.990   57.396  779.867    0.379    9.963
   83.240   47.566  831.807    0.384   10.764
   83.490   35.892  893.915    0.367   10.987
   83.740   32.823  925.079    0.368   10.005
   83.990   35.284  977.020    0.378    9.466
   84.240   38.360 1018.570    0.398    8.795
   84.490   37.134 1050.180    0.403    8.481
   84.740   40.210 1081.560    0.411    8.178
   84.990   46.359 1093.060    0.424    8.348
   85.240   38.987 1093.500    0.409    8.517
   85.490   43.907 1084.440    0.398    9.566
   85.740   48.826 1075.160    0.376   11.798
   85.990   48.830 1035.590    0.353   14.556
   86.240   46.989  995.589    0.371   19.018
   86.490   46.377  986.085    0.370   18.001
   86.740   46.381  977.466    0.388   10.598
   86.990   42.697  977.908    0.402    9.473
   87.240   48.231 1009.290    0.396    8.795
   87.490   48.849 1050.850    0.405    8.812
   87.740   36.560 1072.290    0.413    8.024
   87.990   29.189 1073.610    0.414    6.649
   88.240   25.505 1074.050    0.412    6.291
   88.490   21.820 1075.380    0.414    6.066
   88.740   31.042 1076.040    0.416    5.528
   88.990   48.867 1077.150    0.410    6.204
   89.240   44.568 1077.810    0.408    7.654
   89.490   42.728 1068.970    0.428    6.842
   89.740   45.190 1069.420    0.426    5.888
   89.990   47.651 1060.350    0.397    6.244
   90.240   71.622 1030.740    0.389    8.633
   90.490   87.604  990.954    0.433    4.289
   90.740   92.523  951.170    0.462    3.689
   90.990   94.370  931.721    0.465    3.766
   91.240   77.780  942.772    0.441    4.389
   91.490   71.638  954.045    0.407    5.521
   91.740   86.391  975.263    0.371    6.315
   91.990   96.841  986.315    0.342    6.956
   92.240   96.230  916.030    0.310    7.660
   92.490   95.618  794.910    0.283    9.631
   92.740   82.716  714.459    0.222   23.084
   92.990   72.272  654.341    0.220   43.239
   93.240   64.285  624.724    0.334   17.757
   93.490   64.903  656.110    0.354    8.990
   93.740   82.728  748.719    0.361    9.004
   93.990   82.117  810.605    0.374    9.014
   94.240   75.360  862.325    0.350    9.930
   94.490   75.363  924.432    0.350   10.729
   94.740   77.210  976.594    0.368   11.814
   94.990   71.068 1007.540    0.392   10.362
   95.240   69.227 1028.760    0.415    9.439
   95.490   66.772 1070.750    0.409    9.280
   95.740   63.702 1081.580    0.379    8.948
   95.990   46.498 1113.410    0.368    9.134
   96.240   45.886 1134.630    0.373   10.854
   96.490   55.722 1145.460    0.410    9.698
   96.740   73.548 1156.290    0.428    9.355
   96.990   83.999 1167.560    0.440    8.852
   97.240   79.700 1178.610    0.471    7.196
   97.490   66.797 1179.720    0.520    5.322
   97.740   48.978 1180.380    0.530    3.578
   97.990   71.105 1181.490    0.482    4.253
   98.240   95.691 1172.420    0.489    4.023
   98.490  123.964 1163.140    0.484    4.108
   98.740  115.978 1163.810    0.446    4.521
   98.990  115.981 1144.580    0.438    4.981
   99.240  124.588 1124.910    0.426    4.452
   99.490  120.904 1095.510    0.373    4.459
   99.740   92.637 1055.950    0.393    5.100
   99.990   76.047 1026.550    0.423    6.294
  100.240   47.780 1016.830    0.443    7.066
  100.490   63.762  997.599    0.452    5.965
  100.740  106.785  988.096    0.426    4.944
  100.990  104.330  968.646    0.377    5.760
  101.240  106.176  949.418    0.357    7.670
  101.490   93.888  940.135    0.368    8.611
  101.740   61.934  931.074    0.338    8.300
  101.990   44.115  931.958    0.317   13.365
