~VERSION INFORMATION
 VERS.                 2.0:   CWLS LOG ASCII STANDARD -VERSION 2.0
 WRAP.                  NO:   ONE LINE PER DEPTH STEP
~WELL INFORMATION BLOCK
#MNEM.UNIT           DATA                    DESCRIPTION OF MNEMONIC
#---------    -------------------            -------------------------------
# Generated from Intellog Unique Number	CC_84_87/WELL/1055
NULL.         -999.25                        : NULL_VALUE
WELL.         PCI PCEJ HANGST OV             : Well_name    - WELL              
LOC .         04-24-084-12W4                 : Location     - LOCATION          
UWI .         AA/04-24-084-12W400            : Uwi          - UNIQUE WELL ID    
ENTR.         DW                             : Entered      - ENTERED BY        
SRVC.         SCHLUMBERGER                   : Scn          - SERVICE COMPANY   
DATE.         01 FEB 84                      : Date         - LOG DATE
STRT.M        105                            : top_depth    - START DEPTH       
STOP.M        309.899                        : bot_depth    - STOP DEPTH        
STEP.M        0.3                            : increment    - STEP LENGTH       
~CURVE INFORMATION BLOCK
#MNEM UNIT       ERCB CURVE CODE    CURVE DESCRIPTION
#-----------   ------------------   ----------------------------------
DEPT.M        00 001 00 00         : DEPTH        - DEPTH                       
DPHI.V/V      00 890 00 00         : PHID         - DENSITY POROSITY (LIMESTONE)
NPHI.V/V      00 330 00 00         : PHIN         - NEUTRON POROSITY (LIMESTONE)
GR  .API      00 310 00 00         : GR           - GAMMA RAY                   
ILD .OHMM     00 120 00 00         : RESD         - DEEP RESISTIVITY (DIL)      
~PARAMETER INFORMATION       
#MNEM.UNIT           DATA             DESCRIPTION OF MNEMONIC
#---------         -----------     ------------------------------
GL  .M        555                  : gl           - GROUND LEVEL ELEVATION      
EREF.M        558.2                : kb           - ELEVATION OF DEPTH REFERENCE
DATM.M        558.2                : datum        - DATUM ELEVATION             
TDD .M        321                  : tdd          - TOTAL DEPTH DRILLER         
RUN .         ONE                  : Run          - RUN NUMBER                  
ENG .         BILL                 : Engineer     - RECORDING ENGINEER          
WIT .         JIM                  : Witness      - WITNESSED BY                
MUD .         GEL                  : Mud_type     - MUD TYPE                    
MATR.         LIMESTONE            : Logunit      - NEUTRON MATRIX              
TMAX.C        23                   : BHT          - MAXIMUM RECORDED TEMPERATURE
BHTD.M        322                  : BHTDEP       - MAXIMUM RECORDED TEMPERATURE
MATR.         1                    : LOGUNIT      - NEUTRON MATRIX              
RMT .C        25                   : MDTP         - TEMPERATURE OF MUD          
NEUT.         1                    : NEUTRON      - NEUTRON TYPE                
RESI.         0                    : RESIST       - RESISTIVITY TYPE            
RMC .OHMM     0.25                 : RMC          - RESISTIVITY OF MUD CAKE     
RMF .OHMM     0.25                 : RMF          - RESISTIVITY OF MUD FILTRATE 
SUFT.C        4                    : SUFT         - SURFACE TEMPERATURE         
~A  DEPTH     PHID     PHIN       GR     RESD
# ...
  157.201    0.325    0.426   50.039   18.939
  157.501    0.310    0.382   48.773   18.590
  157.801    0.313    0.382   51.735   17.909
  158.101    0.340    0.409   51.083   17.579
  158.401    0.337    0.409   57.074   17.585
  158.701    0.300    0.393   58.234   17.588
  159.001    0.294    0.408   56.365   16.943
  159.301    0.300    0.395   58.732   16.017
  159.601    0.311    0.407   62.917   14.044
  159.901    0.309    0.421   69.516   10.396
  160.201    0.290    0.388   82.763    8.298
  160.501    0.226    0.382   92.990    7.698
  160.801    0.255    0.426   97.170    7.141
  161.101    0.258    0.454  104.376    7.010
  161.401    0.215    0.477  112.788    6.882
  161.701    0.211    0.475  111.525    6.883
  162.001    0.208    0.457  108.445    7.016
  162.301    0.196    0.463  107.785    7.151
  162.601    0.178    0.444  107.729    7.152
  162.901    0.200    0.466  107.686    7.155
  163.201    0.226    0.492  107.018    7.292
  163.501    0.200    0.485  108.783    7.433
  163.801    0.221    0.448  112.968    7.435
  164.101    0.218    0.439  113.515    7.436
  164.401    0.195    0.448  110.439    7.299
  164.701    0.191    0.447  113.410    7.165
  165.001    0.191    0.455  116.984    7.303
  165.301    0.186    0.449  113.305    7.305
  165.601    0.166    0.464  109.016    7.306
  165.901    0.193    0.451  105.338    7.172
  166.201    0.215    0.457  109.517    7.174
  166.501    0.220    0.508  117.328    6.911
  166.801    0.213    0.530  119.080    6.657
  167.101    0.169    0.496  119.638    6.413
  167.401    0.176    0.449  124.423    6.295
  167.701    0.189    0.458  123.161    6.179
  168.001    0.186    0.473  120.080    5.953
  168.301    0.196    0.496  118.213    5.843
  168.601    0.225    0.519  113.931    5.524
  168.901    0.240    0.520  117.509    5.422
  169.201    0.213    0.502  112.010    5.224
  169.501    0.220    0.514  110.148    5.324
  169.801    0.232    0.501  105.257    5.426
  170.101    0.230    0.469  105.800    5.636
  170.401    0.215    0.472  107.571    5.035
  170.701    0.212    0.472  108.721    4.499
  171.001    0.242    0.487  107.453    4.761
  171.301    0.256    0.516  102.574    5.749
  171.601    0.264    0.492   94.658    6.438
  171.901    0.278    0.494   84.325    6.562
  172.201    0.262    0.467   82.460    6.815
  172.501    0.258    0.441   89.658    7.489
  172.801    0.260    0.444   93.233    8.385
  173.101    0.238    0.473   90.768    9.568
  173.401    0.024    0.508   70.760   11.552
  173.701    0.101    0.504   53.170   12.935
  174.001    0.199    0.328   60.368   13.951
  174.301    0.290    0.387   63.946   14.219
  174.601    0.313    0.448   63.287   14.494
  174.901    0.296    0.440   60.814   14.226
  175.201    0.283    0.412   60.768   14.229
  175.501    0.297    0.412   65.547   14.504
  175.801    0.318    0.437   64.891   14.237
  176.101    0.328    0.429   61.204   13.715
  176.401    0.333    0.440   62.967   13.462
  176.701    0.340    0.462   64.735   12.489
  177.001    0.339    0.462   64.075   10.350
  177.301    0.320    0.449   65.223    9.424
  177.601    0.316    0.433   68.202    9.787
  177.901    0.319    0.443   72.987   10.165
  178.201    0.291    0.441   75.352   11.170
  178.501    0.268    0.442   70.460   12.276
  178.801    0.271    0.460   64.959   13.238
  179.101    0.285    0.457   64.916   14.011
  179.401    0.307    0.461   66.067   14.279
  179.701    0.312    0.457   70.249   14.284
  180.001    0.325    0.433   74.425   13.759
  180.301    0.336    0.432   71.345   13.256
  180.601    0.328    0.460   68.882   13.260
  180.901    0.308    0.470   63.381   13.014
  181.201    0.253    0.475   60.311   13.265
  181.501    0.216    0.470   63.279   13.520
  181.801    0.300    0.469   64.433   13.272
  182.101    0.314    0.474   67.407   13.275
  182.401    0.310    0.429   70.981   13.278
  182.701    0.310    0.425   71.530   14.052
  183.001    0.312    0.427   70.870   16.339
  183.301    0.312    0.423   70.216   17.621
  183.601    0.247    0.445   64.726   17.960
  183.901    0.017    0.472   51.370   16.352
  184.201    0.070    0.206   47.687   11.658
  184.501    0.133    0.286   48.839   10.221
  184.801    0.162    0.315   57.254    8.470
  185.101    0.235    0.376   65.063    7.289
  185.401    0.272    0.417   81.939    7.021
  185.701    0.274    0.436   88.537    7.293
  186.001    0.250    0.428   90.299    8.014
  186.301    0.232    0.430   87.825    9.675
  186.601    0.260    0.473   80.522   10.049
  186.901    0.295    0.501   78.045    9.680
  187.201    0.291    0.442   77.987    8.813
  187.501    0.292    0.431   75.524    7.874
  187.801    0.313    0.459   69.422    7.305
  188.101    0.302    0.430   71.788    7.446
  188.401    0.274    0.427   78.993    8.182
  188.701    0.251    0.448   85.588    8.340
  189.001    0.280    0.458   81.912    7.451
  189.301    0.300    0.462   72.789    5.312
  189.601    0.293    0.475   75.152    3.787
  189.901    0.271    0.437   79.939    3.259
  190.201    0.199    0.443   84.722    3.199
  190.501    0.237    0.504  102.202    3.200
  190.801    0.277    0.548  105.775    3.261
  191.101    0.260    0.561  106.333    3.584
  191.401    0.265    0.570   99.622    4.013
  191.701    0.284    0.572   91.103    4.014
  192.001    0.306    0.526   85.610    3.795
  192.301    0.300    0.541   86.162    3.327
  192.601    0.257    0.517   89.138    3.087
  192.901    0.284    0.503   99.361    3.457
  193.201    0.293    0.518   99.306    4.095
  193.501    0.302    0.551   91.396    5.331
  193.801    0.311    0.545   88.924    8.066
  194.101    0.288    0.570   84.634    8.537
  194.401    0.298    0.508   79.740    8.223
  194.701    0.301    0.487   79.088    6.945
  195.001    0.281    0.453   79.641    5.976
  195.301    0.246    0.436   84.422    5.649
  195.601    0.261    0.451   90.419    6.208
  195.901    0.315    0.457   90.366    8.390
  196.201    0.310    0.466   87.287    9.574
  196.501    0.301    0.483   82.999    9.577
  196.801    0.277    0.482   70.254    9.579
  197.101    0.258    0.451   68.384    9.581
  197.401    0.281    0.411   77.405   10.729
  197.701    0.284    0.414   81.583   13.965
  198.001    0.298    0.429   73.667   15.061
  198.301    0.324    0.470   62.123   13.973
  198.601    0.305    0.488   53.609   12.484
  198.901    0.140    0.306   48.721   11.366
  199.201    0.204    0.360   58.943   10.950
  199.501    0.310    0.445   65.538   10.952
  199.801    0.334    0.454   65.481   11.163
  200.101    0.334    0.441   65.427   10.958
  200.401    0.322    0.429   65.380   10.961
  200.701    0.314    0.427   62.905   10.964
  201.001    0.318    0.447   61.044   10.966
  201.301    0.309    0.459   59.179   10.969
  201.601    0.311    0.457   58.522   10.972
  201.901    0.316    0.436   57.858   10.974
  202.201    0.308    0.436   57.798   10.977
  202.501    0.305    0.475   58.359   10.980
  202.801    0.316    0.466   59.513   10.982
  203.101    0.326    0.441   60.677   10.780
  203.401    0.328    0.445   60.015   10.386
  203.701    0.331    0.449   59.962   10.388
  204.001    0.326    0.438   63.538   10.197
  204.301    0.318    0.442   66.507   10.393
  204.601    0.324    0.453   61.616   11.638
  204.901    0.335    0.446   60.358   14.050
  205.201    0.324    0.437   60.897   18.288
  205.501    0.323    0.435   60.858   19.723
  205.801    0.327    0.473   56.558   18.298
  206.101    0.316    0.466   54.697   15.451
  206.401    0.290    0.247   54.045   12.332
  206.701    0.275    0.299   57.618   10.612
  207.001    0.298    0.356   59.377   10.418
  207.301    0.315    0.400   59.331   10.419
  207.601    0.320    0.444   61.693   10.423
  207.901    0.307    0.466   65.266   10.623
  208.201    0.309    0.455   65.219   10.626
  208.501    0.306    0.452   63.350   10.430
  208.801    0.302    0.461   63.294   10.433
  209.101    0.305    0.458   65.052   10.436
