~VERSION INFORMATION
 VERS.                 2.0:   CWLS LOG ASCII STANDARD -VERSION 2.0
 WRAP.                  NO:   ONE LINE PER DEPTH STEP
~WELL INFORMATION BLOCK
#MNEM.UNIT           DATA                    DESCRIPTION OF MNEMONIC
#---------    -------------------            -------------------------------
# Generated from Intellog Unique Number	CC_88_90/WELL/3135
WELL.         HUSKY OIL OPERATIONS LTD.      : Well_name    - WELL
LOC .         AA/04-08-089-07W4/0            : Location     - LOCATION
UWI .         AA/04-08-089-07W400            : Uwi          - UNIQUE WELL ID
ENTR.         JOETTE                         : Entered      - ENTERED BY
SRVC.         SCHLUMBERGER                   : Scn          - SERVICE COMPANY
DATE.         03/06/92                       : Date         - LOG DATE
STRT.M        15.240                         : top_depth    - START DEPTH
STOP.M        116.240                        : bot_depth    - STOP DEPTH
STEP.M        0.25                           : increment    - STEP LENGTH
 NULL. -999.2500:NULL Value
~CURVE INFORMATION BLOCK
#MNEM UNIT       ERCB CURVE CODE    CURVE DESCRIPTION
#-----------   ------------------   ----------------------------------
DEPT.M        00 001 00 00         : DEPTH        - DEPTH
GR  .API      00 310 00 00         : GR           - GAMMA RAY
CALI.MM       00 280 01 00         : CAL          - CALIPER
DPHI.V/V      00 890 00 00         : PHID         - DENSITY POROSITY (SANDSTONE)
ILD .OHMM     00 120 00 00         : RESD         - DEEP RESISTIVITY (DIL)
~PARAMETER INFORMATION
#MNEM.UNIT           DATA             DESCRIPTION OF MNEMONIC
#---------         -----------     ------------------------------
GL  .M        422.392              : gl           - GROUND LEVEL ELEVATION
EREF.M        423.611              : kb           - ELEVATION OF DEPTH REFERENCE
DATM.M        423.611              : datum        - DATUM ELEVATION
TDD .M        180.137              : tdd          - TOTAL DEPTH DRILLER
RUN .         ONE                  : Run          - RUN NUMBER
ENG .         JO                   : Engineer     - RECORDING ENGINEER
WIT .         TIM                  : Witness      - WITNESSED BY
MUD .         GEL                  : Mud_type     - MUD TYPE
MATR.         SANDSTONE            : Logunit      - NEUTRON MATRIX
TMAX.C        12                   : BHT          - MAXIMUM RECORDED TEMPERATURE
BHTD.M        180.137              : BHTDEP       - MAXIMUM RECORDED TEMPERATURE
RMT .C        5.55556              : MDTP         - TEMPERATURE OF MUD
MUDD.KG/M     10100                : MWT          - MUD DENSITY
NEUT.         1                    : NEUTRON      - NEUTRON TYPE
RESI.         0                    : RESIST       - RESISTIVITY TYPE
RM  .OHMM     1.5                  : RM           - RESISTIVITY OF MUD
RMC .OHMM     1.8                  : RMC          - RESISTIVITY OF MUD CAKE
RMF .OHMM     1.1                  : RMF          - RESISTIVITY OF MUD FILTRATE
SUFT.C        4                    : SUFT         - SURFACE TEMPERATURE
~A  DEPTH       GR      CAL     PHID     RESD
   15.240   85.425 1047.870    0.189 1695.790
   15.490   84.199 1059.580    0.187 1378.150
   15.740   87.275 1060.020    0.176  962.750
   15.990   96.496 1060.690    0.179  672.561
   16.240  112.478 1072.180    0.200  126.895
   16.490  106.336 1072.840    0.211   76.171
   16.740  105.725 1063.780    0.226  113.644
   16.990  119.863 1044.550    0.244  758.555
   17.240  127.241 1034.830    0.282  819.587
   17.490  113.723 1015.380    0.218  679.081
   17.740  111.268 1006.320    0.188  448.164
   17.990  124.792 1007.420    0.206  344.345
   18.240  121.108 1008.310    0.217  351.343
   18.490  110.048 1009.190    0.236  152.730
   18.740  109.437 1010.080    0.232   93.433
   18.990  105.138 1010.960    0.223  144.843
   19.240  102.683 1011.840    0.241  175.284
   19.490  103.916 1012.730    0.220  159.677
   19.740  112.523 1013.830    0.215  257.003
   19.990  105.765 1024.890    0.231  413.651
   20.240   93.477 1035.720    0.234  653.024
   20.490  100.855 1057.160    0.242  992.939
   20.740   95.942 1098.930    0.225 1373.230
   20.990  108.237 1109.760    0.196 1726.740
   21.240  115.614 1120.810    0.190 1974.870
   21.490  119.920 1132.310    0.203 1800.410
   21.740  127.297 1133.630    0.208 1736.090
   21.990  112.551 1144.240    0.211 1738.780
   22.240  104.565 1144.900    0.214 1613.650
   22.490  107.641 1145.790    0.231 1362.610
   22.740  118.706 1157.500    0.237 1314.440
   22.990  121.168 1157.950    0.237 1420.200
   23.240  121.171 1158.830    0.236 1221.730
   23.490  109.497 1159.710    0.239  630.151
   23.740   90.449 1160.600    0.244  206.120
   23.990   89.838 1161.930    0.269   79.966
   24.240   93.528 1172.760    0.270   62.594
   24.490   94.760 1184.030    0.270   84.941
   24.740  108.899 1184.910    0.289  286.388
   24.990  120.578 1185.800    0.313 1082.340
   25.240  126.727 1146.010    0.306 1084.010
   25.490  125.501 1126.560    0.314 1065.710
   25.740  106.453 1127.450    0.279 1780.880
   25.990   84.331 1159.060    0.246 2462.010
   26.240   97.856 1180.270    0.225 2514.950
   26.490   89.255 1191.330    0.235 2471.530
   26.740   91.102 1212.770    0.238 2669.360
   26.990   99.094 1223.600    0.293 2884.130
   27.240   99.712 1235.090    0.293 3237.860
   27.490  102.173 1245.920    0.292 3368.200
   27.740   96.030 1247.020    0.290 2308.770
   27.990  102.794 1247.690    0.294  966.282
   28.240  124.307 1248.570    0.287  507.737
   28.490  135.987 1249.460    0.270  122.669
   28.740  129.230 1240.170    0.248  176.140
   28.990  116.941 1220.720    0.257  272.846
   29.240  102.195 1221.830    0.289  790.763
   29.490  112.646 1222.940    0.313 1538.460
   29.740  114.493 1233.770    0.271 2294.450
   29.990  118.183 1265.590    0.265 2886.210
   30.240  121.874 1286.590    0.289 2783.110
   30.490  118.189 1338.530    0.340 2178.480
   30.740  115.734 1370.140    0.353 1282.610
   30.990  118.196 1390.910    0.362 1168.860
   31.240  120.043 1401.970    0.372 1388.480
   31.490  108.984 1393.350    0.365 1649.380
   31.740  100.998 1383.620    0.347 2036.590
   31.990  102.229 1354.230    0.317 2285.500
   32.240  113.295 1334.560    0.312 2468.430
   32.490  102.850 1305.160    0.322 2719.130
   32.740  101.625 1285.490    0.297 2725.440
   32.990  104.701 1246.150    0.291 2676.310
   33.240  110.849 1236.420    0.313 2438.010
   33.490  112.082 1217.200    0.302 2441.780
   33.740  105.325 1197.750    0.274 2640.270
   33.990  109.630 1168.130    0.260 2497.170
   34.240  109.633 1158.850    0.261 1442.630
   34.490  107.792 1129.450    0.267 1087.200
   34.740  108.410 1110.000    0.258 1131.400
   34.990   99.809 1080.390    0.249 1154.840
   35.240   99.812 1060.940    0.234  993.845
   35.490   97.972 1041.490    0.242  552.785
   35.740   83.225 1012.090    0.258  285.118
   35.990   88.145  992.641    0.271  161.621
   36.240   94.909  972.970    0.281   89.930
   36.490   89.380  933.850    0.310   81.922
   36.740   91.842  924.125    0.336   65.352
   36.990  101.678  904.897    0.346   66.706
   37.240  102.296  905.560    0.345   66.809
   37.490   93.081  896.277    0.340   77.902
   37.740  105.375  886.995    0.349   90.872
   37.990  120.742  857.820    0.357   91.012
   38.240  120.131  848.317    0.345   91.153
   38.490  117.061  798.808    0.347   91.258
   38.740  120.137  778.917    0.328  104.372
   38.990  109.079  749.300    0.304  136.365
   39.240   99.249  719.683    0.292  161.988
   39.490   94.949  690.288    0.278  159.191
   39.740   98.640  671.060    0.249  142.293
   39.990   99.258  671.502    0.251  120.155
   40.240  100.490  662.440    0.242   92.285
   40.490   98.650  663.546    0.236   82.489
   40.740   91.892  674.376    0.229   82.649
   40.990   96.197  675.482    0.226   79.696
   41.240  108.492  686.312    0.230   76.849
   41.490   94.975  687.418    0.228   72.712
   41.740   95.593  698.690    0.232   63.773
   41.990  102.356  699.575    0.223   53.852
   42.240   92.526  710.626    0.208   48.154
   42.490  101.747  721.678    0.207   45.562
   42.740  100.522  732.950    0.197   45.614
   42.990   89.463  743.780    0.202   44.844
   43.240   88.852  755.274    0.210   44.913
   43.490   94.386  755.938    0.215   46.739
   43.740   98.691  766.768    0.204   48.621
   43.990   95.621  767.873    0.209   48.696
   44.240   88.864  778.925    0.217   46.956
   44.490   91.325  780.030    0.255   43.594
   44.740  118.369  791.082    0.284   41.247
   44.990  104.852  792.187    0.330   40.551
   45.240   93.178  792.630    0.327   40.597
   45.490   90.723  793.735    0.304   40.660
   45.740   89.498  794.620    0.289   42.330
   45.990  112.239  795.725    0.287   41.583
   46.240  123.919  796.831    0.287   40.113
   46.490  113.475  797.273    0.299   40.159
   46.740  114.708  798.600    0.303   38.739
   46.990  114.710  799.705    0.293   39.542
   47.240  104.266  800.147    0.268   40.361
   47.490   98.738  801.253    0.249   44.443
   47.740   97.512  802.137    0.242   44.529
   47.990  109.806  803.243    0.261   41.325
   48.240  120.258  814.073    0.259   39.864
   48.490  110.427  815.179    0.266   40.705
   48.740  107.357  815.842    0.257   41.549
   48.990  109.819  827.336    0.240   42.426
   49.240  108.593  828.220    0.215   44.116
   49.490  108.597  829.326    0.211   45.892
   49.740  116.589  819.822    0.219   46.843
   49.990  112.290  820.485    0.216   50.612
   50.240   93.241  801.257    0.233   49.738
   50.490   87.099  781.586    0.260   43.623
   50.740   82.800  742.024    0.318   38.275
   50.990   80.960  753.075    0.327   35.534
   51.240   72.974  774.515    0.282   34.934
   51.490   64.987  785.345    0.255   37.022
   51.740   74.823  806.785    0.241   40.016
   51.990   83.430  807.448    0.247   39.340
   52.240   88.350  808.996    0.237   40.140
   52.490   96.957  809.659    0.226   43.386
   52.740  116.012  810.544    0.220   43.453
   52.990  106.797  801.261    0.215   42.703
   53.240  117.862  791.757    0.209   41.965
   53.490  127.084  793.084    0.218   42.030
   53.740  120.327  783.580    0.221   43.739
   53.990  116.642  784.907    0.212   45.500
   54.240  120.948  785.570    0.202   46.442
   54.490  124.024  786.676    0.202   43.942
   54.740  128.329  776.951    0.211   43.184
   54.990  116.655  767.890    0.217   45.817
   55.240  110.512  758.607    0.217   45.852
   55.490   95.766  769.880    0.207   45.061
   55.740   90.239  791.319    0.194   45.165
   55.990   97.002  801.929    0.193   46.101
   56.240  102.536  833.535    0.193   47.074
   56.490  110.528  844.808    0.202   48.012
   56.740  106.844  856.080    0.211   48.105
   56.990  111.764  856.522    0.213   48.179
   57.240  106.850  868.016    0.208   48.272
   57.490  108.697  878.846    0.197   47.439
   57.740  105.627  890.340    0.193   47.494
   57.990   93.954  900.949    0.201   46.674
   58.240   93.957  922.389    0.199   44.212
   58.490  104.408  943.607    0.194   43.432
