~VERSION INFORMATION
 VERS.                 2.0:   CWLS LOG ASCII STANDARD -VERSION 2.0
 WRAP.                  NO:   ONE LINE PER DEPTH STEP
~WELL INFORMATION BLOCK
#MNEM.UNIT           DATA                    DESCRIPTION OF MNEMONIC
#---------    -------------------            -------------------------------
# Generated from Intellog Unique Number	CC_84_87/WELL/1055
NULL.         -999.25                        : NULL_VALUE
WELL.         PCI PCEJ HANGST OV             : Well_name    - WELL              
LOC .         04-24-084-12W4                 : Location     - LOCATION          
UWI .         AA/04-24-084-12W400            : Uwi          - UNIQUE WELL ID    
ENTR.         DW                             : Entered      - ENTERED BY        
SRVC.         SCHLUMBERGER                   : Scn          - SERVICE COMPANY   
DATE.         01 FEB 84                      : Date         - LOG DATE
STRT.M        105                            : top_depth    - START DEPTH       
STOP.M        309.899                        : bot_depth    - STOP DEPTH        
STEP.M        0.3                            : increment    - STEP LENGTH       
~CURVE INFORMATION BLOCK
#MNEM UNIT       ERCB CURVE CODE    CURVE DESCRIPTION
#-----------   ------------------   ----------------------------------
DEPT.M        00 001 00 00         : DEPTH        - DEPTH                       
DPHI.V/V      00 890 00 00         : PHID         - DENSITY POROSITY (LIMESTONE)
NPHI.V/V      00 330 00 00         : PHIN         - NEUTRON POROSITY (LIMESTONE)
GR  .API      00 310 00 00         : GR           - GAMMA RAY                   
ILD .OHMM     00 120 00 00         : RESD         - DEEP RESISTIVITY (DIL)      
~PARAMETER INFORMATION       
#MNEM.UNIT           DATA             DESCRIPTION OF MNEMONIC
#---------         -----------     ------------------------------
GL  .M        555                  : gl           - GROUND LEVEL ELEVATION      
EREF.M        558.2                : kb           - ELEVATION OF DEPTH REFERENCE
DATM.M        558.2                : datum        - DATUM ELEVATION             
TDD .M        321                  : tdd          - TOTAL DEPTH DRILLER         
RUN .         ONE                  : Run          - RUN NUMBER                  
ENG .         BILL                 : Engineer     - RECORDING ENGINEER          
WIT .         JIM                  : Witness      - WITNESSED BY                
MUD .         GEL                  : Mud_type     - MUD TYPE                    
MATR.         LIMESTONE            : Logunit      - NEUTRON MATRIX              
TMAX.C        23                   : BHT          - MAXIMUM RECORDED TEMPERATURE
BHTD.M        322                  : BHTDEP       - MAXIMUM RECORDED TEMPERATURE
MATR.         1                    : LOGUNIT      - NEUTRON MATRIX              
RMT .C        25                   : MDTP         - TEMPERATURE OF MUD          
NEUT.         1                    : NEUTRON      - NEUTRON TYPE                
RESI.         0                    : RESIST       - RESISTIVITY TYPE            
RMC .OHMM     0.25                 : RMC          - RESISTIVITY OF MUD CAKE     
RMF .OHMM     0.25                 : RMF          - RESISTIVITY OF MUD FILTRATE 
SUFT.C        4                    : SUFT         - SURFACE TEMPERATURE         
~A  DEPTH     PHID     PHIN       GR     RESD
# ...
  261.601    0.224    0.464   98.706    3.527
  261.901    0.232    0.473  102.895    3.595
  262.201    0.257    0.492  105.257    4.025
  262.501    0.270    0.488  102.785    5.046
  262.801    0.248    0.505   99.710    7.928
  263.101    0.258    0.493   93.007    9.393
  263.401    0.251    0.494   69.979    9.049
  263.701    0.109    0.481   67.499    8.554
  264.001    0.144    0.326   78.340    8.397
  264.301    0.230    0.362   78.885    8.242
  264.601    0.375    0.454   72.792    8.889
  264.901    0.379    0.487   69.715    9.954
  265.201    0.261    0.450   85.989   13.969
  265.501    0.261    0.399   87.752   24.569
  265.801    0.270    0.430   76.812   26.497
  266.101    0.294    0.455   72.528   24.125
  266.401    0.280    0.431   46.470   19.991
  266.701    0.271    0.398   52.460   16.258
  267.001    0.247    0.374   66.317   15.662
  267.301    0.218    0.357   70.493   16.266
  267.601    0.239    0.375   65.611   15.669
  267.901    0.266    0.404   57.694   14.001
  268.201    0.271    0.374   54.617   11.823
  268.501    0.252    0.381   55.165   11.389
  268.801    0.200    0.374   79.910   11.180
  269.101    0.211    0.323   97.999   11.396
  269.401    0.263    0.343  103.389   11.615
  269.701    0.278    0.394   95.474   12.062
  270.001    0.221    0.384   96.023   13.507
  270.301    0.218    0.374  103.230   17.254
  270.601    0.219    0.379  111.642   28.148
  270.901    0.214    0.375  101.307   45.920
  271.201    0.199    0.406   89.763   48.598
  271.501    0.153    0.420   46.783   45.090
  271.801    0.215    0.336   52.776   41.052
  272.101    0.273    0.313   66.026   37.373
  272.401    0.290    0.356   67.180   32.158
  272.701    0.256    0.372   62.292   26.153
  273.001    0.265    0.384   57.394   20.873
  273.301    0.281    0.382   59.767   14.331
  273.601    0.234    0.352   79.064   12.102
  273.901    0.212    0.317   83.238   11.228
  274.201    0.185    0.315   86.208   11.444
  274.501    0.210    0.324   95.835   13.558
  274.801    0.217    0.375   95.173   18.674
  275.101    0.272    0.417   79.401   21.307
  275.401    0.278    0.441   79.350   25.245
  275.701    0.248    0.394   79.293   26.719
  276.001    0.235    0.387   68.361   26.228
  276.301    0.024    0.372   58.632   25.744
  276.601    0.104    0.264   64.627   27.246
  276.901    0.206    0.279   79.691   27.772
  277.201    0.257    0.330   55.445   27.260
  277.501    0.295    0.388   55.396   24.818
  277.801    0.278    0.381   62.600   20.567
  278.101    0.255    0.347   64.963   15.808
  278.401    0.252    0.344   72.773   13.351
  278.701    0.199    0.335   89.045   12.861
  279.001    0.228    0.355   89.597   12.864
  279.301    0.219    0.368   90.145   13.360
  279.601    0.198    0.362   97.346   13.876
  279.901    0.198    0.366   95.487   14.142
  280.201    0.212    0.382   86.968   14.146
  280.501    0.220    0.407   83.288   14.972
  280.801    0.220    0.397   90.489   15.259
  281.101    0.206    0.378  111.599   15.554
  281.401    0.199    0.372  120.010   15.557
  281.701    0.209    0.357  121.772   15.562
  282.000    0.176    0.334  125.952   16.163
  282.300    0.192    0.332  125.293   16.786
  282.600    0.232    0.362  114.358   18.446
  282.900    0.241    0.372  113.701   19.893
  283.200    0.232    0.376  114.854   21.453
  283.500    0.215    0.372  114.800   23.135
  283.800    0.194    0.353  114.142   26.398
  284.100    0.203    0.367  114.092   32.476
  284.400    0.256    0.379  105.577   52.980
  284.700    0.275    0.392   89.801   55.026
  285.000    0.290    0.397   85.517   43.917
  285.300    0.288    0.380   83.042   25.455
  285.600    0.272    0.371  124.710   22.321
  285.900    0.267    0.371  154.285   23.622
  286.200    0.180    0.338  151.820   28.519
  286.500    0.241    0.343  140.873   38.546
  286.800    0.282    0.417  129.337   56.169
  287.100    0.298    0.409  102.670   89.925
  287.400    0.309    0.418   97.784  123.849
  287.700    0.319    0.420   91.084  138.699
  288.000    0.324    0.400   52.939  141.359
  288.300    0.327    0.372   48.635  138.764
  288.600    0.324    0.394   48.596  119.400
  288.900    0.318    0.394   50.961  115.018
  289.200    0.317    0.388   55.746  117.238
  289.500    0.317    0.377  106.489  124.076
  289.800    0.319    0.364  103.414  131.305
  290.100    0.321    0.381   84.011  131.350
  290.400    0.326    0.404   52.512  139.001
  290.700    0.330    0.393   48.834  167.818
  291.000    0.327    0.367   85.666  171.048
  291.300    0.322    0.369   97.103  136.512
  291.600    0.317    0.385  105.509   22.015
  291.900    0.316    0.385  118.160   15.402
  292.200    0.318    0.380  121.729   13.761
  292.500    0.187    0.327  102.330   13.765
  292.800    0.174    0.341   90.788   14.297
  293.100    0.190    0.374   90.730   14.572
  293.400    0.204    0.378   93.098   15.422
  293.700    0.180    0.366   94.257   16.322
  294.000    0.184    0.363   92.983   17.274
  294.300    0.213    0.361   89.914   17.940
  294.600    0.229    0.381   85.027   18.285
  294.900    0.235    0.371   81.346   16.964
  295.200    0.188    0.351   80.086   15.158
  295.500    0.152    0.362   84.860   14.329
  295.800    0.149    0.361   90.859   14.333
  296.100    0.164    0.365   94.435   14.609
  296.400    0.199    0.370   91.359   15.461
  296.700    0.207    0.366   97.353   16.363
  297.000    0.200    0.364   99.720   16.678
  297.300    0.201    0.368   94.826   16.681
  297.600    0.229    0.382   92.362   16.375
  297.900    0.226    0.375   88.678   16.075
  298.200    0.190    0.372   84.386   15.778
  298.500    0.226    0.379   81.917   16.082
  298.800    0.236    0.384   81.868   16.703
  299.100    0.208    0.373   86.044   17.348
  299.400    0.213    0.373   85.986   18.359
  299.700    0.225    0.382   76.872   20.175
  300.000    0.237    0.379   75.594   21.352
  300.300    0.241    0.368   78.580   21.358
  300.600    0.248    0.364   78.523   19.815
  300.900    0.242    0.353   83.311   17.704
  301.200    0.194    0.333   94.140   15.524
  301.500    0.195    0.351   92.877   13.870
  301.800    0.229    0.391   85.562   12.868
  302.100    0.212    0.377   89.137   12.630
  302.400    0.205    0.375   90.909   11.941
  302.700    0.196    0.371   93.261   11.503
  303.000    0.190    0.395   95.634   11.724
  303.300    0.197    0.408   95.580   13.130
  303.600    0.201    0.404   87.066   13.635
  303.900    0.012    0.397   74.922   14.704
  304.200    0.018    0.363   76.068   16.160
  304.500    0.034    0.308   77.840   17.101
  304.800    0.028    0.285   71.735   18.099
  305.100    0.042    0.265   66.244   17.767
  305.400    0.037    0.270   66.795   16.483
  305.700    0.029    0.272   71.581   16.486
  306.000    0.037    0.276   76.962   17.124
  306.299    0.051    0.281   79.334   18.818
  306.599    0.052    0.292   77.459   20.294
  306.899    0.037    0.293   62.901   21.476
  307.199    0.037    0.238   64.058   22.305
  307.499    0.042    0.239   68.841   22.735
  307.799    0.047    0.252   70.600   22.741
  308.099    0.036    0.266   64.503   22.323
  308.399    0.032    0.254   65.056   21.912
  308.699    0.035    0.248   72.259   21.509
  308.999    0.036    0.254   74.016   20.333
  309.299    0.034    0.263   72.753   20.339
  309.599    0.031    0.260   70.887   20.730
  309.899    0.032    0.266   71.442   20.735
