~VERSION INFORMATION
 VERS.                 2.0:   CWLS LOG ASCII STANDARD -VERSION 2.0
 WRAP.                  NO:   ONE LINE PER DEPTH STEP
~WELL INFORMATION BLOCK
#MNEM.UNIT           DATA                    DESCRIPTION OF MNEMONIC
#---------    -------------------            -------------------------------
# Generated from Intellog Unique Number	utf_inj/WELL/3489
WELL.         46-67-0-0                : Well_name    - WELL              
LOC .         09-02-094-12W4            : Location     - LOCATION          
UWI .         AA/09-02-094-12W400            : Uwi          - UNIQUE WELL ID    
ENTR.         JOETTE                         : Entered      - ENTERED BY        
SRVC.         SCHLUMBERGER                   : Scn          - SERVICE COMPANY   
DATE.         01 FEB 85                      : Date         - LOG DATE          
STRT.M        0                              : top_depth    - START DEPTH       
STOP.M        118                            : bot_depth    - STOP DEPTH        
STEP.M        0.25                           : increment    - STEP LENGTH       
NULL.         -999.250                       : null         - NULL VALUE       
~CURVE INFORMATION BLOCK
#MNEM UNIT       ERCB CURVE CODE    CURVE DESCRIPTION
#-----------   ------------------   ----------------------------------
DEPT.M        00 001 00 00         : DEPTH        - DEPTH                       
GR  .API      00 310 00 00         : GR           - GAMMA RAY                   
NPHI.V/V      00 330 00 00         : PHIN         - NEUTRON POROSITY (SANDSTONE)
RHOB.KG/M3    00 350 00 00         : DENS         - BULK DENSITY                
ILD .OHMM     00 120 00 00         : RESD         - DEEP RESISTIVITY (DIL)      
DPHI.V/V      00 890 00 00         : PHID         - DENSITY POROSITY (SANDSTONE)
~PARAMETER INFORMATION       
#MNEM.UNIT           DATA             DESCRIPTION OF MNEMONIC
#---------         -----------     ------------------------------
GL  .M        332.2                : gl           - GROUND LEVEL ELEVATION      
EREF.M        332.2                : kb           - ELEVATION OF DEPTH REFERENCE
DATM.M        332.2                : datum        - DATUM ELEVATION             
TDD .M        119.5                : tdd          - TOTAL DEPTH DRILLER         
RUN .         ONE                  : Run          - RUN NUMBER                  
ENG .         BILL                 : Engineer     - RECORDING ENGINEER          
WIT .         JIM                  : Witness      - WITNESSED BY                
MUD .         GEL                  : Mud_type     - MUD TYPE                    
MATR.         SANDSTONE            : Logunit      - NEUTRON MATRIX              
TMAX.C        8                    : BHT          - MAXIMUM RECORDED TEMPERATURE
BHTD.M        119.5                : BHTDEP       - MAXIMUM RECORDED TEMPERATURE
RMT .C        2                    : MDTP         - TEMPERATURE OF MUD          
MUDD.KG/M     1030                 : MWT          - MUD DENSITY                 
NEUT.         1                    : NEUTRON      - NEUTRON TYPE                
RESI.         0                    : RESIST       - RESISTIVITY TYPE            
RM  .OHMM     6.5                  : RM           - RESISTIVITY OF MUD          
RMC .OHMM     6.5                  : RMC          - RESISTIVITY OF MUD CAKE     
RMF .OHMM     6.5                  : RMF          - RESISTIVITY OF MUD FILTRATE 
SUFT.C        4                    : SUFT         - SURFACE TEMPERATURE         
~A  DEPTH       GR     PHIN     DENS     RESD     PHID
# ...
   73.000   47.235    0.410 2214.670   10.062    0.264
   73.250   50.884    0.414 2228.800    8.752    0.255
   73.500   51.499    0.446 2224.780    9.253    0.258
   73.750   52.112    0.440 2228.820   10.200    0.255
   74.000   58.795    0.432 2208.670   10.487    0.267
   74.250   58.803    0.432 2224.810    6.713    0.258
   74.500   48.495    0.432 2236.910    6.619    0.250
   74.750   48.504    0.412 2259.090    7.823    0.237
   75.000   48.513    0.404 2238.950   11.718    0.249
   75.250   51.554    0.436 2224.850    7.931    0.258
   75.500   53.989    0.461 2208.740    8.269    0.267
   75.750   48.537    0.443 2192.620    7.093    0.277
   76.000   55.218    0.423 2206.740    8.620    0.269
   76.250   66.147    0.499 2200.710    8.382    0.272
   76.500   68.583    0.486 2226.920    3.249    0.256
   76.750   55.242    0.438 2228.950    9.238    0.255
   77.000   46.756    0.462 2204.770    7.600    0.270
   77.250   41.909    0.442 2192.690    9.497    0.277
   77.500   47.378    0.433 2202.780   12.204    0.271
   77.750   37.072    0.429 2182.640   21.309    0.283
   78.000   41.329    0.412 2200.790   25.186    0.272
   78.250   40.729    0.407 2202.810   17.773    0.271
   78.500   47.410    0.404 2194.760   15.676    0.276
   78.750   57.126    0.412 2198.800   12.541    0.273
   79.000   58.348    0.469 2220.990    9.489    0.260
   79.250   35.906    0.427 2241.160   11.532    0.248
   79.500   26.813    0.400 2225.040  340.969    0.258
   79.750   26.213    0.354 2231.100  340.926    0.254
   80.000   28.650    0.380 2219.010  309.198    0.261
   80.250   26.231    0.376 2174.680  345.634    0.288
   80.500   26.848    0.378 2184.770  268.913    0.282
   80.750   26.853    0.382 2184.780  105.687    0.282
   81.000   26.861    0.428 2158.590   22.185    0.298
   81.250   31.722    0.496 2136.430   60.506    0.311
   81.500   28.697    0.390 2190.860  227.391    0.278
   81.750   23.851    0.371 2188.860  402.600    0.279
   82.000   22.041    0.378 2184.840  375.462    0.282
   82.250   22.654    0.367 2186.860  365.087    0.281
   82.500   27.515    0.370 2184.860  355.015    0.282
   82.750   23.276    0.393 2176.810  385.941    0.287
   83.000   20.857    0.398 2176.820  217.922    0.287
   83.250   23.292    0.424 2186.910   61.297    0.281
   83.500   19.662    0.399 2201.030  283.921    0.272
   83.750   19.668    0.365 2190.960  335.565    0.278
   84.000   23.924    0.383 2195.000  326.284    0.276
   84.250   27.571    0.356 2180.910  312.907    0.284
   84.500   33.040    0.353 2203.090  261.021    0.271
   84.750   33.050    0.364 2195.040  279.824    0.276
   85.000   28.808    0.356 2195.050  299.982    0.276
   85.250   27.604    0.343 2191.030  295.786    0.278
   85.500   30.038    0.344 2211.200  275.848    0.266
   85.750   23.979    0.355 2195.080  279.692    0.276
   86.000   28.234    0.377 2180.990  295.683    0.284
   86.250   32.490    0.378 2178.980  295.654    0.285
   86.500   34.318    0.370 2168.910  287.483    0.292
   86.750   31.294    0.375 2150.780  303.943    0.303
   87.000   27.661    0.384 2179.010  325.838    0.285
   87.250   25.242    0.387 2187.090  312.449    0.281
   87.500   29.496    0.384 2197.170  236.417    0.274
   87.750   34.963    0.371 2213.310  291.351    0.265
   88.000   30.724    0.420 2201.230  312.332    0.272
   88.250   34.373    0.367 2171.010  321.137    0.290
   88.500   33.775    0.356 2183.110  334.798    0.283
   88.750   25.290    0.359 2211.340  321.057    0.266
   89.000   23.477    0.374 2221.430  287.148    0.260
   89.250   22.880    0.365 2225.470  199.838    0.257
   89.500   23.491    0.364 2221.450  166.705    0.260
   89.750   27.142    0.360 2211.390   77.445    0.266
   90.000   32.002    0.364 2207.360   62.827    0.268
   90.250   40.505    0.365 2187.220   17.920    0.280
   90.500   48.400    0.354 2235.600   13.186    0.251
   90.750   70.251    0.393 2308.180    8.441    0.207
   91.000   87.248    0.407 2298.110    6.040    0.213
   91.250  103.034    0.472 2296.100    6.040    0.214
   91.500   98.186    0.438 2298.130    8.921    0.213
   91.750  103.655    0.498 2300.160    6.750    0.212
   92.000   87.890    0.426 2318.310    8.796    0.201
   92.250   92.142    0.402 2336.460   10.840    0.190
   92.500  111.566    0.478 2342.510    7.757    0.186
   92.750  107.934    0.418 2284.080    6.654    0.222
   93.000   83.672    0.403 2292.150   10.392    0.217
   93.250   90.962    0.401 2290.140    9.691    0.218
   93.500  100.071    0.377 2284.110    9.424    0.222
   93.750  103.112    0.386 2310.320   11.138    0.206
   94.000  103.120    0.377 2332.510    9.163    0.192
   94.250   98.274    0.383 2334.530    8.786    0.191
   94.500  107.384    0.388 2300.280    9.959    0.212
   94.750  112.853    0.430 2304.320    9.288    0.210
   95.000  101.333    0.382 2316.430   10.825    0.202
   95.250  100.126    0.435 2318.450    8.306    0.201
   95.500   88.608    0.436 2302.330    8.190    0.211
   95.750   89.828    0.429 2278.160    9.283    0.225
   96.000   91.050    0.417 2306.390    8.538    0.208
   96.250   98.338    0.411 2286.240   11.600    0.220
   96.500   91.671    0.426 2298.350    9.950    0.213
   96.750   87.433    0.407 2280.220   12.609    0.224
   97.000   87.441    0.397 2292.320   13.899    0.217
   97.250  106.258    0.365 2322.570   12.259    0.198
   97.500   89.883    0.429 2292.350    9.276    0.217
   97.750   91.711    0.396 2332.670   12.086    0.192
   98.000   97.787    0.409 2306.480   13.510    0.208
   98.250   88.698    0.385 2262.150   12.253    0.235
   98.500   88.703    0.390 2316.580   10.658    0.202
   98.750   96.599    0.383 2292.400   14.082    0.217
   99.000   91.144    0.368 2288.380   13.133    0.219
   99.250   99.040    0.418 2346.840   11.911    0.184
   99.500  111.791    0.409 2312.590   13.129    0.204
   99.750   96.025    0.403 2304.540   11.580    0.209
  100.000   99.065    0.412 2310.600   11.742    0.206
  100.250   94.825    0.432 2344.870   13.309    0.185
  100.500   85.732    0.418 2336.820   14.671    0.190
  100.750   93.628    0.413 2308.610   14.069    0.207
  101.000  103.951    0.400 2324.750   14.874    0.197
  101.250   94.251    0.389 2272.360   12.758    0.229
  101.500   98.507    0.431 2219.960   11.411    0.261
  101.750   85.772    0.437 2161.520   17.821    0.296
  102.000   86.993    0.427 2195.800   22.584    0.275
  102.250   86.395    0.395 2264.340   17.817    0.234
  102.500   69.416    0.410 2252.260   18.576    0.241
  102.750   69.423    0.422 2226.070   18.573    0.257
  103.000   72.463    0.437 2228.090   31.103    0.256
  103.250   77.325    0.462 2234.150   19.362    0.252
  103.500   57.312    0.406 2224.080   16.152    0.258
  103.750   59.748    0.445 2183.780   55.056    0.283
  104.000   49.438    0.425 2203.950   56.606    0.270
  104.250   65.829    0.403 2189.850   55.044    0.279
  104.500   81.612    0.421 2199.940   53.524    0.273
  104.750   75.553    0.415 2203.980   59.002    0.270
  105.000   73.741    0.384 2201.980   41.062    0.272
  105.250   71.929    0.434 2224.160   30.215    0.258
  105.500   61.014    0.451 2230.220   67.802    0.254
  105.750   70.731    0.421 2226.200   72.687    0.257
  106.000   86.514    0.396 2212.100   44.622    0.265
  106.250   53.758    0.437 2179.860   63.215    0.285
  106.500   36.778    0.433 2145.610   85.887    0.306
  106.750   39.820    0.411 2165.780   76.816    0.293
  107.000   44.680    0.385 2165.790   95.996    0.293
  107.250   51.970    0.369 2171.840  116.664    0.290
  107.500   73.821    0.387 2192.010   68.687    0.278
  107.750   63.514    0.415 2194.040   46.488    0.276
  108.000   56.849    0.433 2165.830   64.947    0.293
  108.250   48.361    0.434 2151.730  130.363    0.302
  108.500   67.178    0.421 2175.930  132.176    0.287
  108.750   49.591    0.415 2198.110   68.646    0.274
  109.000   64.768    0.409 2208.200   43.333    0.268
  109.250   50.821    0.421 2222.320   26.602    0.259
