~VERSION INFORMATION
 VERS.                 2.0:   CWLS LOG ASCII STANDARD -VERSION 2.0
 WRAP.                  NO:   ONE LINE PER DEPTH STEP
~WELL INFORMATION BLOCK
#MNEM.UNIT           DATA                    DESCRIPTION OF MNEMONIC
#---------    -------------------            -------------------------------
# Generated from Intellog Unique Number	CC_84_87/WELL/1055
NULL.         -999.25                        : NULL_VALUE
WELL.         PCI PCEJ HANGST OV             : Well_name    - WELL              
LOC .         04-24-084-12W4                 : Location     - LOCATION          
UWI .         AA/04-24-084-12W400            : Uwi          - UNIQUE WELL ID    
ENTR.         DW                             : Entered      - ENTERED BY        
SRVC.         SCHLUMBERGER                   : Scn          - SERVICE COMPANY   
DATE.         01 FEB 84                      : Date         - LOG DATE
STRT.M        105                            : top_depth    - START DEPTH       
STOP.M        309.899                        : bot_depth    - STOP DEPTH        
STEP.M        0.3                            : increment    - STEP LENGTH       
~CURVE INFORMATION BLOCK
#MNEM UNIT       ERCB CURVE CODE    CURVE DESCRIPTION
#-----------   ------------------   ----------------------------------
DEPT.M        00 001 00 00         : DEPTH        - DEPTH                       
DPHI.V/V      00 890 00 00         : PHID         - DENSITY POROSITY (LIMESTONE)
NPHI.V/V      00 330 00 00         : PHIN         - NEUTRON POROSITY (LIMESTONE)
GR  .API      00 310 00 00         : GR           - GAMMA RAY                   
ILD .OHMM     00 120 00 00         : RESD         - DEEP RESISTIVITY (DIL)      
~PARAMETER INFORMATION       
#MNEM.UNIT           DATA             DESCRIPTION OF MNEMONIC
#---------         -----------     ------------------------------
GL  .M        555                  : gl           - GROUND LEVEL ELEVATION      
EREF.M        558.2                : kb           - ELEVATION OF DEPTH REFERENCE
DATM.M        558.2                : datum        - DATUM ELEVATION             
TDD .M        321                  : tdd          - TOTAL DEPTH DRILLER         
RUN .         ONE                  : Run          - RUN NUMBER                  
ENG .         BILL                 : Engineer     - RECORDING ENGINEER          
WIT .         JIM                  : Witness      - WITNESSED BY                
MUD .         GEL                  : Mud_type     - MUD TYPE                    
MATR.         LIMESTONE            : Logunit      - NEUTRON MATRIX              
TMAX.C        23                   : BHT          - MAXIMUM RECORDED TEMPERATURE
BHTD.M        322                  : BHTDEP       - MAXIMUM RECORDED TEMPERATURE
MATR.         1                    : LOGUNIT      - NEUTRON MATRIX              
RMT .C        25                   : MDTP         - TEMPERATURE OF MUD          
NEUT.         1                    : NEUTRON      - NEUTRON TYPE                
RESI.         0                    : RESIST       - RESISTIVITY TYPE            
RMC .OHMM     0.25                 : RMC          - RESISTIVITY OF MUD CAKE     
RMF .OHMM     0.25                 : RMF          - RESISTIVITY OF MUD FILTRATE 
SUFT.C        4                    : SUFT         - SURFACE TEMPERATURE         
~A  DEPTH     PHID     PHIN       GR     RESD
# ...
  209.401    0.318    0.460   66.811   10.438
  209.701    0.326    0.447   67.365   10.441
  210.001    0.327    0.434   66.709   10.443
  210.301    0.316    0.449   64.241   10.251
  210.601    0.325    0.447   59.956   10.254
  210.901    0.326    0.435   58.691   10.065
  211.201    0.324    0.436   63.477    9.696
  211.501    0.325    0.447   75.518    8.995
  211.801    0.325    0.454   75.465    8.665
  212.101    0.307    0.443   69.971    8.667
  212.401    0.262    0.423   63.870    8.834
  212.701    0.302    0.428   69.851    8.836
  213.001    0.300    0.466   70.413    8.512
  213.301    0.291    0.449   74.594    8.355
  213.601    0.283    0.453   73.331    8.049
  213.901    0.275    0.465   78.112    7.901
  214.201    0.271    0.464   85.323    7.756
  214.501    0.262    0.464   85.260    7.472
  214.801    0.251    0.442   82.794    7.334
  215.101    0.252    0.442   80.931    7.475
  215.401    0.269    0.457   80.261    7.477
  215.701    0.240    0.459   81.430    7.340
  216.001    0.234    0.440   80.764    7.204
  216.301    0.290    0.488   80.102    6.559
  216.601    0.298    0.496   83.081    5.235
  216.901    0.236    0.446   86.654    5.139
  217.201    0.243    0.448   84.182    5.337
  217.501    0.254    0.450   85.937    5.976
  217.801    0.285    0.474   86.495    6.949
  218.101    0.329    0.507   87.051    7.494
  218.401    0.358    0.533   88.208    8.235
  218.701    0.351    0.537   83.318    9.050
  219.001    0.294    0.447   81.451    9.399
  219.301    0.266    0.453   70.509    9.579
  219.601    0.241    0.467   68.634    9.229
  219.901    0.275    0.456   69.803    8.725
  220.201    0.291    0.443   67.934    8.563
  220.501    0.279    0.428   72.721    8.250
  220.801    0.270    0.443   76.899    8.252
  221.101    0.284    0.466   76.238    8.410
  221.401    0.280    0.465   72.547    8.572
  221.701    0.281    0.429   73.715    8.737
  222.001    0.285    0.441   77.898    8.906
  222.301    0.262    0.480   82.680    9.424
  222.601    0.283    0.444   75.972   10.165
  222.901    0.275    0.440   74.102   10.360
  223.201    0.271    0.407   74.053    9.980
  223.501    0.260    0.429   74.602    9.435
  223.801    0.243    0.434   74.553    9.088
  224.101    0.246    0.426   77.522    8.275
  224.401    0.223    0.419   83.521    7.677
  224.701    0.263    0.396   88.301    7.122
  225.001    0.344    0.448   90.662    6.608
  225.301    0.266    0.420   90.610    6.609
  225.601    0.306    0.407   89.354    6.487
  225.901    0.385    0.425   84.464    6.018
  226.201    0.422    0.479   80.173    4.987
  226.501    0.400    0.445   81.334    4.133
  226.801    0.292    0.438   89.746    3.908
  227.101    0.265    0.504   96.333    3.983
  227.401    0.248    0.493   97.501    4.295
  227.701    0.250    0.498   93.213    5.591
  228.001    0.253    0.515   88.931    6.878
  228.301    0.294    0.473   87.667    7.010
  228.601    0.295    0.478   95.478    6.383
  228.901    0.226    0.511  102.678    6.034
  229.201    0.254    0.473  101.411    5.704
  229.501    0.251    0.469   98.939    5.599
  229.801    0.237    0.466  100.103    5.815
  230.101    0.219    0.470  106.700    6.761
  230.401    0.213    0.498  103.618    8.318
  230.701    0.254    0.500   95.107    9.315
  231.001    0.243    0.483   95.052   10.045
  231.301    0.218    0.476   97.412   10.834
  231.601    0.297    0.490   99.781   11.252
  231.901    0.280    0.409  101.541   11.254
  232.201    0.222    0.399   99.075   11.257
  232.501    0.206    0.427   97.191   11.050
  232.801    0.176    0.428  100.170   11.052
  233.101    0.214    0.387  102.538   10.648
  233.401    0.216    0.395  102.491   10.257
  233.701    0.213    0.412  101.828    9.696
  234.001    0.218    0.398  101.167    8.996
  234.301    0.216    0.413   99.304    8.345
  234.601    0.196    0.426   96.826    8.192
  234.901    0.206    0.403   99.804    9.173
  235.201    0.228    0.403  103.376   10.272
  235.501    0.203    0.433  101.501   11.288
  235.801    0.225    0.427   97.827   11.506
  236.101    0.250    0.443   94.148   11.294
  236.401    0.241    0.454   93.486   10.677
  236.701    0.248    0.432   93.430   10.285
  237.001    0.220    0.408   92.781    9.908
  237.301    0.217    0.408   89.707    9.911
  237.601    0.254    0.435   83.002   10.101
  237.901    0.230    0.427   79.320   10.690
  238.201    0.239    0.407   82.884   12.198
  238.501    0.247    0.392   84.657   16.179
  238.801    0.235    0.403   85.806   21.868
  239.101    0.024    0.416   84.550   22.288
  239.401    0.008    0.405   68.778   20.292
  239.701    0.009    0.175   64.490   14.467
  240.001    0.039    0.180   65.043   11.120
  240.301    0.097    0.204   72.847   10.124
  240.601    0.172    0.330   84.892    9.753
  240.901    0.177    0.359   89.671    9.755
  241.201    0.217    0.379   90.229    9.576
  241.501    0.251    0.412   88.964    9.400
  241.801    0.216    0.428   89.513    9.580
  242.101    0.217    0.435   92.478   10.140
  242.401    0.261    0.444   93.037   10.531
  242.701    0.306    0.450   91.771   10.733
  243.001    0.287    0.448   88.097   10.737
  243.301    0.250    0.421   86.829   10.740
  243.601    0.246    0.412   86.168   10.152
  243.901    0.245    0.421   86.121    9.243
  244.201    0.241    0.420   87.275    8.575
  244.501    0.218    0.412   84.204    7.519
  244.801    0.199    0.391   81.732    6.349
  245.101    0.217    0.390   84.701    4.359
  245.401    0.289    0.458   90.688    3.613
  245.701    0.316    0.463   97.293    3.480
  246.001    0.298    0.462   94.820    3.614
  246.301    0.272    0.479   97.780    4.124
  246.601    0.277    0.506  100.155    5.470
  246.901    0.270    0.528  101.909    7.823
  247.201    0.207    0.531  102.471    9.096
  247.501    0.225    0.461   98.182    9.626
  247.801    0.252    0.460   85.436    9.812
  248.101    0.233    0.463   84.168   10.582
  248.401    0.188    0.409   96.210   10.785
  248.701    0.224    0.411   94.346   10.992
  249.001    0.222    0.428   86.429   10.792
  249.301    0.160    0.436   81.538   10.793
  249.601    0.194    0.362   87.533   11.001
  249.901    0.219    0.372   92.303   11.213
  250.201    0.208    0.400   93.471   11.216
  250.501    0.183    0.398   99.464   11.009
  250.801    0.188    0.387  103.651   10.214
  251.101    0.188    0.388   98.761    9.655
  251.401    0.224    0.396   89.635    9.128
  251.701    0.218    0.407   88.371    8.960
  252.001    0.207    0.418   93.159    8.313
  252.301    0.251    0.414   93.099    6.153
  252.602    0.248    0.427   95.469    3.500
  252.902    0.214    0.428   97.829    3.436
  253.202    0.227    0.393   90.522    3.995
  253.502    0.338    0.432   85.638    5.200
  253.802    0.404    0.545   75.909    8.808
  254.102    0.330    0.583   70.409    9.323
  254.402    0.266    0.593   67.939    9.502
  254.702    0.264    0.453   63.647    8.490
  255.002    0.310    0.447   63.000    6.649
  255.302    0.333    0.455   67.777    4.740
  255.602    0.278    0.445   74.378    4.481
  255.902    0.277    0.435   79.770    4.925
  256.202    0.291    0.460   86.973    6.410
  256.502    0.293    0.472   83.893    7.740
  256.802    0.269    0.467   82.021    8.038
  257.102    0.269    0.421   80.164    7.890
  257.401    0.306    0.442   74.664    5.732
  257.701    0.205    0.466   74.614    3.935
  258.001    0.242    0.392   81.208    3.451
  258.301    0.262    0.428   86.605    3.452
  258.601    0.262    0.431   92.591    3.653
  258.901    0.264    0.442   94.952    4.015
  259.201    0.266    0.500   96.721    4.091
  259.501    0.255    0.552   94.249    4.170
  259.801    0.260    0.561   94.799    4.250
  260.101    0.265    0.482   98.967    4.333
  260.401    0.265    0.491  103.163    4.253
  260.701    0.250    0.488  107.327    4.174
  261.001    0.227    0.466  104.263    3.730
  261.301    0.223    0.459   98.168    3.526
