~VERSION INFORMATION
 VERS.                 2.0:   CWLS LOG ASCII STANDARD -VERSION 2.0
 WRAP.                  NO:   ONE LINE PER DEPTH STEP
~WELL INFORMATION BLOCK
#MNEM.UNIT           DATA                    DESCRIPTION OF MNEMONIC
#---------    -------------------            -------------------------------
# Generated from Intellog Unique Number	CC_84_87/WELL/2317
NULL.         -999.25                        : NULL_VALUE
WELL.         PEX PCEJ HANGST OV             : Well_name    - WELL
LOC .         10-29-086-09W4                 : Location     - LOCATION          
UWI .         AA/10-29-086-09W400            : Uwi          - UNIQUE WELL ID    
ENTR.         DW                             : Entered      - ENTERED BY        
SRVC.         SCHLUMBERGER                   : Scn          - SERVICE COMPANY   
DATE.         15 FEB 81                      : Date         - LOG DATE
STRT.M        75                             : top_depth    - START DEPTH       
STOP.M        200.101                        : bot_depth    - STOP DEPTH        
STEP.M        0.3                            : increment    - STEP LENGTH       
~CURVE INFORMATION BLOCK
#MNEM UNIT       ERCB CURVE CODE    CURVE DESCRIPTION
#-----------   ------------------   ----------------------------------
DEPT.M        00 001 00 00         : DEPTH        - DEPTH                       
DPHI.V/V      00 890 00 00         : PHID         - DENSITY POROSITY (LIMESTONE)
NPHI.V/V      00 330 00 00         : PHIN         - NEUTRON POROSITY (LIMESTONE)
GR  .API      00 310 00 00         : GR           - GAMMA RAY                   
ILD .OHMM     00 120 00 00         : RESD         - DEEP RESISTIVITY (DIL)      
~PARAMETER INFORMATION       
#MNEM.UNIT           DATA             DESCRIPTION OF MNEMONIC
#---------         -----------     ------------------------------
GL  .M        442.04               : gl           - GROUND LEVEL ELEVATION      
EREF.M        447.14               : kb           - ELEVATION OF DEPTH REFERENCE
DATM.M        447.14               : datum        - DATUM ELEVATION             
TDD .M        262                  : tdd          - TOTAL DEPTH DRILLER         
RUN .         ONE                  : Run          - RUN NUMBER                  
ENG .         BILL                 : Engineer     - RECORDING ENGINEER          
WIT .         JIM                  : Witness      - WITNESSED BY                
MUD .         GEL                  : Mud_type     - MUD TYPE                    
MATR.         LIMESTONE            : Logunit      - NEUTRON MATRIX              
TMAX.C        15                   : BHT          - MAXIMUM RECORDED TEMPERATURE
BHTD.M        262                  : BHTDEP       - MAXIMUM RECORDED TEMPERATURE
MATR.         1                    : LOGUNIT      - NEUTRON MATRIX              
RMT .C        25                   : MDTP         - TEMPERATURE OF MUD          
NEUT.         1                    : NEUTRON      - NEUTRON TYPE                
RESI.         0                    : RESIST       - RESISTIVITY TYPE            
RMC .OHMM     0.25                 : RMC          - RESISTIVITY OF MUD CAKE     
RMF .OHMM     0.25                 : RMF          - RESISTIVITY OF MUD FILTRATE 
SUFT.C        15                   : SUFT         - SURFACE TEMPERATURE         
~A  DEPTH     PHID     PHIN       GR     RESD
   75.000    0.270    0.463  101.245    6.562
   75.300    0.267    0.468   97.542    5.860
   75.600    0.298    0.451   91.370    5.040
   75.900    0.290    0.447   86.433    4.673
   76.200    0.405    0.521   84.582    4.584
   76.500    0.432    0.531  109.277    4.759
   76.800    0.335    0.542  115.452    5.852
   77.100    0.354    0.495  101.872    6.674
   77.400    0.287    0.468   95.700    8.521
   77.700    0.306    0.455   82.737    9.537
   78.000    0.271    0.447   88.295    7.899
   78.300    0.176    0.468   85.827    5.955
   78.600    0.280    0.494   87.064    5.318
   78.900    0.351    0.533   90.769    5.120
   79.200    0.255    0.492  100.648    5.216
   79.500    0.248    0.494  106.205    5.518
   79.800    0.275    0.501   93.242    6.293
   80.100    0.339    0.496   98.800    6.912
   80.400    0.315    0.477  103.740    6.910
   80.700    0.269    0.463  102.507    6.171
   81.000    0.293    0.458   88.927    5.307
   81.300    0.357    0.453  101.893    4.155
   81.600    0.252    0.464   95.103    3.710
   81.900    0.346    0.531   82.757    3.376
   82.200    0.362    0.551  102.514    3.190
   82.500    0.384    0.553   95.725    3.130
   82.800    0.393    0.552   96.344    3.249
   83.100    0.334    0.558  100.667    3.373
   83.400    0.320    0.546  105.607    3.775
   83.700    0.452    0.521  100.669    3.993
   84.000    0.346    0.505   93.880    4.554
   84.300    0.381    0.494   96.351    5.393
   84.600    0.333    0.506   92.031    7.423
   84.900    0.264    0.480  102.527    8.153
   85.200    0.239    0.450  109.936    7.850
   85.500    0.235    0.487   99.443    7.009
   85.800    0.249    0.473   95.741    6.749
   86.100    0.231    0.463   97.594    7.006
   86.400    0.255    0.484  101.300    7.552
   86.700    0.197    0.415   96.362    7.840
   87.000    0.294    0.462   81.548    7.691
   87.300    0.312    0.491   92.044    7.132
   87.600    0.296    0.452   88.341    6.738
   87.900    0.265    0.437   77.231    6.737
   88.200    0.227    0.452   79.701    6.863
   88.500    0.240    0.475   91.432    6.608
   88.800    0.304    0.473   96.373    5.473
   89.100    0.438    0.490  101.313    4.887
   89.400    0.299    0.511  106.253    4.706
   89.700    0.276    0.515  111.810    4.531
   90.000    0.300    0.533  106.873    4.446
   90.300    0.435    0.491  101.936    4.791
   90.600    0.286    0.473  101.320    4.974
   90.900    0.331    0.484  100.087    6.002
   91.200    0.368    0.435   97.001    7.663
   91.500    0.320    0.393   80.335    9.075
   91.800    0.225    0.429   75.397   11.805
   92.100    0.270    0.429   86.511   13.213
   92.400    0.302    0.362   87.747   14.788
   92.700    0.127    0.377   68.611   15.065
   93.000    0.143    0.414   78.489   14.504
   93.300    0.303    0.431   89.603   12.953
   93.600    0.334    0.387   93.309   11.351
   93.900    0.167    0.328   75.407   10.526
   94.200    0.006    0.325   67.383   10.136
   94.500    0.167    0.415   94.548    9.576
   94.800    0.220    0.426   88.376    9.395
   95.100    0.286    0.437   98.872   10.715
   95.400    0.309    0.424  109.986   11.992
   95.700    0.310    0.420  100.109   13.171
   96.000    0.295    0.399   76.652   13.931
   96.300    0.106    0.346   78.505   13.928
   96.600    0.244    0.352   67.395   13.162
   96.900    0.213    0.299   78.508   12.672
   97.200    0.059    0.250   66.163   11.531
   97.500    0.252    0.431   63.695   10.298
   97.800    0.311    0.459   74.808    8.371
   98.100    0.299    0.446   79.131    6.311
   98.400    0.327    0.478   90.245    6.192
   98.700    0.437    0.469   91.481    7.061
   99.000    0.411    0.430   78.519    8.053
   99.300    0.093    0.412   75.433    8.360
   99.600    0.033    0.383   80.373    7.898
   99.900    0.176    0.396   87.166    7.605
  100.200    0.219    0.457   95.193    6.791
  100.500    0.224    0.453   91.490    6.064
  100.800    0.261    0.438   91.491    5.840
  101.100    0.265    0.419  100.753    5.415
  101.400    0.374    0.483   98.285    5.116
  101.700    0.428    0.510   94.582    5.212
  102.000    0.393    0.481   92.732    5.310
  102.300    0.255    0.459  101.993    5.723
  102.600    0.276    0.459  110.020    5.941
  102.900    0.260    0.448  101.996    6.052
  103.200    0.244    0.461  107.554    6.165
  103.500    0.273    0.469  101.999    6.400
  103.800    0.266    0.478   92.123    6.899
  104.100    0.229    0.465   97.063    8.169
  104.400    0.197    0.441   82.248    9.143
  104.700    0.271    0.484   88.423   10.042
  105.000    0.300    0.444   77.930   10.622
  105.300    0.266    0.427   81.018   10.620
  105.600    0.205    0.415   84.724   10.034
  105.900    0.260    0.417   88.429    8.630
  106.200    0.260    0.462   99.543    7.853
  106.500    0.289    0.480   86.580    7.283
  106.800    0.240    0.451  103.250    6.626
  107.100    0.225    0.464   98.313    6.381
  107.400    0.246    0.436   97.079    6.029
  107.700    0.302    0.500  100.167    5.590
  108.000    0.324    0.488   98.934    5.087
  108.300    0.353    0.481  105.726    4.543
  108.600    0.315    0.476  102.024    3.907
  108.900    0.299    0.473  105.729    3.555
  109.200    0.268    0.490  108.817    3.423
  109.500    0.361    0.533  105.732    3.234
  109.800    0.462    0.525  103.881    3.173
  110.100    0.430    0.506  109.439    3.172
  110.400    0.361    0.532  113.144    3.172
  110.700    0.419    0.510  100.799    3.617
  111.000    0.331    0.512   90.923    4.979
  111.300    0.385    0.497  105.741    5.679
  111.600    0.363    0.492  112.533    5.894
  111.900    0.289    0.507  106.978    6.004
  112.200    0.326    0.486  103.275    6.117
  112.500    0.285    0.457  108.833    6.350
  112.800    0.358    0.476  100.809    6.975
  113.100    0.346    0.462  103.280    7.518
  113.400    0.220    0.475   98.960    7.658
  113.700    0.294    0.494   89.701    7.802
  114.000    0.352    0.506   89.703    8.253
  114.300    0.224    0.469   95.877    8.730
  114.600    0.202    0.433  116.869   10.145
  114.900    0.234    0.421  119.339   12.013
  115.200    0.215    0.441  118.724   13.194
  115.500    0.214    0.464  109.465   13.191
  115.800    0.076    0.375   97.119   12.464
  116.100    0.090    0.384   90.947   10.720
  116.400    0.219    0.417  107.000    9.395
  116.700    0.247    0.446  104.532    8.549
  117.000    0.210    0.448  110.707    8.231
  117.300    0.179    0.415  105.769    8.229
  117.600    0.264    0.462  101.450    8.074
  117.900    0.338    0.490  102.069    7.629
  118.200    0.395    0.486  100.835    7.074
  118.500    0.449    0.471  102.071    7.343
  118.800    0.346    0.457  111.333    8.218
  119.100    0.300    0.447  114.421    9.732
  119.400    0.257    0.425  102.075   10.892
  119.700    0.223    0.430  104.546   11.307
  120.000    0.246    0.433  102.078   10.887
  120.300    0.231    0.421   99.610   10.095
  120.600    0.223    0.412  103.316    8.520
  120.900    0.232    0.397  108.874    7.754
  121.200    0.301    0.444  110.109    7.189
  121.500    0.361    0.427   96.529    7.054
  121.800    0.177    0.428   92.210    7.052
  122.100    0.211    0.431   96.533    7.320
  122.400    0.280    0.442  103.324    7.458
  122.700    0.390    0.459   95.301    8.038
  123.000    0.478    0.474   94.067    8.036
  123.300    0.485    0.482   99.625    7.737
  123.600    0.213    0.464  102.096    7.449
  123.900    0.269    0.466  103.949    8.029
  124.201    0.278    0.447  100.864    8.180
  124.501    0.192    0.423   96.544    7.585
  124.801    0.206    0.446  101.484    6.774
  125.101    0.236    0.426   92.225    5.610
  125.401    0.306    0.457   84.201    4.310
  125.701    0.385    0.446   94.080    3.504
  126.001    0.377    0.512   89.760    3.310
  126.301    0.402    0.505   89.762    3.437
  126.601    0.273    0.487  100.875    4.306
  126.901    0.279    0.501  108.285    5.395
