~VERSION INFORMATION
 VERS.                 2.0:   CWLS LOG ASCII STANDARD -VERSION 2.0
 WRAP.                  NO:   ONE LINE PER DEPTH STEP
~WELL INFORMATION BLOCK
#MNEM.UNIT           DATA                    DESCRIPTION OF MNEMONIC
#---------    -------------------            -------------------------------
# Generated from Intellog Unique Number	CC_84_87/WELL/2317
NULL.         -999.25                        : NULL_VALUE
WELL.         PEX PCEJ HANGST OV             : Well_name    - WELL
LOC .         10-29-086-09W4                 : Location     - LOCATION          
UWI .         AA/10-29-086-09W400            : Uwi          - UNIQUE WELL ID    
ENTR.         DW                             : Entered      - ENTERED BY        
SRVC.         SCHLUMBERGER                   : Scn          - SERVICE COMPANY   
DATE.         15 FEB 81                      : Date         - LOG DATE
STRT.M        75                             : top_depth    - START DEPTH       
STOP.M        200.101                        : bot_depth    - STOP DEPTH        
STEP.M        0.3                            : increment    - STEP LENGTH       
~CURVE INFORMATION BLOCK
#MNEM UNIT       ERCB CURVE CODE    CURVE DESCRIPTION
#-----------   ------------------   ----------------------------------
DEPT.M        00 001 00 00         : DEPTH        - DEPTH                       
DPHI.V/V      00 890 00 00         : PHID         - DENSITY POROSITY (LIMESTONE)
NPHI.V/V      00 330 00 00         : PHIN         - NEUTRON POROSITY (LIMESTONE)
GR  .API      00 310 00 00         : GR           - GAMMA RAY                   
ILD .OHMM     00 120 00 00         : RESD         - DEEP RESISTIVITY (DIL)      
~PARAMETER INFORMATION       
#MNEM.UNIT           DATA             DESCRIPTION OF MNEMONIC
#---------         -----------     ------------------------------
GL  .M        442.04               : gl           - GROUND LEVEL ELEVATION      
EREF.M        447.14               : kb           - ELEVATION OF DEPTH REFERENCE
DATM.M        447.14               : datum        - DATUM ELEVATION             
TDD .M        262                  : tdd          - TOTAL DEPTH DRILLER         
RUN .         ONE                  : Run          - RUN NUMBER                  
ENG .         BILL                 : Engineer     - RECORDING ENGINEER          
WIT .         JIM                  : Witness      - WITNESSED BY                
MUD .         GEL                  : Mud_type     - MUD TYPE                    
MATR.         LIMESTONE            : Logunit      - NEUTRON MATRIX              
TMAX.C        15                   : BHT          - MAXIMUM RECORDED TEMPERATURE
BHTD.M        262                  : BHTDEP       - MAXIMUM RECORDED TEMPERATURE
MATR.         1                    : LOGUNIT      - NEUTRON MATRIX              
RMT .C        25                   : MDTP         - TEMPERATURE OF MUD          
NEUT.         1                    : NEUTRON      - NEUTRON TYPE                
RESI.         0                    : RESIST       - RESISTIVITY TYPE            
RMC .OHMM     0.25                 : RMC          - RESISTIVITY OF MUD CAKE     
RMF .OHMM     0.25                 : RMF          - RESISTIVITY OF MUD FILTRATE 
SUFT.C        15                   : SUFT         - SURFACE TEMPERATURE         
~A  DEPTH     PHID     PHIN       GR     RESD
# ...
  127.201    0.299    0.478  111.373    7.426
  127.501    0.240    0.457  114.461    8.630
  127.801    0.235    0.478   95.943    8.628
  128.101    0.255    0.452   92.240    8.307
  128.401    0.364    0.481   95.945    8.305
  128.701    0.326    0.479  102.121    9.651
  129.001    0.373    0.452  102.739   11.216
  129.301    0.442    0.428  100.271   11.864
  129.601    0.354    0.323   87.925   12.086
  129.901    0.062    0.222   71.876   11.420
  130.201    0.171    0.337   72.495   10.198
  130.501    0.270    0.443   91.634    8.771
  130.801    0.194    0.420   95.339    8.133
  131.101    0.208    0.416   98.428    7.263
  131.401    0.326    0.429   99.664    5.904
  131.701    0.474    0.461   86.083    4.207
  132.001    0.513    0.487   79.911    3.172
  132.301    0.524    0.514   87.321    2.677
  132.601    0.328    0.517   89.792    2.626
  132.901    0.321    0.519   96.584    2.995
  133.201    0.373    0.498   86.708    4.529
  133.501    0.291    0.468   87.327    5.675
  133.801    0.246    0.468   84.242    6.352
  134.101    0.230    0.459   78.070    6.350
  134.401    0.245    0.454   78.071    5.778
  134.701    0.322    0.512   80.542    5.258
  135.001    0.487    0.528   74.370    5.257
  135.301    0.406    0.497   78.693    5.355
  135.601    0.381    0.489   81.781    6.585
  135.901    0.328    0.464   86.104    7.798
  136.201    0.257    0.447   86.723    8.248
  136.501    0.351    0.486   87.959    7.941
  136.801    0.359    0.497   89.812    7.092
  137.101    0.251    0.415   84.257    5.552
  137.401    0.431    0.482   78.703    4.186
  137.701    0.509    0.540   83.643    3.403
  138.001    0.453    0.548   89.201    3.096
  138.301    0.450    0.532   93.524    3.095
  138.601    0.460    0.521   97.229    3.213
  138.901    0.453    0.519   95.379    3.273
  139.201    0.365    0.493   92.293    3.663
  139.501    0.296    0.495   95.381    3.875
  139.801    0.295    0.507  101.556    4.419
  140.101    0.272    0.535  106.496    4.764
  140.401    0.363    0.533  105.263    4.852
  140.701    0.439    0.497   89.213    4.761
  141.001    0.455    0.480   87.363    4.671
  141.301    0.336    0.453   98.477    4.414
  141.601    0.285    0.500   97.243    4.016
  141.901    0.391    0.518   86.133    3.867
  142.201    0.413    0.519   94.777    3.866
  142.501    0.415    0.500  105.273    4.013
  142.801    0.435    0.500  108.361    5.321
  143.101    0.442    0.491  109.598    8.513
  143.401    0.268    0.486  102.808   10.081
  143.701    0.220    0.408   88.610   10.867
  144.001    0.109    0.338   76.265   10.660
  144.301    0.242    0.384   84.909   10.074
  144.601    0.267    0.424   79.972    9.166
  144.901    0.327    0.465   77.504    9.165
  145.201    0.418    0.442   84.296   11.268
  145.501    0.437    0.482   79.976   14.938
  145.801    0.346    0.501   78.743   19.072
  146.101    0.289    0.368   74.423   23.013
  146.401    0.280    0.337   56.522   25.277
  146.701    0.252    0.365   69.488   22.152
  147.001    0.242    0.379   75.662   17.019
  147.301    0.240    0.392   80.602   13.833
  147.601    0.240    0.363   89.247   11.676
  147.901    0.233    0.357   88.013   10.827
  148.201    0.201    0.396   84.928   10.622
  148.501    0.232    0.417  103.450   11.027
  148.801    0.246    0.408  114.563   11.445
  149.101    0.219    0.413   85.550   11.444
  149.401    0.223    0.400   81.230   10.413
  149.701    0.215    0.412   89.874    9.476
  150.001    0.216    0.442   99.753    8.304
  150.301    0.219    0.454  111.484    8.620
  150.601    0.193    0.486  129.389    9.292
  150.901    0.210    0.442  126.303   10.597
  151.201    0.217    0.445  111.489   13.277
  151.501    0.283    0.432  115.811   16.952
  151.801    0.233    0.400  118.282   24.688
  152.101    0.274    0.381   96.059   34.631
  152.401    0.322    0.377   78.775   42.581
  152.701    0.312    0.391   70.134   40.997
  153.001    0.279    0.345   65.196   30.911
  153.301    0.263    0.265   57.789   15.406
  153.601    0.199    0.344   78.781   13.757
  153.901    0.209    0.382   94.216   14.828
  154.201    0.214    0.386   75.697   18.579
  154.501    0.199    0.365   62.117   22.000
  154.801    0.306    0.355   55.944   22.838
  155.101    0.290    0.396   64.589   21.991
  155.401    0.254    0.385   66.442   20.010
  155.701    0.258    0.376   67.061   19.267
  156.001    0.279    0.366   64.593   19.261
  156.301    0.252    0.371   63.977   19.623
  156.601    0.227    0.382   63.362   21.148
  156.901    0.265    0.379   60.894   21.145
  157.201    0.273    0.369   60.278   20.745
  157.501    0.249    0.379   65.836   19.602
  157.801    0.235    0.374   72.011   17.503
  158.101    0.243    0.354   74.481   16.538
  158.401    0.259    0.381   76.335   15.627
  158.701    0.263    0.409   73.249   15.332
  159.001    0.248    0.412   75.103   15.328
  159.301    0.228    0.407   80.043   15.616
  159.601    0.237    0.401   80.661   16.519
  159.901    0.265    0.390   76.342   17.803
  160.201    0.258    0.387   74.491   18.137
  160.501    0.246    0.398   81.283   18.134
  160.801    0.246    0.412   86.224   17.457
  161.101    0.276    0.408   75.112   17.128
  161.401    0.257    0.403   80.053   17.449
  161.701    0.252    0.393   86.228   18.459
  162.001    0.258    0.407   88.698   18.804
  162.301    0.190    0.365   76.353   17.437
  162.601    0.257    0.386   75.120   14.717
  162.901    0.279    0.402   84.382   10.291
  163.201    0.264    0.414   86.852    9.018
  163.501    0.225    0.422   95.496    8.683
  163.801    0.222    0.427  104.141    8.680
  164.101    0.206    0.414   91.795    8.843
  164.401    0.210    0.423  104.144    9.180
  164.701    0.195    0.425  105.997    9.178
  165.001    0.202    0.420   96.121    9.176
  165.301    0.205    0.423   98.592    9.001
  165.601    0.230    0.429   94.889    9.170
  165.901    0.209    0.414   91.187    9.520
  166.201    0.199    0.417   99.214    9.882
  166.501    0.193    0.430   90.573    9.880
  166.801    0.193    0.416   93.661    9.878
  167.101    0.210    0.417   99.835    9.333
  167.401    0.190    0.439  107.862    8.653
  167.701    0.195    0.409  108.481    8.491
  168.001    0.209    0.419  105.396    8.487
  168.301    0.225    0.423   98.606    8.646
  168.601    0.205    0.428   89.965    8.975
  168.901    0.178    0.429   86.263    9.318
  169.201    0.193    0.423   88.116   10.233
  169.501    0.209    0.403   93.673   10.624
  169.801    0.220    0.406   96.761   11.029
  170.101    0.234    0.425   99.850   11.233
  170.401    0.232    0.428   97.382   11.231
  170.701    0.213    0.358   85.036   10.814
  171.001    0.146    0.332   75.778   10.412
  171.301    0.207    0.383   81.335   10.215
  171.601    0.227    0.402   85.658   10.213
  171.901    0.231    0.412   85.660   10.211
  172.201    0.241    0.371   89.982    9.467
  172.501    0.226    0.419   94.923    8.946
  172.801    0.212    0.439   96.776    8.294
  173.101    0.212    0.436   94.308    8.292
  173.401    0.226    0.383   95.544    8.608
  173.701    0.204    0.402  103.571    8.769
  174.001    0.226    0.415   99.251    8.933
  174.301    0.231    0.413  101.104    9.274
  174.601    0.220    0.406   89.994    9.627
  174.901    0.148    0.404   86.908    9.625
  175.201    0.175    0.418   95.553    9.443
  175.501    0.220    0.408   98.641    9.439
  175.801    0.233    0.402   91.234   10.368
  176.101    0.237    0.392   87.532   10.367
  176.401    0.231    0.387   84.447   10.560
  176.701    0.222    0.378   81.361   10.361
  177.001    0.233    0.380   80.128    9.976
  177.301    0.240    0.403   85.068    9.426
  177.601    0.249    0.422   90.008    9.248
  177.901    0.224    0.413   92.479    9.072
  178.201    0.242    0.399   91.246    9.242
  178.501    0.258    0.403   92.482    9.595
  178.801    0.252    0.410   77.667   10.342
  179.101    0.263    0.397   80.138   12.246
