~VERSION INFORMATION
 VERS.                 2.0:   CWLS LOG ASCII STANDARD -VERSION 2.0
 WRAP.                  NO:   ONE LINE PER DEPTH STEP
~WELL INFORMATION BLOCK
#MNEM.UNIT           DATA                    DESCRIPTION OF MNEMONIC
#---------    -------------------            -------------------------------
# Generated from Intellog Unique Number	CC_80_83/WELL/1048
LOC .         00/03-32-080-07W4/0            : Location     - LOCATION
UWI .         00/03-32-080-07W400            : Uwi          - UNIQUE WELL ID
ENTR.         DW                             : Entered      - ENTERED BY
SRVC.         SCHLUMBERGER                   : Scn          - SERVICE COMPANY
STRT.M        195.00                         : top_depth    - START DEPTH
STOP.M        424.75                         : bot_depth    - STOP DEPTH
STEP.M        0.25                           : increment    - STEP LENGTH
 NULL. -999.2500:NULL Value
~CURVE INFORMATION BLOCK
#MNEM UNIT       ERCB CURVE CODE    CURVE DESCRIPTION
#-----------   ------------------   ----------------------------------
DEPT.M        00 001 00 00         : DEPTH        - DEPTH
GR  .API      00 310 00 00         : GR           - GAMMA RAY
DPHI.V/V      00 890 00 00         : PHID         - DENSITY POROSITY (SANDSTONE)
NPHI.V/V      00 330 00 00         : PHIN         - NEUTRON POROSITY (SANDSTONE)
ILD .OHMM     00 120 00 00         : RESD         - DEEP RESISTIVITY (DIL)
~PARAMETER INFORMATION
#MNEM.UNIT           DATA             DESCRIPTION OF MNEMONIC
#---------         -----------     ------------------------------
GL  .M        633.9                : gl           - GROUND LEVEL ELEVATION
EREF.M        637.1                : kb           - ELEVATION OF DEPTH REFERENCE
DATM.M        637.1                : datum        - DATUM ELEVATION
TDD .M        432                  : tdd          - TOTAL DEPTH DRILLER
RUN .         ONE                  : Run          - RUN NUMBER
ENG .         BILL                 : Engineer     - RECORDING ENGINEER
WIT .         JIM                  : Witness      - WITNESSED BY
MUD .         GEL                  : Mud_type     - MUD TYPE
MATR.         SANDSTONE            : Logunit      - NEUTRON MATRIX
TMAX.C        20                   : BHT          - MAXIMUM RECORDED TEMPERATURE
BHTD.M        432                  : BHTDEP       - MAXIMUM RECORDED TEMPERATURE
MATR.         1                    : LOGUNIT      - NEUTRON MATRIX
RMT .C        25                   : MDTP         - TEMPERATURE OF MUD
NEUT.         1                    : NEUTRON      - NEUTRON TYPE
RESI.         0                    : RESIST       - RESISTIVITY TYPE
RMC .OHMM     0.25                 : RMC          - RESISTIVITY OF MUD CAKE
RMF .OHMM     0.25                 : RMF          - RESISTIVITY OF MUD FILTRATE
SUFT.C        15                   : SUFT         - SURFACE TEMPERATURE
~A  DEPTH       GR     PHID     PHIN     RESD
# ...
  282.000   71.472    0.317    0.442    5.798
  282.250   74.610    0.298    0.459    5.879
  282.500   76.852    0.296    0.456    5.987
  282.750   76.518    0.304    0.442    6.134
  283.000   77.300    0.298    0.441    6.343
  283.250   79.726    0.288    0.458    6.362
  283.500   78.894    0.304    0.468    6.027
  283.750   79.295    0.303    0.452    5.611
  284.000   85.549    0.283    0.437    5.678
  284.250   84.939    0.273    0.443    6.001
  284.500   80.062    0.286    0.459    6.841
  284.750   79.391    0.302    0.475    8.406
  285.000   76.370    0.307    0.485    9.791
  285.250   68.713    0.328    0.466   10.149
  285.500   67.439    0.340    0.438   10.277
  285.750   69.258    0.342    0.454    9.632
  286.000   69.520    0.343    0.470    7.943
  286.250   69.755    0.348    0.432    6.239
  286.500   76.436    0.347    0.401    5.360
  286.750   95.157    0.306    0.434    4.683
  287.000  102.725    0.273    0.500    4.453
  287.250  103.798    0.278    0.539    4.678
  287.500  100.566    0.300    0.537    4.949
  287.750   94.275    0.301    0.519    4.932
  288.000   93.715    0.283    0.511    4.680
  288.250   89.918    0.296    0.515    4.349
  288.500   84.173    0.328    0.514    3.714
  288.750   84.659    0.327    0.511    3.375
  289.000   93.831    0.310    0.529    3.519
  289.250   99.807    0.312    0.554    3.747
  289.500   94.933    0.326    0.541    3.931
  289.750   96.924    0.332    0.537    4.212
  290.000   96.621    0.338    0.559    4.243
  290.250   91.820    0.312    0.546    3.985
  290.500   92.021    0.285    0.498    3.653
  290.750   99.642    0.298    0.484    3.379
  291.000  104.852    0.319    0.522    3.174
  291.250  104.347    0.324    0.541    3.111
  291.500  105.020    0.304    0.546    3.172
  291.750  105.145    0.316    0.550    3.394
  292.000  101.931    0.337    0.568    3.849
  292.250   98.053    0.321    0.570    4.181
  292.500   96.762    0.302    0.521    4.005
  292.750   96.594    0.317    0.492    3.878
  293.000   98.077    0.320    0.482    3.691
  293.250   98.766    0.298    0.531    3.326
  293.500   98.642    0.299    0.580    3.028
  293.750   98.461    0.333    0.576    3.008
  294.000   96.110    0.346    0.580    3.175
  294.250   91.322    0.351    0.592    3.486
  294.500   89.084    0.325    0.583    3.925
  294.750   90.707    0.318    0.541    4.263
  295.000   96.492    0.322    0.529    4.527
  295.250  101.382    0.305    0.565    4.680
  295.500   97.317    0.289    0.567    4.866
  295.750   89.083    0.279    0.534    6.149
  296.000   86.843    0.254    0.499    7.998
  296.250   83.070    0.270    0.473    8.875
  296.500   79.324    0.312    0.411    8.833
  296.750   80.065    0.314    0.372    8.649
  297.000   79.342    0.274    0.441    8.370
  297.250   78.560    0.246    0.447    8.333
  297.500   80.717    0.256    0.429    8.671
  297.750   82.879    0.276    0.428    9.209
  298.000   84.307    0.290    0.435    9.876
  298.250   82.674    0.299    0.436   10.438
  298.500   76.837    0.301    0.434   10.564
  298.750   78.114    0.303    0.433   10.562
  299.000   79.982    0.305    0.433   10.578
  299.250   79.187    0.305    0.444   10.486
  299.500   77.372    0.304    0.453   10.264
  299.750   75.966    0.299    0.454   10.174
  300.000   76.220    0.293    0.459   10.361
  300.250   79.178    0.290    0.448   10.510
  300.500   77.046    0.291    0.446   10.874
  300.750   74.538    0.293    0.446   10.980
  301.000   74.265    0.296    0.437   11.087
  301.250   75.487    0.300    0.432   11.481
  301.500   77.427    0.305    0.433   11.637
  301.750   73.416    0.309    0.417   11.638
  302.000   70.139    0.312    0.406   11.647
  302.250   71.058    0.312    0.419   11.565
  302.500   76.225    0.307    0.443   11.264
  302.750   78.946    0.303    0.455   10.930
  303.000   75.554    0.306    0.457   10.766
  303.250   79.739    0.302    0.460   10.439
  303.500   80.011    0.299    0.458    9.981
  303.750   74.114    0.304    0.451    9.415
  304.000   74.108    0.304    0.441    8.788
  304.250   81.880    0.293    0.439    8.286
  304.500   84.209    0.285    0.452    8.046
  304.750   80.849    0.273    0.458    7.916
  305.000   81.816    0.267    0.457    7.785
  305.250   83.567    0.267    0.451    7.684
  305.500   78.838    0.270    0.443    7.483
  305.750   73.360    0.272    0.440    7.294
  306.000   76.148    0.273    0.442    7.446
  306.250   77.421    0.273    0.443    7.685
  306.500   77.065    0.273    0.430    7.967
  306.750   78.847    0.273    0.440    8.079
  307.000   81.036    0.269    0.455    8.005
  307.250   80.977    0.265    0.448    7.851
  307.500   81.084    0.274    0.447    7.588
  307.750   83.601    0.295    0.452    7.227
  308.000   86.044    0.295    0.457    6.951
  308.250   87.011    0.283    0.459    6.847
  308.500   84.325    0.277    0.459    6.966
  308.750   80.752    0.284    0.458    7.202
  309.000   81.690    0.294    0.458    7.300
  309.250   82.307    0.285    0.462    7.200
  309.500   82.348    0.278    0.465    6.915
  309.750   85.079    0.275    0.468    6.439
  310.000   91.297    0.281    0.468    5.631
  310.250   95.566    0.297    0.458    4.683
  310.500   95.316    0.313    0.456    4.074
  310.750   99.480    0.326    0.514    3.740
  311.000  101.372    0.321    0.580    3.599
  311.250   99.147    0.319    0.608    3.485
  311.500   94.403    0.314    0.587    3.410
  311.750   92.551    0.305    0.553    3.542
  312.000   97.810    0.311    0.541    3.849
  312.250  101.392    0.303    0.529    4.562
  312.500   99.210    0.309    0.525    7.742
  312.750   90.706    0.329    0.482   11.754
  313.000   83.039    0.350    0.423   14.466
  313.250   80.706    0.363    0.398   15.752
  313.500   79.759    0.365    0.393   16.165
  313.750   78.921    0.353    0.393   15.627
  314.000   75.892    0.342    0.395   15.042
  314.250   74.250    0.346    0.392   10.069
  314.500   75.602    0.352    0.394    4.740
  314.750   80.682    0.339    0.392    3.659
  315.000   88.468    0.314    0.405    3.563
  315.250   90.301    0.297    0.512    4.636
  315.500   90.337    0.287    0.509    5.502
  315.750   90.078    0.266    0.469    6.297
  316.000   92.523    0.245    0.478    6.936
  316.250   94.133    0.247    0.498    6.992
  316.500   87.732    0.267    0.501    6.748
  316.750   84.584    0.274    0.500    6.451
  317.000   92.590    0.247    0.498    5.901
  317.250   97.406    0.243    0.498    5.350
  317.500   98.975    0.264    0.500    4.541
  317.750  103.387    0.288    0.506    3.408
  318.000  103.873    0.325    0.532    2.655
  318.250  101.268    0.342    0.582    2.426
  318.500  105.673    0.347    0.607    2.377
  318.750  110.589    0.349    0.621    2.358
  319.000  111.211    0.356    0.632    2.387
  319.250  107.564    0.361    0.629    2.409
  319.500  100.100    0.343    0.612    2.665
  319.750   96.099    0.299    0.582    3.830
  320.000   95.071    0.284    0.569    4.882
  320.250   90.257    0.279    0.573    5.414
  320.500   85.091    0.268    0.545    5.906
  320.750   85.799    0.264    0.488    6.444
  321.000   88.988    0.264    0.474    6.751
  321.250   89.647    0.265    0.481    7.518
  321.500   89.264    0.258    0.473    8.843
  321.750   88.261    0.266    0.464   10.936
  322.000   87.627    0.318    0.461   13.161
  322.250   86.632    0.284    0.434   15.534
  322.500   79.550    0.109    0.364   18.161
  322.750   65.183    0.149    0.292   18.587
  323.000   64.787    0.199    0.268   17.936
  323.250   75.295    0.261    0.304   16.387
  323.500   83.046    0.346    0.366   14.520
  323.750   83.792    0.363    0.406   12.156
  324.000   84.000    0.305    0.420    9.006
  324.250   89.710    0.269    0.433    8.041
  324.500   93.349    0.253    0.434    8.070
  324.750   94.523    0.244    0.427    7.974
  325.000   95.444    0.232    0.439   10.422
  325.250   90.510    0.167    0.422   14.346
