~VERSION INFORMATION
 VERS.                 2.0:   CWLS LOG ASCII STANDARD -VERSION 2.0
 WRAP.                  NO:   ONE LINE PER DEPTH STEP
~WELL INFORMATION BLOCK
#MNEM.UNIT           DATA                    DESCRIPTION OF MNEMONIC
#---------    -------------------            -------------------------------
# Generated from Intellog Unique Number	CC_80_83/WELL/1048
LOC .         00/03-32-080-07W4/0            : Location     - LOCATION
UWI .         00/03-32-080-07W400            : Uwi          - UNIQUE WELL ID
ENTR.         DW                             : Entered      - ENTERED BY
SRVC.         SCHLUMBERGER                   : Scn          - SERVICE COMPANY
STRT.M        195.00                         : top_depth    - START DEPTH
STOP.M        424.75                         : bot_depth    - STOP DEPTH
STEP.M        0.25                           : increment    - STEP LENGTH
 NULL. -999.2500:NULL Value
~CURVE INFORMATION BLOCK
#MNEM UNIT       ERCB CURVE CODE    CURVE DESCRIPTION
#-----------   ------------------   ----------------------------------
DEPT.M        00 001 00 00         : DEPTH        - DEPTH
GR  .API      00 310 00 00         : GR           - GAMMA RAY
DPHI.V/V      00 890 00 00         : PHID         - DENSITY POROSITY (SANDSTONE)
NPHI.V/V      00 330 00 00         : PHIN         - NEUTRON POROSITY (SANDSTONE)
ILD .OHMM     00 120 00 00         : RESD         - DEEP RESISTIVITY (DIL)
~PARAMETER INFORMATION
#MNEM.UNIT           DATA             DESCRIPTION OF MNEMONIC
#---------         -----------     ------------------------------
GL  .M        633.9                : gl           - GROUND LEVEL ELEVATION
EREF.M        637.1                : kb           - ELEVATION OF DEPTH REFERENCE
DATM.M        637.1                : datum        - DATUM ELEVATION
TDD .M        432                  : tdd          - TOTAL DEPTH DRILLER
RUN .         ONE                  : Run          - RUN NUMBER
ENG .         BILL                 : Engineer     - RECORDING ENGINEER
WIT .         JIM                  : Witness      - WITNESSED BY
MUD .         GEL                  : Mud_type     - MUD TYPE
MATR.         SANDSTONE            : Logunit      - NEUTRON MATRIX
TMAX.C        20                   : BHT          - MAXIMUM RECORDED TEMPERATURE
BHTD.M        432                  : BHTDEP       - MAXIMUM RECORDED TEMPERATURE
MATR.         1                    : LOGUNIT      - NEUTRON MATRIX
RMT .C        25                   : MDTP         - TEMPERATURE OF MUD
NEUT.         1                    : NEUTRON      - NEUTRON TYPE
RESI.         0                    : RESIST       - RESISTIVITY TYPE
RMC .OHMM     0.25                 : RMC          - RESISTIVITY OF MUD CAKE
RMF .OHMM     0.25                 : RMF          - RESISTIVITY OF MUD FILTRATE
SUFT.C        15                   : SUFT         - SURFACE TEMPERATURE
~A  DEPTH       GR     PHID     PHIN     RESD
# ...
  369.000   60.552    0.279    0.338   19.899
  369.250   68.605    0.274    0.351   18.313
  369.500   72.572    0.262    0.336   14.113
  369.750   87.263    0.247    0.326   10.842
  370.000   98.990    0.190    0.338    9.825
  370.250   94.901    0.155    0.368    9.428
  370.500   93.316    0.220    0.400    8.979
  370.750   97.090    0.210    0.391    8.729
  371.000  116.324    0.165    0.364    8.099
  371.250  126.514    0.160    0.397    8.302
  371.500  119.881    0.175    0.468    9.132
  371.750  104.713    0.197    0.510   10.899
  372.000   83.040    0.240    0.487   15.253
  372.250   65.952    0.247    0.373   20.368
  372.500   61.750    0.254    0.337   22.805
  372.750   63.865    0.275    0.358   21.864
  373.000   74.767    0.262    0.378   18.996
  373.250   88.015    0.222    0.397   16.215
  373.500   87.669    0.216    0.408   14.568
  373.750   86.228    0.198    0.390   13.559
  374.000   82.392    0.173    0.364   13.775
  374.250   73.862    0.231    0.369   14.569
  374.500   65.617    0.301    0.386   18.328
  374.750   61.613    0.311    0.397   30.036
  375.000   53.954    0.326    0.410   46.948
  375.250   34.104    0.331    0.396   57.781
  375.500   27.929    0.327    0.386   74.557
  375.750   37.937    0.324    0.393   92.439
  376.000   42.865    0.322    0.399  102.734
  376.250   36.937    0.325    0.407  105.934
  376.500   34.312    0.338    0.413  105.504
  376.750   32.727    0.341    0.372  100.686
  377.000   31.961    0.337    0.356   95.182
  377.250   34.836    0.330    0.371   93.547
  377.500   42.148    0.325    0.389   94.033
  377.750   51.015    0.321    0.396   93.957
  378.000   56.685    0.319    0.398   93.925
  378.250   54.889    0.337    0.413   92.513
  378.500   45.312    0.347    0.399   90.004
  378.750   41.496    0.339    0.383   85.663
  379.000   44.052    0.325    0.367   78.921
  379.250   46.831    0.307    0.349   71.494
  379.500   51.117    0.315    0.363   62.271
  379.750   56.094    0.367    0.386   42.969
  380.000   64.392    0.179    0.391   18.915
  380.250   80.141    0.051    0.406   12.122
  380.500   85.440    0.133    0.403   15.715
  380.750   79.127    0.249    0.375   15.491
  381.000   82.703    0.288    0.389   16.389
  381.250   83.362    0.278    0.432   16.202
  381.500   83.473    0.293    0.436   15.314
  381.750   84.888    0.297    0.418   14.018
  382.000   87.790    0.279    0.411   12.765
  382.250   92.488    0.259    0.417   11.786
  382.500   97.595    0.229    0.425   10.882
  382.750  100.322    0.185    0.428   10.502
  383.000  101.550    0.205    0.430   10.409
  383.250  102.484    0.221    0.429    9.827
  383.500  106.912    0.209    0.428    9.051
  383.750  113.529    0.221    0.431    8.795
  384.000  116.118    0.234    0.423    8.978
  384.250  117.388    0.172    0.382    9.255
  384.500  119.442    0.142    0.373    9.798
  384.750   99.194    0.216    0.379   10.599
  385.000   75.650    0.279    0.372   11.460
  385.250   69.928    0.273    0.362   12.116
  385.500   67.737    0.286    0.355   12.484
  385.750   72.236    0.287    0.349   12.724
  386.000   77.690    0.281    0.349   12.537
  386.250   84.227    0.279    0.375   12.561
  386.500   76.878    0.289    0.407   12.805
  386.750   56.480    0.313    0.413   13.046
  387.000   49.750    0.334    0.397   13.491
  387.250   57.689    0.326    0.374   13.756
  387.500   67.475    0.277    0.354   13.446
  387.750   75.910    0.255    0.342   12.803
  388.000   80.878    0.268    0.353   11.668
  388.250   85.393    0.252    0.380   10.515
  388.500   96.451    0.191    0.398   10.065
  388.750  108.573    0.170    0.417    9.263
  389.000  113.923    0.226    0.437    8.882
  389.250   91.429    0.256    0.423    8.555
  389.500   77.438    0.239    0.398    8.155
  389.750   94.502    0.213    0.396    7.948
  390.000  102.326    0.183    0.402    7.827
  390.250   92.080    0.181    0.399    7.703
  390.500   84.707    0.177    0.380    7.566
  390.750   86.083    0.171    0.365    7.512
  391.000   92.195    0.182    0.394    7.558
  391.250   97.584    0.197    0.444    7.735
  391.500   99.288    0.190    0.438    8.148
  391.750  101.238    0.189    0.406    8.710
  392.000  103.778    0.193    0.399    9.052
  392.250  100.564    0.181    0.412    9.336
  392.500   91.129    0.212    0.441   10.145
  392.750   76.971    0.293    0.473   12.857
  393.000   61.846    0.335    0.461   17.071
  393.250   59.519    0.337    0.401   20.310
  393.500   64.938    0.324    0.381   29.336
  393.750   71.716    0.296    0.376   33.497
  394.000   75.196    0.270    0.376   32.959
  394.250   70.640    0.269    0.399   35.795
  394.500   58.684    0.290    0.424   42.511
  394.750   48.724    0.309    0.422   52.712
  395.000   40.536    0.322    0.417   63.146
  395.250   36.979    0.330    0.410   87.431
  395.500   36.207    0.339    0.398  110.225
  395.750   37.324    0.347    0.391  109.762
  396.000   45.506    0.344    0.394   97.291
  396.250   58.539    0.340    0.395   92.476
  396.500   61.443    0.336    0.374   88.589
  396.750   54.705    0.335    0.363   84.028
  397.000   49.692    0.334    0.374   80.632
  397.250   49.486    0.333    0.389   80.887
  397.500   48.321    0.330    0.398   86.918
  397.750   48.154    0.330    0.400   95.725
  398.000   48.933    0.343    0.417  105.031
  398.250   42.691    0.349    0.407  108.587
  398.500   37.830    0.341    0.389  105.941
  398.750   41.024    0.335    0.397  109.907
  399.000   43.398    0.335    0.408  130.891
  399.250   46.471    0.340    0.413  156.792
  399.500   54.595    0.350    0.413  173.228
  399.750   49.455    0.347    0.411  125.359
  400.000   45.595    0.339    0.404   81.391
  400.250   55.747    0.341    0.398   94.794
  400.500   55.980    0.346    0.400  104.890
  400.750   41.013    0.361    0.400  122.659
  401.000   36.654    0.371    0.397  176.676
  401.250   39.002    0.370    0.395  223.596
  401.500   41.125    0.359    0.395  242.019
  401.750   42.700    0.352    0.403  238.368
  402.000   41.954    0.362    0.418  218.966
  402.250   40.202    0.366    0.418  213.987
  402.500   34.777    0.359    0.407  226.508
  402.750   30.924    0.350    0.397  241.048
  403.000   31.630    0.350    0.394  249.866
  403.250   36.755    0.356    0.394  251.029
  403.500   42.625    0.355    0.389  242.084
  403.750   40.115    0.351    0.380  230.190
  404.000   38.871    0.351    0.372  227.335
  404.250   41.177    0.354    0.383  234.040
  404.500   43.049    0.356    0.409  251.690
  404.750   42.209    0.359    0.422  270.387
  405.000   39.438    0.362    0.410  272.877
  405.250   36.573    0.365    0.413  265.150
  405.500   36.725    0.377    0.414  249.152
  405.750   31.594    0.373    0.398  234.506
  406.000   30.475    0.363    0.425  192.664
  406.250   37.601    0.373    0.485  130.475
  406.500   38.873    0.389    0.474  105.806
  406.750   37.354    0.391    0.434  112.978
  407.000   35.732    0.388    0.438  141.052
  407.250   33.995    0.384    0.431  172.670
  407.500   28.350    0.379    0.411  212.495
  407.750   24.228    0.373    0.406  249.925
  408.000   32.395    0.368    0.396  259.103
  408.250   44.765    0.362    0.394  259.925
  408.500   48.788    0.360    0.417  250.886
  408.750   46.117    0.360    0.423  232.531
  409.000   43.969    0.360    0.408  217.011
  409.250   43.674    0.359    0.399  207.458
  409.500   42.573    0.359    0.397  193.911
  409.750   42.100    0.360    0.399  176.452
  410.000   41.639    0.361    0.419  155.423
  410.250   46.214    0.368    0.439  126.574
  410.500   46.611    0.380    0.456  109.366
  410.750   39.369    0.387    0.468  108.239
  411.000   37.046    0.380    0.455   94.556
  411.250   40.186    0.365    0.418   65.376
  411.500   47.609    0.351    0.393   49.037
  411.750   46.118    0.336    0.386   43.344
  412.000   40.304    0.317    0.377   38.358
  412.250   46.947    0.305    0.361   29.748
