~VERSION INFORMATION
 VERS.                 2.0:   CWLS LOG ASCII STANDARD -VERSION 2.0
 WRAP.                  NO:   ONE LINE PER DEPTH STEP
~WELL INFORMATION BLOCK
#MNEM.UNIT           DATA                    DESCRIPTION OF MNEMONIC
#---------    -------------------            -------------------------------
# Generated from Intellog Unique Number	CS_77_79/WELL/896
WELL.         CANADIAN WORLDWIDE ENERGY      : Well_name    - WELL
LOC .         00/07-13-077-06W4/0            : Location     - LOCATION
UWI .         00/07-13-077-06W4/0            : Uwi          - UNIQUE WELL ID
ENTR.         SP                             : Entered      - ENTERED BY
SRVC.         SCHLUMBERGER                   : Scn          - SERVICE COMPANY
STRT.M        150                            : top_depth    - START DEPTH
STOP.M        390                            : bot_depth    - STOP DEPTH
STEP.M        0.25                           : increment    - STEP LENGTH
 NULL. -999.2500:NULL Value
~CURVE INFORMATION BLOCK
#MNEM UNIT       ERCB CURVE CODE    CURVE DESCRIPTION
#-----------   ------------------   ----------------------------------
DEPT.M        00 001 00 00         : DEPTH        - DEPTH
ILD .OHMM     00 120 00 00         : RESD         - DEEP RESISTIVITY (DIL)
DPHI.V/V      00 890 00 00         : PHID         - DENSITY POROSITY (LIMESTONE)
NPHI.V/V      00 330 00 00         : PHIN         - NEUTRON POROSITY (LIMESTONE)
GR  .API      00 310 00 00         : GR           - GAMMA RAY
~PARAMETER INFORMATION
#MNEM.UNIT           DATA             DESCRIPTION OF MNEMONIC
#---------         -----------     ------------------------------
GL  .M        563.3                : gl           - GROUND LEVEL ELEVATION
EREF.M        566.3                : kb           - ELEVATION OF DEPTH REFERENCE
DATM.M        563.3                : datum        - DATUM ELEVATION
TDD .M        395                  : tdd          - TOTAL DEPTH DRILLER
RUN .         ONE                  : Run          - RUN NUMBER
ENG .         BILL                 : Engineer     - RECORDING ENGINEER
WIT .         JIM                  : Witness      - WITNESSED BY
MUD .         GEL                  : Mud_type     - MUD TYPE
MATR.         LIMESTONE            : Logunit      - NEUTRON MATRIX
TMAX.C        23                   : BHT          - MAXIMUM RECORDED TEMPERATURE
BHTD.M        395                  : BHTDEP       - MAXIMUM RECORDED TEMPERATURE
MATR.         1                    : LOGUNIT      - NEUTRON MATRIX
RMT .C        25                   : MDTP         - TEMPERATURE OF MUD
NEUT.         1                    : NEUTRON      - NEUTRON TYPE
RESI.         0                    : RESIST       - RESISTIVITY TYPE
RMC .OHMM     0.25                 : RMC          - RESISTIVITY OF MUD CAKE
RMF .OHMM     0.25                 : RMF          - RESISTIVITY OF MUD FILTRATE
SUFT.C        15                   : SUFT         - SURFACE TEMPERATURE
~A  DEPTH     RESD     PHID     PHIN       GR
  150.000    2.669    0.272    0.523   99.177
  150.250    2.670    0.280    0.519  102.908
  150.500    2.673    0.286    0.516  107.886
  150.750    2.779    0.294    0.519  108.513
  151.000    2.834    0.288    0.506  106.048
  151.250    2.837    0.290    0.490  105.440
  151.500    2.838    0.294    0.498  106.691
  151.750    2.788    0.296    0.513  106.706
  152.000    2.688    0.292    0.530  104.855
  152.250    2.640    0.294    0.553  102.390
  152.500    2.642    0.295    0.564   99.925
  152.750    2.694    0.297    0.555   99.939
  153.000    2.747    0.300    0.558   99.946
  153.250    2.803    0.310    0.543  101.818
  153.500    2.804    0.314    0.494  103.069
  153.750    2.861    0.306    0.505  104.327
  154.000    2.863    0.305    0.528  104.962
  154.250    2.920    0.311    0.552  104.968
  154.500    2.922    0.316    0.564  104.983
  154.750    2.980    0.316    0.531  103.754
  155.000    2.982    0.314    0.525  100.667
  155.250    2.986    0.311    0.548  100.057
  155.500    3.045    0.307    0.550  103.169
  155.750    3.106    0.311    0.556  101.942
  156.000    3.169    0.304    0.567   98.238
  156.250    3.231    0.297    0.580   96.388
  156.500    3.358    0.287    0.590   98.884
  156.750    3.424    0.278    0.598  101.371
  157.000    3.493    0.278    0.566  108.202
  157.250    3.631    0.283    0.535  108.836
  157.500    3.774    0.280    0.545  103.887
  157.750    3.848    0.272    0.565   99.562
  158.000    3.779    0.196    0.565  101.436
  158.250    3.713    0.185    0.527  107.645
  158.500    3.715    0.180    0.508  110.757
  158.750    3.718    0.207    0.507  108.288
  159.000    3.865    0.233    0.516  105.206
  159.250    4.016    0.240    0.520  106.454
  159.500    4.588    0.244    0.518  106.465
  159.750    5.339    0.246    0.508  103.383
  160.000    8.566    0.245    0.507  101.535
  160.250   12.270    0.245    0.471  101.544
  160.500   18.253    0.250    0.479  105.895
  160.750   23.348    0.236    0.494  108.393
  161.000   24.729    0.249    0.502  107.779
  161.250   20.115    0.257    0.496  101.593
  161.500   15.750    0.263    0.485   93.548
  161.750   11.875    0.264    0.440   70.625
  162.000    8.305    0.260    0.335   40.265
  162.250    6.262    0.246    0.289   29.741
  162.500    4.997    0.231    0.294   27.273
  162.750    4.551    0.225    0.339   26.047
  163.000    4.821    0.237    0.374   40.936
  163.250    5.507    0.251    0.396   63.263
  163.500    6.531    0.283    0.414   85.590
  163.750    7.894    0.321    0.433   99.858
  164.000    9.910    0.341    0.445  102.975
  164.250   11.533    0.302    0.445  101.742
  164.500   13.941    0.270    0.444   91.220
  164.750   16.227    0.252    0.435   73.874
  165.000   19.252    0.253    0.451   67.687
  165.250   21.579    0.284    0.439   74.518
  165.500   22.850    0.356    0.382   85.689
  165.750   21.615    0.542    0.390   84.462
  166.000   20.436    0.404    0.417   78.894
  166.250   17.589    0.291    0.445   77.051
  166.500   15.138    0.311    0.431   77.065
  166.750   14.049    0.333    0.425   76.452
  167.000   13.288    0.338    0.434   77.085
  167.250   13.299    0.340    0.436   85.779
  167.500   14.088    0.340    0.431   89.507
  167.750   14.367    0.327    0.424   93.243
  168.000   14.929    0.304    0.424   95.113
  168.250   16.123    0.274    0.420   94.501
  168.500   17.073    0.236    0.410   91.416
  168.750   17.739    0.197    0.400   85.852
  169.000   19.152    0.142    0.383   88.961
  169.250   19.532    0.148    0.388  100.130
  169.500   19.550    0.213    0.414  106.961
  169.750   19.195    0.266    0.421  103.875
  170.000   17.816    0.290    0.425   95.828
  170.250   16.533    0.280    0.425   92.121
  170.500   14.776    0.280    0.419   99.573
  170.750   15.070    0.285    0.405  107.643
  171.000   16.893    0.280    0.403  113.234
  171.250   20.418    0.246    0.395  112.007
  171.500   25.151    0.218    0.388  107.059
  171.750   29.829    0.212    0.373   96.537
  172.000   34.721    0.235    0.361   57.496
  172.250   38.188    0.271    0.358   42.633
  172.500   40.448    0.297    0.368   41.405
  172.750   40.491    0.324    0.369   40.802
  173.000   39.762    0.326    0.363   40.193
  173.250   39.051    0.322    0.361   43.307
  173.500   37.647    0.327    0.378   45.794
  173.750   36.974    0.319    0.381   49.533
  174.000   36.302    0.311    0.383   49.541
  174.250   34.991    0.333    0.370   49.549
  174.500   33.725    0.348    0.373   46.463
  174.750   31.302    0.358    0.389   45.855
  175.000   30.161    0.360    0.396   52.692
  175.250   27.471    0.373    0.394   55.183
  175.500   23.643    0.386    0.392   57.671
  175.750   20.342    0.365    0.411   62.645
  176.000   17.180    0.357    0.424   68.234
  176.250   14.510    0.359    0.416   75.066
  176.500   12.965    0.349    0.406   82.515
  176.750   11.158    0.337    0.398   91.206
  177.000    9.788    0.323    0.404   99.274
  177.250    9.082    0.279    0.413  107.964
  177.500    8.591    0.256    0.434  112.936
  177.750    8.126    0.246    0.455  109.230
  178.000    7.980    0.229    0.470  104.285
  178.250    7.986    0.221    0.466  106.781
  178.500    8.784    0.222    0.457  108.031
  178.750    9.844    0.231    0.469  108.661
  179.000   12.126    0.241    0.469  107.435
  179.250   17.047    0.241    0.453  102.485
  179.500   21.809    0.249    0.439   84.523
  179.750   24.438    0.273    0.435   70.279
  180.000   27.915    0.301    0.421   60.371
  180.250   29.011    0.324    0.407   51.708
  180.500   29.589    0.365    0.405   57.303
  180.750   29.066    0.364    0.411   61.029
  181.000   28.019    0.357    0.409   66.002
  181.250   26.499    0.361    0.400   64.773
  181.500   24.588    0.357    0.403   67.888
  181.750   22.820    0.347    0.408   73.479
  182.000   21.175    0.341    0.408   81.549
  182.250   18.923    0.336    0.403   88.997
  182.500   16.912    0.329    0.394   91.488
  182.750   14.284    0.320    0.392   84.062
  183.000   12.764    0.317    0.389   77.877
  183.250   10.783    0.312    0.387   84.090
  183.500    9.817    0.296    0.385   94.640
  183.750    8.449    0.271    0.390  100.848
  184.000    7.694    0.212    0.396  103.961
  184.250    6.749    0.195    0.411   99.634
  184.500    6.382    0.125    0.444  107.708
  184.750    6.036    0.163    0.458  114.539
  185.000    5.602    0.187    0.471  113.308
  185.250    5.199    0.169    0.481  118.279
  185.500    4.917    0.191    0.477  123.871
  185.750    4.650    0.216    0.476  124.503
  186.000    4.568    0.233    0.484  121.416
  186.250    4.747    0.220    0.486  118.947
  186.500    5.527    0.222    0.486  124.539
  186.750    6.312    0.234    0.486  125.791
  187.000    7.209    0.246    0.483  115.887
  187.250    8.712    0.262    0.471   99.162
  187.500    9.228    0.282    0.455   85.540
  187.750    8.893    0.295    0.434   79.972
  188.000    7.951    0.305    0.416   86.183
  188.250    7.517    0.294    0.402   96.731
  188.500    6.594    0.276    0.444  115.961
  188.750    6.353    0.277    0.464  112.256
  189.000    5.898    0.285    0.483  109.787
  189.250    5.684    0.283    0.509  109.798
  189.500    5.689    0.256    0.505  115.392
  189.750    5.695    0.243    0.477  116.642
  190.000    5.700    0.241    0.477  114.796
  190.250    5.704    0.234    0.459  114.811
  190.500    5.708    0.226    0.447  115.445
  190.750    5.712    0.225    0.440  113.592
  191.000    5.613    0.230    0.438  113.605
  191.250    5.617    0.230    0.447  111.759
  191.500    5.620    0.229    0.451  111.153
  191.750    5.732    0.227    0.450  111.162
  192.000    5.959    0.227    0.441  106.837
  192.250    6.076    0.237    0.425  100.032
  192.500    6.082    0.237    0.428  104.384
  192.750    5.973    0.230    0.442  107.492
  193.000    5.867    0.216    0.447  114.330
  193.250    5.763    0.210    0.447  116.196
