~VERSION INFORMATION
 VERS.                 2.0:   CWLS LOG ASCII STANDARD -VERSION 2.0
 WRAP.                  NO:   ONE LINE PER DEPTH STEP
~WELL INFORMATION BLOCK
#MNEM.UNIT           DATA                    DESCRIPTION OF MNEMONIC
#---------    -------------------            -------------------------------
# Generated from Intellog Unique Number	CC_80_83/WELL/1048
LOC .         00/03-32-080-07W4/0            : Location     - LOCATION
UWI .         00/03-32-080-07W400            : Uwi          - UNIQUE WELL ID
ENTR.         DW                             : Entered      - ENTERED BY
SRVC.         SCHLUMBERGER                   : Scn          - SERVICE COMPANY
STRT.M        195.00                         : top_depth    - START DEPTH
STOP.M        424.75                         : bot_depth    - STOP DEPTH
STEP.M        0.25                           : increment    - STEP LENGTH
 NULL. -999.2500:NULL Value
~CURVE INFORMATION BLOCK
#MNEM UNIT       ERCB CURVE CODE    CURVE DESCRIPTION
#-----------   ------------------   ----------------------------------
DEPT.M        00 001 00 00         : DEPTH        - DEPTH
GR  .API      00 310 00 00         : GR           - GAMMA RAY
DPHI.V/V      00 890 00 00         : PHID         - DENSITY POROSITY (SANDSTONE)
NPHI.V/V      00 330 00 00         : PHIN         - NEUTRON POROSITY (SANDSTONE)
ILD .OHMM     00 120 00 00         : RESD         - DEEP RESISTIVITY (DIL)
~PARAMETER INFORMATION
#MNEM.UNIT           DATA             DESCRIPTION OF MNEMONIC
#---------         -----------     ------------------------------
GL  .M        633.9                : gl           - GROUND LEVEL ELEVATION
EREF.M        637.1                : kb           - ELEVATION OF DEPTH REFERENCE
DATM.M        637.1                : datum        - DATUM ELEVATION
TDD .M        432                  : tdd          - TOTAL DEPTH DRILLER
RUN .         ONE                  : Run          - RUN NUMBER
ENG .         BILL                 : Engineer     - RECORDING ENGINEER
WIT .         JIM                  : Witness      - WITNESSED BY
MUD .         GEL                  : Mud_type     - MUD TYPE
MATR.         SANDSTONE            : Logunit      - NEUTRON MATRIX
TMAX.C        20                   : BHT          - MAXIMUM RECORDED TEMPERATURE
BHTD.M        432                  : BHTDEP       - MAXIMUM RECORDED TEMPERATURE
MATR.         1                    : LOGUNIT      - NEUTRON MATRIX
RMT .C        25                   : MDTP         - TEMPERATURE OF MUD
NEUT.         1                    : NEUTRON      - NEUTRON TYPE
RESI.         0                    : RESIST       - RESISTIVITY TYPE
RMC .OHMM     0.25                 : RMC          - RESISTIVITY OF MUD CAKE
RMF .OHMM     0.25                 : RMF          - RESISTIVITY OF MUD FILTRATE
SUFT.C        15                   : SUFT         - SURFACE TEMPERATURE
~A  DEPTH       GR     PHID     PHIN     RESD
  195.000   97.970    0.288    0.575    2.638
  195.250   97.608    0.241    0.578    2.716
  195.500   92.764    0.244    0.556    2.858
  195.750   92.773    0.276    0.528    2.952
  196.000   97.308    0.304    0.520    2.957
  196.250   99.056    0.311    0.537    2.980
  196.500   97.332    0.309    0.557    3.141
  196.750   99.347    0.309    0.559    3.311
  197.000  100.452    0.301    0.535    3.336
  197.250  100.517    0.293    0.519    3.347
  197.500  101.722    0.292    0.524    3.437
  197.750  103.969    0.288    0.518    3.550
  198.000  105.374    0.282    0.502    3.668
  198.250  104.105    0.285    0.534    3.852
  198.500  100.316    0.280    0.514    4.002
  198.750   96.282    0.281    0.492    4.075
  199.000   96.105    0.289    0.497    3.965
  199.250   99.974    0.296    0.511    3.683
  199.500  101.015    0.297    0.538    3.668
  199.750   91.834    0.258    0.558    4.376
  200.000   73.108    0.220    0.598    5.052
  200.250   60.993    0.227    0.460    5.290
  200.500   72.235    0.263    0.376    5.312
  200.750   90.266    0.295    0.488    5.282
  201.000   85.495    0.307    0.488    5.100
  201.250   78.187    0.288    0.472    4.875
  201.500   77.174    0.280    0.463    4.499
  201.750   80.028    0.283    0.453    4.264
  202.000   88.954    0.292    0.455    4.138
  202.250  100.958    0.301    0.475    4.043
  202.500  101.598    0.289    0.507    4.283
  202.750   86.445    0.272    0.550    4.920
  203.000   67.486    0.273    0.415    5.927
  203.250   65.959    0.267    0.353    6.717
  203.500   82.708    0.257    0.404    6.700
  203.750   97.773    0.261    0.424    6.252
  204.000   98.480    0.271    0.441    6.191
  204.250   94.898    0.270    0.440    6.329
  204.500   91.615    0.260    0.447    7.248
  204.750   91.382    0.252    0.450    8.720
  205.000   94.267    0.251    0.428    9.828
  205.250   96.850    0.254    0.414   10.677
  205.500   92.260    0.271    0.441   12.208
  205.750   76.037    0.303    0.452   13.920
  206.000   65.766    0.309    0.432   15.511
  206.250   61.063    0.313    0.409   16.566
  206.500   59.183    0.251    0.385   17.236
  206.750   60.236    0.171    0.359   17.706
  207.000   64.339    0.235    0.355   17.647
  207.250   77.254    0.290    0.370   17.098
  207.500   87.211    0.295    0.393   16.544
  207.750   92.984    0.308    0.423   15.981
  208.000   96.288    0.325    0.426   15.612
  208.250   98.332    0.316    0.406   15.296
  208.500  102.144    0.302    0.403   14.533
  208.750  106.491    0.295    0.391   13.853
  209.000  108.561    0.287    0.410   13.046
  209.250  112.469    0.282    0.435   12.139
  209.500  119.128    0.277    0.454   11.029
  209.750  124.686    0.269    0.470   10.163
  210.000  125.068    0.260    0.471   10.247
  210.250  115.786    0.254    0.473   10.544
  210.500   97.151    0.269    0.469   11.393
  210.750   78.967    0.286    0.434   13.063
  211.000   71.960    0.298    0.404   14.988
  211.250   74.991    0.299    0.404   16.637
  211.500   79.164    0.282    0.396   17.640
  211.750   84.489    0.275    0.397   17.122
  212.000   87.402    0.287    0.402   16.633
  212.250   87.734    0.304    0.429   16.907
  212.500   80.210    0.324    0.455   18.444
  212.750   67.020    0.334    0.435   20.544
  213.000   61.164    0.312    0.381   21.414
  213.250   62.175    0.311    0.371   21.175
  213.500   67.232    0.328    0.379   19.994
  213.750   68.237    0.347    0.392   18.681
  214.000   62.913    0.348    0.413   17.506
  214.250   60.316    0.334    0.445   16.465
  214.500   66.725    0.333    0.472   16.004
  214.750   71.193    0.350    0.443   16.239
  215.000   72.612    0.361    0.436   16.762
  215.250   71.156    0.366    0.462   18.672
  215.500   74.102    0.373    0.466   20.993
  215.750   80.314    0.373    0.442   22.582
  216.000   76.629    0.353    0.432   24.051
  216.250   67.686    0.326    0.423   24.506
  216.500   67.796    0.334    0.421   24.544
  216.750   72.360    0.349    0.421   24.402
  217.000   73.304    0.344    0.422   23.630
  217.250   73.281    0.330    0.424   22.507
  217.500   75.989    0.332    0.431   21.825
  217.750   73.341    0.342    0.456   21.088
  218.000   67.709    0.340    0.460   20.932
  218.250   65.114    0.332    0.442   21.051
  218.500   64.384    0.329    0.432   20.864
  218.750   66.641    0.337    0.439   20.556
  219.000   74.111    0.348    0.446   20.588
  219.250   73.963    0.351    0.441   20.605
  219.500   72.207    0.353    0.436   20.396
  219.750   70.418    0.345    0.423   19.754
  220.000   68.583    0.333    0.417   19.371
  220.250   72.830    0.334    0.433   18.783
  220.500   84.634    0.327    0.455   16.954
  220.750   89.695    0.260    0.465   16.091
  221.000   92.596    0.255    0.469   15.583
  221.250   95.919    0.296    0.460   15.157
  221.500   98.463    0.310    0.440   15.166
  221.750   97.654    0.296    0.426   15.405
  222.000   94.537    0.292    0.435   15.384
  222.250   91.301    0.290    0.456   15.604
  222.500   61.822    0.307    0.463   16.279
  222.750   45.320    0.324    0.433   18.606
  223.000   48.244    0.348    0.395   21.787
  223.250   47.981    0.376    0.380   23.852
  223.500   47.393    0.368    0.399   24.506
  223.750   45.533    0.342    0.459   24.589
  224.000   52.961    0.362    0.472   23.854
  224.250   56.883    0.390    0.447   23.408
  224.500   53.156    0.394    0.436   22.618
  224.750   51.081    0.388    0.436   21.166
  225.000   52.955    0.379    0.418   20.576
  225.250   54.608    0.363    0.416   20.227
  225.500   55.488    0.359    0.450   20.120
  225.750   57.534    0.384    0.470   20.369
  226.000   61.605    0.420    0.465   20.656
  226.250   67.169    0.431    0.460   20.488
  226.500   75.258    0.404    0.454   19.790
  226.750   87.072    0.361    0.447   18.485
  227.000   90.819    0.327    0.442   14.993
  227.250   78.091    0.320    0.420   12.739
  227.500   68.416    0.306    0.402   12.173
  227.750   77.150    0.284    0.407   11.312
  228.000   87.641    0.297    0.414   10.230
  228.250   85.650    0.290    0.423    8.801
  228.500   80.888    0.297    0.438    8.248
  228.750   78.145    0.306    0.454    8.349
  229.000   76.439    0.310    0.461    8.438
  229.250   74.960    0.291    0.457    8.427
  229.500   76.461    0.242    0.447    8.758
  229.750   84.926    0.252    0.441    9.829
  230.000   88.047    0.269    0.434   10.527
  230.250   81.485    0.245    0.432   10.712
  230.500   76.150    0.227    0.439   11.028
  230.750   79.287    0.253    0.461   11.957
  231.000   84.504    0.286    0.480   13.682
  231.250   86.029    0.309    0.439   16.148
  231.500   77.222    0.327    0.440   18.088
  231.750   67.867    0.342    0.450   19.378
  232.000   64.490    0.348    0.445   19.785
  232.250   62.931    0.347    0.441   18.660
  232.500   64.023    0.344    0.433   15.670
  232.750   79.361    0.318    0.422   11.482
  233.000   98.200    0.282    0.417    9.326
  233.250  115.903    0.245    0.433    6.877
  233.500  119.653    0.226    0.487    5.063
  233.750  114.355    0.227    0.516    5.485
  234.000  121.050    0.220    0.460    5.603
  234.250  121.989    0.218    0.447    5.670
  234.500  120.015    0.223    0.448    7.203
  234.750  112.229    0.291    0.443   10.195
  235.000  100.182    0.358    0.435   14.608
  235.250   92.152    0.362    0.427   18.980
  235.500   88.168    0.362    0.423   20.958
  235.750   79.856    0.355    0.419   21.482
  236.000   79.940    0.349    0.411   20.172
  236.250   84.714    0.346    0.403   18.277
  236.500   88.165    0.317    0.394   15.747
  236.750   92.363    0.272    0.394   12.993
  237.000   99.932    0.264    0.413   11.938
  237.250  107.434    0.279    0.426   11.705
  237.500  105.301    0.293    0.436   11.895
  237.750   95.040    0.284    0.446   12.865
  238.000   82.530    0.289    0.451   14.175
  238.250   70.127    0.318    0.437   16.258
