~VERSION INFORMATION
 VERS.                 2.0:   CWLS LOG ASCII STANDARD -VERSION 2.0
 WRAP.                  NO:   ONE LINE PER DEPTH STEP
~WELL INFORMATION BLOCK
#MNEM.UNIT           DATA                    DESCRIPTION OF MNEMONIC
#---------    -------------------            -------------------------------
# Generated from Intellog Unique Number	CS_77_79/WELL/896
WELL.         CANADIAN WORLDWIDE ENERGY      : Well_name    - WELL
LOC .         00/07-13-077-06W4/0            : Location     - LOCATION
UWI .         00/07-13-077-06W4/0            : Uwi          - UNIQUE WELL ID
ENTR.         SP                             : Entered      - ENTERED BY
SRVC.         SCHLUMBERGER                   : Scn          - SERVICE COMPANY
STRT.M        150                            : top_depth    - START DEPTH
STOP.M        390                            : bot_depth    - STOP DEPTH
STEP.M        0.25                           : increment    - STEP LENGTH
 NULL. -999.2500:NULL Value
~CURVE INFORMATION BLOCK
#MNEM UNIT       ERCB CURVE CODE    CURVE DESCRIPTION
#-----------   ------------------   ----------------------------------
DEPT.M        00 001 00 00         : DEPTH        - DEPTH
ILD .OHMM     00 120 00 00         : RESD         - DEEP RESISTIVITY (DIL)
DPHI.V/V      00 890 00 00         : PHID         - DENSITY POROSITY (LIMESTONE)
NPHI.V/V      00 330 00 00         : PHIN         - NEUTRON POROSITY (LIMESTONE)
GR  .API      00 310 00 00         : GR           - GAMMA RAY
~PARAMETER INFORMATION
#MNEM.UNIT           DATA             DESCRIPTION OF MNEMONIC
#---------         -----------     ------------------------------
GL  .M        563.3                : gl           - GROUND LEVEL ELEVATION
EREF.M        566.3                : kb           - ELEVATION OF DEPTH REFERENCE
DATM.M        563.3                : datum        - DATUM ELEVATION
TDD .M        395                  : tdd          - TOTAL DEPTH DRILLER
RUN .         ONE                  : Run          - RUN NUMBER
ENG .         BILL                 : Engineer     - RECORDING ENGINEER
WIT .         JIM                  : Witness      - WITNESSED BY
MUD .         GEL                  : Mud_type     - MUD TYPE
MATR.         LIMESTONE            : Logunit      - NEUTRON MATRIX
TMAX.C        23                   : BHT          - MAXIMUM RECORDED TEMPERATURE
BHTD.M        395                  : BHTDEP       - MAXIMUM RECORDED TEMPERATURE
MATR.         1                    : LOGUNIT      - NEUTRON MATRIX
RMT .C        25                   : MDTP         - TEMPERATURE OF MUD
NEUT.         1                    : NEUTRON      - NEUTRON TYPE
RESI.         0                    : RESIST       - RESISTIVITY TYPE
RMC .OHMM     0.25                 : RMC          - RESISTIVITY OF MUD CAKE
RMF .OHMM     0.25                 : RMF          - RESISTIVITY OF MUD FILTRATE
SUFT.C        15                   : SUFT         - SURFACE TEMPERATURE
~A  DEPTH     RESD     PHID     PHIN       GR
# ...
  193.500    5.765    0.204    0.439  115.588
  193.750    5.771    0.210    0.426  113.123
  194.000    5.889    0.212    0.427  111.894
  194.250    6.005    0.214    0.439  111.912
  194.500    6.009    0.205    0.445  111.920
  194.750    6.013    0.200    0.435  112.554
  195.000    6.133    0.205    0.431  115.046
  195.250    6.258    0.213    0.436  116.297
  195.500    6.262    0.220    0.440  116.307
  195.750    6.385    0.223    0.441  111.983
  196.000    6.638    0.222    0.420  108.895
  196.250    6.770    0.218    0.400  103.330
  196.500    6.774    0.217    0.405  101.479
  196.750    6.654    0.215    0.416  103.974
  197.000    6.535    0.212    0.396  109.566
  197.250    6.420    0.210    0.410  112.675
  197.500    6.425    0.218    0.444  112.689
  197.750    6.551    0.223    0.449  112.082
  198.000    6.682    0.229    0.447  112.094
  198.250    6.686    0.229    0.443  111.486
  198.500    6.822    0.219    0.443  107.778
  198.750    6.826    0.216    0.441  107.177
  199.000    6.834    0.219    0.431  107.803
  199.250    6.840    0.220    0.426  111.534
  199.500    6.844    0.217    0.459  109.688
  199.750    6.721    0.212    0.475  108.460
  200.000    6.730    0.209    0.455  114.674
  200.250    6.734    0.204    0.421  115.923
  200.500    6.612    0.199    0.408  109.739
  200.750    6.496    0.203    0.416  107.889
  201.000    6.378    0.213    0.417  109.765
  201.250    6.386    0.212    0.423  111.632
  201.500    6.389    0.207    0.429  112.266
  201.750    6.274    0.208    0.450  111.660
  202.000    6.400    0.198    0.462  110.429
  202.250    6.407    0.185    0.465  108.585
  202.500    6.412    0.177    0.443  111.695
  202.750    6.416    0.200    0.441  115.427
  203.000    6.304    0.210    0.450  117.298
  203.250    6.189    0.213    0.476  114.830
  203.500    6.078    0.214    0.470  107.406
  203.750    5.750    0.216    0.441  104.320
  204.000    5.754    0.222    0.418  103.711
  204.250    5.758    0.219    0.430  108.062
  204.500    5.656    0.219    0.454  113.035
  204.750    5.556    0.227    0.456  113.666
  205.000    5.455    0.226    0.470  113.057
  205.250    5.462    0.225    0.467  113.075
  205.500    5.363    0.231    0.452  113.083
  205.750    5.367    0.230    0.453  113.716
  206.000    5.274    0.226    0.462  118.686
  206.250    5.276    0.221    0.467  121.801
  206.500    5.281    0.222    0.480  122.432
  206.750    5.285    0.217    0.493  119.343
  207.000    5.391    0.214    0.478  115.637
  207.250    5.497    0.222    0.477  113.792
  207.500    5.717    0.228    0.482  113.189
  207.750    5.830    0.231    0.491  113.196
  208.000    5.945    0.225    0.475  113.212
  208.250    5.949    0.223    0.454  113.224
  208.500    5.734    0.226    0.453  113.231
  208.750    5.739    0.225    0.477  112.004
  209.000    5.853    0.222    0.473  106.437
  209.250    6.199    0.237    0.459   92.814
  209.500    6.442    0.256    0.420   89.106
  209.750    6.328    0.271    0.426   98.418
  210.000    6.098    0.245    0.427  105.246
  210.250    6.835    0.239    0.426  110.837
  210.500    8.108    0.266    0.424  104.035
  210.750    9.261    0.281    0.406   99.707
  211.000   11.195    0.281    0.379   94.760
  211.250   12.310    0.272    0.377   88.573
  211.500   13.288    0.271    0.377   90.448
  211.750   13.551    0.264    0.377   94.178
  212.000   13.563    0.250    0.390   96.048
  212.250   15.206    0.241    0.431   79.945
  212.500   16.101    0.262    0.442   68.180
  212.750   17.054    0.293    0.421   59.514
  213.000   18.410    0.314    0.406   62.007
  213.250   17.743    0.326    0.400   63.877
  213.500   15.859    0.324    0.400   65.129
  213.750   14.438    0.316    0.402   67.621
  214.000   12.427    0.305    0.402   71.353
  214.250   11.105    0.299    0.401   81.284
  214.500    9.925    0.288    0.418   88.115
  214.750    9.211    0.277    0.437   84.407
  215.000   10.132    0.273    0.427   78.841
  215.250   11.356    0.285    0.414   72.655
  215.500   12.971    0.320    0.418   62.129
  215.750   14.537    0.335    0.406   57.802
  216.000   15.694    0.331    0.390   60.296
  216.250   16.003    0.317    0.387   63.407
  216.500   13.775    0.299    0.395   69.618
  216.750   11.636    0.280    0.405   77.068
  217.000   11.211    0.270    0.430   78.319
  217.250   10.803    0.270    0.461   78.957
  217.500   11.023    0.272    0.459   79.584
  217.750   11.028    0.272    0.446   80.217
  218.000   10.836    0.269    0.435   77.752
  218.250   10.640    0.264    0.438   76.522
  218.500   10.448    0.263    0.447   75.917
  218.750   10.460    0.263    0.451   82.130
  219.000   10.272    0.265    0.452   85.858
  219.250   10.086    0.267    0.451   88.348
  219.500    9.720    0.269    0.445   87.122
  219.750    9.728    0.273    0.425   82.796
  220.000    9.554    0.274    0.431   80.330
  220.250    9.565    0.265    0.447   80.344
  220.500    9.759    0.260    0.456   79.733
  220.750    9.765    0.266    0.468   80.367
  221.000    9.957    0.277    0.484   77.281
  221.250   10.547    0.285    0.473   77.290
  221.500   10.961    0.295    0.438   78.543
  221.750   11.610    0.286    0.421   78.555
  222.000   12.299    0.285    0.424   74.230
  222.250   12.780    0.286    0.429   72.382
  222.500   13.796    0.285    0.431   72.398
  222.750   14.336    0.290    0.436   72.408
  223.000   15.182    0.297    0.424   71.798
  223.250   16.701    0.287    0.394   65.617
  223.500   17.359    0.245    0.367   63.765
  223.750   18.388    0.201    0.341   63.158
  224.000   18.749    0.223    0.374   61.933
  224.250   19.124    0.271    0.400   63.186
  224.500   19.141    0.304    0.417   63.814
  224.750   19.531    0.310    0.431   65.069
  225.000   19.539    0.321    0.428   65.702
  225.250   19.554    0.332    0.423   66.336
  225.500   18.500    0.334    0.427   66.344
  225.750   18.509    0.325    0.418   63.877
  226.000   17.844    0.321    0.413   65.131
  226.250   17.523    0.319    0.412   67.622
  226.500   17.535    0.318    0.426   68.875
  226.750   17.225    0.316    0.433   70.124
  227.000   17.243    0.314    0.436   70.138
  227.250   17.582    0.315    0.431   66.433
  227.500   17.598    0.319    0.422   66.449
  227.750   17.610    0.322    0.415   67.074
  228.000   17.628    0.322    0.419   68.329
  228.250   17.312    0.310    0.437   63.382
  228.500   17.326    0.300    0.440   62.156
  228.750   17.015    0.292    0.432   64.028
  229.000   16.712    0.301    0.421   66.518
  229.250   16.415    0.312    0.418   68.391
  229.500   16.124    0.315    0.418   69.644
  229.750   15.832    0.309    0.405   70.273
  230.000   15.846    0.304    0.401   73.390
  230.250   15.859    0.306    0.406   74.637
  230.500   15.872    0.313    0.418   76.509
  230.750   15.885    0.317    0.411   71.565
  231.000   15.900    0.323    0.422   70.335
  231.250   15.616    0.326    0.429   67.870
  231.500   15.337    0.334    0.418   69.123
  231.750   15.061    0.323    0.408   71.616
  232.000   14.795    0.302    0.418   73.486
  232.250   14.530    0.299    0.413   75.976
  232.500   14.540    0.311    0.414   75.989
  232.750   14.556    0.317    0.418   74.140
  233.000   14.297    0.311    0.424   71.055
  233.250   14.042    0.303    0.434   70.446
  233.500   13.789    0.310    0.437   71.080
  233.750   13.292    0.312    0.442   71.714
  234.000   13.056    0.301    0.443   72.965
  234.250   12.819    0.309    0.434   75.455
  234.500   12.127    0.320    0.427   72.370
  234.750   11.905    0.322    0.434   68.662
  235.000   11.474    0.320    0.438   71.157
  235.250   10.255    0.313    0.447   76.127
  235.500    9.519    0.291    0.442   87.295
  235.750    9.001    0.272    0.420   97.225
  236.000    8.515    0.267    0.409  100.335
  236.250    8.361    0.256    0.397   98.487
  236.500    8.060    0.251    0.397   96.644
  236.750    7.915    0.249    0.397   96.655
