~VERSION INFORMATION
 VERS.                 2.0:   CWLS LOG ASCII STANDARD -VERSION 2.0
 WRAP.                  NO:   ONE LINE PER DEPTH STEP
~WELL INFORMATION BLOCK
#MNEM.UNIT           DATA                    DESCRIPTION OF MNEMONIC
#---------    -------------------            -------------------------------
# Generated from Intellog Unique Number	CS_69_70/WELL/662
WELL.         HUSKY OIL OPERATIONS           : Well_name    - WELL
LOC .         00/05-14-069-05W4/0            : Location     - LOCATION
UWI .         00/05-14-069-05W4/0            : Uwi          - UNIQUE WELL ID
ENTR.         J                              : Entered      - ENTERED BY
SRVC.         SCHLUMBERGER                   : Scn          - SERVICE COMPANY
STRT.M        300                            : top_depth    - START DEPTH
STOP.M        575                            : bot_depth    - STOP DEPTH
STEP.M        0.25                           : increment    - STEP LENGTH
 NULL. -999.2500:NULL Value
~CURVE INFORMATION BLOCK
#MNEM UNIT       ERCB CURVE CODE    CURVE DESCRIPTION
#-----------   ------------------   ----------------------------------
DEPT.M        00 001 00 00         : DEPTH        - DEPTH
ILD .OHMM     00 120 00 00         : RESD         - DEEP RESISTIVITY (DIL)
DPHI.V/V      00 890 00 00         : PHID         - DENSITY POROSITY (LIMESTONE)
NPHI.V/V      00 330 00 00         : PHIN         - NEUTRON POROSITY (LIMESTONE)
GR  .API      00 310 00 00         : GR           - GAMMA RAY
~PARAMETER INFORMATION
#MNEM.UNIT           DATA             DESCRIPTION OF MNEMONIC
#---------         -----------     ------------------------------
GL  .M        673.9                : gl           - GROUND LEVEL ELEVATION
EREF.M        677.5                : kb           - ELEVATION OF DEPTH REFERENCE
DATM.M        673.9                : datum        - DATUM ELEVATION
TDD .M        581                  : tdd          - TOTAL DEPTH DRILLER
RUN .         ONE                  : Run          - RUN NUMBER
ENG .         BILL                 : Engineer     - RECORDING ENGINEER
WIT .         JIM                  : Witness      - WITNESSED BY
MUD .         GEL                  : Mud_type     - MUD TYPE
MATR.         LIMESTONE            : Logunit      - NEUTRON MATRIX
TMAX.C        25                   : BHT          - MAXIMUM RECORDED TEMPERATURE
BHTD.M        581                  : BHTDEP       - MAXIMUM RECORDED TEMPERATURE
MATR.         1                    : LOGUNIT      - NEUTRON MATRIX
RMT .C        25                   : MDTP         - TEMPERATURE OF MUD
NEUT.         1                    : NEUTRON      - NEUTRON TYPE
RESI.         0                    : RESIST       - RESISTIVITY TYPE
RMC .OHMM     0.25                 : RMC          - RESISTIVITY OF MUD CAKE
RMF .OHMM     0.25                 : RMF          - RESISTIVITY OF MUD FILTRATE
SUFT.C        15                   : SUFT         - SURFACE TEMPERATURE
~A  DEPTH     RESD     PHID     PHIN       GR
# ...
  343.500    7.349    0.323    0.423   66.481
  343.750    7.475    0.333    0.412   63.325
  344.000    7.546    0.317    0.404   66.853
  344.250    7.705    0.300    0.397   72.993
  344.500    7.719    0.282    0.389   78.100
  344.750    7.778    0.272    0.398   81.506
  345.000    7.780    0.270    0.407   81.753
  345.250    7.781    0.270    0.402   72.462
  345.500    7.739    0.285    0.410   67.848
  345.750    7.654    0.311    0.411   58.557
  346.000    7.514    0.327    0.398   54.004
  346.250    7.473    0.331    0.414   57.654
  346.500    7.544    0.326    0.426   59.662
  346.750    7.659    0.310    0.410   62.461
  347.000    7.819    0.285    0.387   65.320
  347.250    8.027    0.263    0.397   67.572
  347.500    8.164    0.255    0.382   67.880
  347.750    8.257    0.248    0.369   67.033
  348.000    8.243    0.247    0.379   73.295
  348.250    8.137    0.251    0.395   78.159
  348.500    7.988    0.254    0.412   82.476
  348.750    7.726    0.275    0.432   85.700
  349.000    7.486    0.287    0.428   87.891
  349.250    7.227    0.290    0.423   90.021
  349.500    6.899    0.285    0.444   90.694
  349.750    6.464    0.283    0.458   91.609
  350.000    6.310    0.286    0.449   93.740
  350.250    6.276    0.275    0.439   96.598
  350.500    6.289    0.267    0.445   99.944
  350.750    6.337    0.262    0.463  101.649
  351.000    6.505    0.263    0.476   96.246
  351.250    6.804    0.271    0.464   87.805
  351.500    7.170    0.245    0.447   81.613
  351.750    7.388    0.227    0.432   77.849
  352.000    7.362    0.268    0.458   83.443
  352.250    7.308    0.284    0.476   87.942
  352.500    7.201    0.284    0.483   89.951
  352.750    7.122    0.279    0.471   91.778
  353.000    7.110    0.279    0.467   92.511
  353.250    7.151    0.281    0.488   91.968
  353.500    7.126    0.257    0.486   85.593
  353.750    6.969    0.228    0.442   83.045
  354.000    6.702    0.211    0.424   86.998
  354.250    6.482    0.232    0.438   90.707
  354.500    6.246    0.253    0.452   94.357
  354.750    6.087    0.266    0.441   97.884
  355.000    6.076    0.273    0.466  101.898
  355.250    6.168    0.275    0.486  103.724
  355.500    6.250    0.279    0.499   95.162
  355.750    6.513    0.290    0.485   87.511
  356.000    6.812    0.289    0.463   84.538
  356.250    7.138    0.287    0.449   84.664
  356.500    7.355    0.293    0.437   86.369
  356.750    7.551    0.297    0.435   90.201
  357.000    7.637    0.290    0.438   92.999
  357.250    7.710    0.284    0.430   93.610
  357.500    7.711    0.279    0.423   91.184
  357.750    7.741    0.279    0.423   91.309
  358.000    7.771    0.266    0.421   92.468
  358.250    7.729    0.259    0.422   93.383
  358.500    7.531    0.260    0.433   93.448
  358.750    7.123    0.269    0.440   93.026
  359.000    6.799    0.271    0.449   93.820
  359.250    6.638    0.259    0.456   93.216
  359.500    6.553    0.265    0.458   91.944
  359.750    6.554    0.283    0.460   87.270
  360.000    6.678    0.286    0.470   85.087
  360.250    6.856    0.281    0.481   90.984
  360.500    6.999    0.280    0.492   94.026
  360.750    7.185    0.283    0.501   94.090
  361.000    7.474    0.275    0.487   84.252
  361.250    7.687    0.270    0.479   74.111
  361.500    7.832    0.275    0.473   67.492
  361.750    7.997    0.298    0.465   62.939
  362.000    7.997    0.324    0.446   60.209
  362.250    8.043    0.330    0.433   54.078
  362.500    7.955    0.341    0.425   49.160
  362.750    7.723    0.351    0.432   46.005
  363.000    7.595    0.351    0.430   44.733
  363.250    7.442    0.354    0.416   45.467
  363.500    7.360    0.361    0.404   49.905
  363.750    7.417    0.365    0.409   51.914
  364.000    7.446    0.367    0.429   53.072
  364.250    7.517    0.364    0.441   53.867
  364.500    7.603    0.360    0.436   54.599
  364.750    7.604    0.355    0.434   56.973
  365.000    7.662    0.353    0.457   58.981
  365.250    7.735    0.352    0.472   62.508
  365.500    7.765    0.349    0.460   66.705
  365.750    7.766    0.343    0.455   68.166
  366.000    7.710    0.338    0.452   66.895
  366.250    7.668    0.334    0.456   67.385
  366.500    7.556    0.335    0.452   69.272
  366.750    7.514    0.338    0.448   71.160
  367.000    7.349    0.337    0.446   72.621
  367.250    7.255    0.327    0.447   74.265
  367.500    7.297    0.318    0.456   71.900
  367.750    7.353    0.317    0.457   74.516
  368.000    7.368    0.320    0.441   76.464
  368.250    7.369    0.315    0.425   77.319
  368.500    7.425    0.314    0.422   77.626
  368.750    7.426    0.323    0.416   75.443
  369.000    7.525    0.335    0.413   75.994
  369.250    7.625    0.337    0.413   80.312
  369.500    7.655    0.327    0.414   82.624
  369.750    7.729    0.324    0.427   79.287
  370.000    7.729    0.324    0.425   78.076
  370.250    7.730    0.323    0.418   81.542
  370.500    7.717    0.322    0.448   81.424
  370.750    7.733    0.321    0.469   73.895
  371.000    7.807    0.323    0.479   67.641
  371.250    7.896    0.343    0.483   60.963
  371.500    7.941    0.352    0.469   56.775
  371.750    7.942    0.351    0.456   53.315
  372.000    7.899    0.351    0.448   55.081
  372.250    7.901    0.354    0.442   57.880
  372.500    7.902    0.356    0.454   57.641
  372.750    7.918    0.356    0.459   61.411
  373.000    7.904    0.354    0.453   64.514
  373.250    7.818    0.354    0.449   64.275
  373.500    7.775    0.356    0.464   61.970
  373.750    7.835    0.356    0.468   58.450
  374.000    7.983    0.348    0.462   55.539
  374.250    8.150    0.334    0.452   52.140
  374.500    8.243    0.325    0.439   48.498
  374.750    8.337    0.322    0.425   46.862
  375.000    8.480    0.323    0.414   46.441
  375.250    8.513    0.322    0.405   47.113
  375.500    8.482    0.321    0.393   48.393
  375.750    8.405    0.323    0.400   48.580
  376.000    8.344    0.329    0.409   48.097
  376.250    8.299    0.332    0.399   47.493
  376.500    8.285    0.334    0.393   48.712
  376.750    8.286    0.332    0.417   49.263
  377.000    8.334    0.328    0.427   48.173
  377.250    8.304    0.325    0.422   45.504
  377.500    8.321    0.332    0.420   45.812
  377.750    8.353    0.337    0.417   48.611
  378.000    8.355    0.342    0.415   50.376
  378.250    8.325    0.348    0.417   52.203
  378.500    8.311    0.345    0.428   52.693
  378.750    8.281    0.345    0.425   52.697
  379.000    8.236    0.350    0.418   52.458
  379.250    8.207    0.349    0.412   51.914
  379.500    8.239    0.347    0.412   51.312
  379.750    8.255    0.348    0.415   51.437
  380.000    8.318    0.356    0.412   51.927
  380.250    8.399    0.363    0.410   52.720
  380.500    8.384    0.367    0.418   54.486
  380.750    8.385    0.367    0.425   53.275
  381.000    8.386    0.365    0.425   51.760
  381.250    8.404    0.360    0.419   51.096
  381.500    8.389    0.353    0.412   51.039
  381.750    8.374    0.348    0.409   51.042
  382.000    8.329    0.346    0.406   51.168
  382.250    8.315    0.349    0.416   51.780
  382.500    8.316    0.353    0.419   52.756
  382.750    8.380    0.355    0.426   53.549
  383.000    8.381    0.351    0.421   55.072
  383.250    8.289    0.346    0.408   52.403
  383.500    8.107    0.356    0.395   51.556
  383.750    7.929    0.362    0.395   51.621
  384.000    7.683    0.364    0.408   51.989
  384.250    7.514    0.361    0.416   52.419
  384.500    7.363    0.361    0.425   52.544
  384.750    7.364    0.361    0.425   52.548
  385.000    7.420    0.361    0.424   52.187
  385.250    7.505    0.363    0.420   51.766
  385.500    7.548    0.365    0.421   52.196
  385.750    7.549    0.362    0.435   52.564
  386.000    7.621    0.359    0.441   53.540
  386.250    7.795    0.357    0.439   54.819
  386.500    8.122    0.365    0.431   55.370
  386.750    8.736    0.370    0.434   55.070
