~VERSION INFORMATION
 VERS.                 2.0:   CWLS LOG ASCII STANDARD -VERSION 2.0
 WRAP.                  NO:   ONE LINE PER DEPTH STEP
~WELL INFORMATION BLOCK
#MNEM.UNIT           DATA                    DESCRIPTION OF MNEMONIC
#---------    -------------------            -------------------------------
# Generated from Intellog Unique Number	CW_73_75/WELL/694
WELL.         HB  MARTEN HILLS 07-11         : Well_name    - WELL
LOC .         00/07-11-074-01W5/0            : Location     - LOCATION
UWI .         00/07-11-074-01W5/0            : Uwi          - UNIQUE WELL ID
ENTR.         JAYE                           : Entered      - ENTERED BY
SRVC.         SCHLUMBERGER                   : Scn          - SERVICE COMPANY
DATE.         22 SEPT 73                     : Date         - LOG DATE
STRT.M        435.864                        : top_depth    - START DEPTH
STOP.M        673.614                        : bot_depth    - STOP DEPTH
STEP.M        0.25                           : increment    - STEP LENGTH
 NULL. -999.2500:NULL Value
~CURVE INFORMATION BLOCK
#MNEM UNIT       ERCB CURVE CODE    CURVE DESCRIPTION
#-----------   ------------------   ----------------------------------
DEPT.M        00 001 00 00         : DEPTH        - DEPTH
ILD .OHMM     00 120 00 00         : RESD         - DEEP RESISTIVITY (DIL)
NPHI.V/V      00 330 00 00         : PHIN         - NEUTRON POROSITY (SANDSTONE)
DPHI.V/V      00 890 00 00         : PHID         - DENSITY POROSITY (SANDSTONE)
CALI.MM       00 280 01 00         : CAL          - CALIPER
GR  .API      00 310 00 00         : GR           - GAMMA RAY
~PARAMETER INFORMATION
#MNEM.UNIT           DATA             DESCRIPTION OF MNEMONIC
#---------         -----------     ------------------------------
GL  .M        678.18               : gl           - GROUND LEVEL ELEVATION
EREF.M        681.838              : kb           - ELEVATION OF DEPTH REFERENCE
DATM.M        678.18               : datum        - DATUM ELEVATION
TDD .M        670.56               : tdd          - TOTAL DEPTH DRILLER
RUN .         ONE                  : Run          - RUN NUMBER
BASE.         EDM                  : Branch       - HOME BASE OF LOGGING UNIT
MATR.         SANDSTONE            : Logunit      - NEUTRON MATRIX
TMAX.C        30                   : BHT          - MAXIMUM RECORDED TEMPERATURE
BHTD.M        670.865              : BHTDEP       - MAXIMUM RECORDED TEMPERATURE
RMT .C        -17.7778             : MDTP         - TEMPERATURE OF MUD
MUDD.KG/M     0                    : MWT          - MUD DENSITY
NEUT.         1                    : NEUTRON      - NEUTRON TYPE
RESI.         0                    : RESIST       - RESISTIVITY TYPE
RM  .OHMM     0                    : RM           - RESISTIVITY OF MUD
RMC .OHMM     0                    : RMC          - RESISTIVITY OF MUD CAKE
RMF .OHMM     0                    : RMF          - RESISTIVITY OF MUD FILTRATE
SUFT.C        -17.7778             : SUFT         - SURFACE TEMPERATURE
~A  DEPTH     RESD     PHIN     PHID      CAL       GR
  435.864    2.690    0.567    0.112  205.217   87.250
  436.114    2.822    0.555    0.127  201.932   89.892
  436.364    2.690    0.577    0.182  203.616  101.149
  436.614    2.656    0.568    0.182  205.712  103.425
  436.864    2.656    0.507    0.175  207.807   97.087
  437.114    2.745    0.479    0.172  209.902   91.604
  437.364    2.948    0.484    0.183  214.795   86.673
  437.614    3.346    0.514    0.176  216.991   90.231
  437.864    3.549    0.552    0.180  216.085   88.292
  438.114    3.433    0.662    0.206  220.252   89.285
  438.364    3.202    0.732    0.245  225.451   87.712
  438.614    2.867    0.749    0.245  230.753   88.584
  438.864    2.601    0.736    0.227  238.023   89.210
  439.114    2.343    0.704    0.322  249.119   87.515
  439.364    2.275    0.576    0.335  231.972   85.820
  439.614    2.430    0.476    0.287  205.410   80.887
  439.864    2.738    0.468    0.249  202.125   76.443
  440.114    3.102    0.479    0.248  201.953   72.180
  440.364    3.540    0.489    0.235  201.665   69.508
  440.614    4.254    0.488    0.247  201.378   67.081
  440.864    4.586    0.496    0.267  201.304   62.575
  441.114    4.569    0.497    0.258  201.020   60.941
  441.364    4.502    0.459    0.258  200.531   60.345
  441.614    4.420    0.410    0.197  200.348   57.734
  441.864    4.371    0.439    0.192  200.271   55.306
  442.114    4.307    0.463    0.261  200.918   56.300
  442.364    4.237    0.482    0.273  198.049   57.842
  442.614    4.136    0.489    0.275  200.247   60.425
  442.864    4.009    0.494    0.268  205.241   62.702
  443.114    3.879    0.512    0.266  204.128   66.383
  443.364    3.773    0.547    0.253  202.913   70.248
  443.614    3.738    0.550    0.225  201.801   72.341
  443.864    3.738    0.518    0.244  201.106   74.005
  444.114    3.724    0.509    0.247  202.580   77.137
  444.364    3.683    0.547    0.216  209.333   86.501
  444.614    3.636    0.594    0.177  216.910   95.926
  444.864    3.570    0.575    0.221  220.040   99.119
  445.114    3.492    0.555    0.223  214.480  102.740
  445.364    3.335    0.556    0.189  205.714  107.154
  445.614    3.209    0.550    0.201  208.740  113.219
  445.864    3.104    0.539    0.175  213.009  110.913
  446.114    3.167    0.528    0.165  210.448  104.758
  446.364    3.465    0.513    0.154  212.131  105.934
  446.614    3.869    0.490    0.172  212.571  110.532
  446.864    4.391    0.492    0.209  205.253  105.661
  447.114    4.622    0.505    0.200  187.691  102.011
  447.364    4.563    0.545    0.223  188.545   95.427
  447.614    4.463    0.532    0.244  198.401   86.279
  447.864    4.287    0.518    0.243  189.323   76.581
  448.114    4.124    0.511    0.242  188.625   76.351
  448.364    3.946    0.519    0.239  198.170   81.133
  448.614    3.874    0.542    0.240  203.061   82.615
  448.864    3.832    0.563    0.233  201.844   78.353
  449.114    3.824    0.530    0.252  200.009   67.799
  449.364    3.824    0.505    0.273  199.622   59.200
  449.614    3.845    0.512    0.267  199.234   57.811
  449.864    3.831    0.519    0.257  198.851   57.460
  450.114    3.838    0.507    0.276  198.461   56.132
  450.364    3.823    0.496    0.287  198.389   53.520
  450.614    3.795    0.500    0.287  198.824   52.070
  450.864    3.747    0.491    0.279  198.957   53.490
  451.114    3.705    0.483    0.266  198.885   58.455
  451.364    3.726    0.494    0.243  198.598   63.237
  451.614    3.787    0.502    0.238  199.036   63.864
  451.864    3.872    0.497    0.249  199.684   61.923
  452.114    3.950    0.468    0.248  200.331   62.186
  452.364    4.009    0.451    0.221  200.776   64.338
  452.614    4.120    0.457    0.220  200.901   69.366
  452.864    4.189    0.462    0.219  201.447   75.307
  453.114    4.212    0.469    0.198  203.023   86.382
  453.364    4.181    0.545    0.183  204.603   96.478
  453.614    4.045    0.549    0.173  205.870  111.035
  453.864    3.849    0.523    0.191  209.207  113.861
  454.114    3.696    0.476    0.186  212.338  105.507
  454.364    3.622    0.486    0.154  216.504   99.535
  454.614    3.750    0.504    0.146  214.667   92.586
  454.864    4.007    0.469    0.177  207.451   75.738
  455.114    4.352    0.424    0.212  198.580   55.591
  455.364    5.162    0.409    0.271  198.607   37.461
  455.614    6.351    0.410    0.265  198.634   36.927
  455.864    6.835    0.405    0.247  198.350   41.648
  456.114    6.625    0.419    0.260  198.689   49.729
  456.364    5.868    0.452    0.279  198.198   62.269
  456.614    5.038    0.478    0.264  197.293   69.861
  456.864    4.480    0.460    0.255  196.493   70.732
  457.114    3.968    0.419    0.255  197.243   67.632
  457.364    3.534    0.438    0.227  199.131   67.220
  457.614    3.260    0.465    0.231  200.297   70.413
  457.864    3.177    0.486    0.259  200.840   76.050
  458.114    3.183    0.466    0.247  200.765   80.404
  458.364    3.200    0.439    0.238  200.377   84.879
  458.614    3.277    0.434    0.246  200.095   86.361
  458.864    3.381    0.462    0.216  199.913   87.843
  459.114    3.520    0.485    0.194  200.250   91.220
  459.364    3.726    0.511    0.170  203.484   98.506
  459.614    3.894    0.528    0.188  207.131  102.982
  459.864    4.069    0.516    0.203  211.812  100.614
  460.114    4.244    0.489    0.234  211.530   94.278
  460.364    4.260    0.480    0.218  203.590   92.214
  460.614    4.175    0.524    0.185  203.101   96.507
  460.864    3.972    0.695    0.187  203.643  110.392
  461.114    3.698    0.693    0.181  205.223  122.627
  461.364    3.417    0.673    0.195  207.836  125.760
  461.614    3.032    0.657    0.175  211.380  124.797
  461.864    2.726    0.682    0.185  214.614  121.881
  462.114    2.437    0.704    0.177  212.057  124.096
  462.364    2.315    0.700    0.198  208.357  125.639
  462.614    2.332    0.669    0.224  206.211  120.341
  462.864    2.537    0.546    0.223  207.891  114.246
  463.114    2.858    0.563    0.207  211.230  105.464
  463.364    3.179    0.590    0.223  223.775   98.086
  463.614    3.504    0.617    0.276  223.490   93.702
  463.864    3.841    0.629    0.296  248.968   91.091
  464.114    4.218    0.597    0.333  229.854   84.264
  464.364    4.489    0.557    0.281  205.466   72.977
  464.614    4.597    0.537    0.248  195.043   63.155
  464.864    4.640    0.529    0.266  192.896   61.216
  465.114    4.665    0.519    0.230  190.752   64.164
  465.364    4.597    0.516    0.239  189.745   68.091
  465.614    4.496    0.544    0.252  188.735   76.293
  465.864    4.342    0.564    0.252  185.659   78.875
  466.114    4.155    0.565    0.255  183.201   77.182
  466.364    4.041    0.557    0.283  189.333   75.485
  466.614    3.990    0.578    0.285  197.431   77.028
  466.864    4.026    0.573    0.248  197.972   74.845
  467.114    4.138    0.548    0.301  197.481   67.284
  467.364    4.309    0.528    0.321  196.994   58.380
  467.614    4.470    0.478    0.322  197.747   58.520
  467.864    4.620    0.487    0.306  197.458   60.733
  468.114    4.679    0.497    0.301  197.591   65.761
  468.364    4.705    0.527    0.293  197.722   68.220
  468.614    4.594    0.600    0.280  197.850   67.867
  468.864    4.371    0.565    0.270  197.779   65.134
  469.114    4.237    0.543    0.307  197.695   62.767
  469.364    4.205    0.497    0.282  197.104   66.756
  469.614    4.152    0.500    0.260  195.583   72.208
  469.864    4.024    0.536    0.243  194.570   81.694
  470.114    3.829    0.586    0.249  193.250   79.204
  470.364    3.644    0.546    0.271  192.036   68.589
  470.614    3.499    0.505    0.277  192.475   62.129
  470.864    3.367    0.510    0.285  193.847   66.727
  471.114    3.342    0.498    0.287  195.429   67.722
  471.364    3.385    0.490    0.287  197.005   67.492
  471.614    3.447    0.492    0.275  198.997   69.219
  471.864    3.447    0.502    0.285  199.647   71.311
  472.114    3.403    0.506    0.292  199.670   74.138
