~VERSION INFORMATION
 VERS.                 2.0:   CWLS LOG ASCII STANDARD -VERSION 2.0
 WRAP.                  NO:   ONE LINE PER DEPTH STEP
~WELL INFORMATION BLOCK
#MNEM.UNIT           DATA                    DESCRIPTION OF MNEMONIC
#---------    -------------------            -------------------------------
# Generated from Intellog Unique Number	CS_77_79/WELL/896
WELL.         CANADIAN WORLDWIDE ENERGY      : Well_name    - WELL
LOC .         00/07-13-077-06W4/0            : Location     - LOCATION
UWI .         00/07-13-077-06W4/0            : Uwi          - UNIQUE WELL ID
ENTR.         SP                             : Entered      - ENTERED BY
SRVC.         SCHLUMBERGER                   : Scn          - SERVICE COMPANY
STRT.M        150                            : top_depth    - START DEPTH
STOP.M        390                            : bot_depth    - STOP DEPTH
STEP.M        0.25                           : increment    - STEP LENGTH
 NULL. -999.2500:NULL Value
~CURVE INFORMATION BLOCK
#MNEM UNIT       ERCB CURVE CODE    CURVE DESCRIPTION
#-----------   ------------------   ----------------------------------
DEPT.M        00 001 00 00         : DEPTH        - DEPTH
ILD .OHMM     00 120 00 00         : RESD         - DEEP RESISTIVITY (DIL)
DPHI.V/V      00 890 00 00         : PHID         - DENSITY POROSITY (LIMESTONE)
NPHI.V/V      00 330 00 00         : PHIN         - NEUTRON POROSITY (LIMESTONE)
GR  .API      00 310 00 00         : GR           - GAMMA RAY
~PARAMETER INFORMATION
#MNEM.UNIT           DATA             DESCRIPTION OF MNEMONIC
#---------         -----------     ------------------------------
GL  .M        563.3                : gl           - GROUND LEVEL ELEVATION
EREF.M        566.3                : kb           - ELEVATION OF DEPTH REFERENCE
DATM.M        563.3                : datum        - DATUM ELEVATION
TDD .M        395                  : tdd          - TOTAL DEPTH DRILLER
RUN .         ONE                  : Run          - RUN NUMBER
ENG .         BILL                 : Engineer     - RECORDING ENGINEER
WIT .         JIM                  : Witness      - WITNESSED BY
MUD .         GEL                  : Mud_type     - MUD TYPE
MATR.         LIMESTONE            : Logunit      - NEUTRON MATRIX
TMAX.C        23                   : BHT          - MAXIMUM RECORDED TEMPERATURE
BHTD.M        395                  : BHTDEP       - MAXIMUM RECORDED TEMPERATURE
MATR.         1                    : LOGUNIT      - NEUTRON MATRIX
RMT .C        25                   : MDTP         - TEMPERATURE OF MUD
NEUT.         1                    : NEUTRON      - NEUTRON TYPE
RESI.         0                    : RESIST       - RESISTIVITY TYPE
RMC .OHMM     0.25                 : RMC          - RESISTIVITY OF MUD CAKE
RMF .OHMM     0.25                 : RMF          - RESISTIVITY OF MUD FILTRATE
SUFT.C        15                   : SUFT         - SURFACE TEMPERATURE
~A  DEPTH     RESD     PHID     PHIN       GR
# ...
  280.500    8.517    0.303    0.433   83.325
  280.750    8.365    0.309    0.433   83.336
  281.000    8.216    0.310    0.449   85.209
  281.250    8.223    0.308    0.472   86.460
  281.500    8.075    0.305    0.462   83.992
  281.750    7.929    0.311    0.449   81.529
  282.000    7.788    0.311    0.445   80.922
  282.250    7.651    0.301    0.442   82.171
  282.500    7.513    0.289    0.446   86.523
  282.750    7.517    0.268    0.453   89.015
  283.000    7.667    0.241    0.451   87.787
  283.250    7.969    0.229    0.446   85.942
  283.500    8.444    0.248    0.440   86.573
  283.750    8.612    0.267    0.420   89.063
  284.000    8.618    0.274    0.408   87.835
  284.250    8.787    0.280    0.413   87.233
  284.500    8.631    0.284    0.420   87.241
  284.750    8.477    0.286    0.428   87.876
  285.000    8.329    0.288    0.455   86.649
  285.250    8.178    0.294    0.467   85.417
  285.500    8.030    0.299    0.481   79.231
  285.750    7.742    0.302    0.490   79.245
  286.000    7.459    0.306    0.515   80.496
  286.250    7.189    0.310    0.520   80.508
  286.500    6.930    0.307    0.515   78.662
  286.750    6.681    0.305    0.526   81.775
  287.000    6.437    0.311    0.519   83.644
  287.250    6.320    0.314    0.503   83.657
  287.500    6.093    0.276    0.471   88.628
  287.750    5.655    0.249    0.442   93.602
  288.000    5.448    0.237    0.469   95.472
  288.250    4.963    0.229    0.499   97.345
  288.500    4.605    0.233    0.499   99.218
  288.750    4.038    0.237    0.469   98.611
  289.000    3.223    0.240    0.469   97.380
  289.250    2.935    0.245    0.470   96.154
  289.500    2.993    0.258    0.476   96.165
  289.750    3.485    0.263    0.481   98.660
  290.000    4.213    0.259    0.486   98.670
  290.250    4.632    0.266    0.489   95.584
  290.500    5.599    0.299    0.489   91.876
  290.750    6.897    0.318    0.489   84.450
  291.000    8.029    0.339    0.492   80.125
  291.250    8.036    0.351    0.501   78.901
  291.500    7.600    0.350    0.508   77.671
  291.750    7.054    0.342    0.471   77.064
  292.000    6.424    0.332    0.464   78.313
  292.250    5.961    0.337    0.492   85.148
  292.500    5.430    0.407    0.519   88.881
  292.750    5.233    0.425    0.523   90.127
  293.000    5.238    0.418    0.514   90.140
  293.250    5.442    0.362    0.511   88.914
  293.500    6.457    0.320    0.475   88.305
  293.750    7.375    0.172    0.439   80.880
  294.000    7.665    0.124    0.417   74.693
  294.250    7.671    0.118    0.408   68.507
  294.500    7.534    0.224    0.434   85.875
  294.750    7.398    0.306    0.482   78.451
  295.000    7.268    0.324    0.507   74.124
  295.250    7.138    0.330    0.471   74.136
  295.500    7.011    0.325    0.459   79.108
  295.750    6.884    0.305    0.459   82.838
  296.000    6.635    0.287    0.455   85.952
  296.250    6.641    0.256    0.464   88.446
  296.500    6.525    0.234    0.461   90.318
  296.750    6.655    0.240    0.451   91.566
  297.000    6.660    0.235    0.444   95.919
  297.250    6.793    0.222    0.454   97.790
  297.500    6.798    0.219    0.441   95.326
  297.750    6.932    0.229    0.436   92.856
  298.000    6.937    0.235    0.445   91.011
  298.250    6.944    0.232    0.450   92.260
  298.500    6.821    0.235    0.451   93.514
  298.750    6.826    0.233    0.460   93.526
  299.000    6.832    0.230    0.478   92.297
  299.250    6.967    0.235    0.479   90.449
  299.500    6.973    0.228    0.466   89.846
  299.750    6.978    0.233    0.460   88.615
  300.000    7.117    0.242    0.463   85.530
  300.250    7.124    0.252    0.471   81.204
  300.500    7.266    0.242    0.466   79.354
  300.750    7.272    0.248    0.457   84.327
  301.000    7.280    0.270    0.445   86.197
  301.250    7.148    0.291    0.440   83.736
  301.500    6.889    0.306    0.434   83.743
  301.750    6.514    0.290    0.431   84.999
  302.000    5.714    0.271    0.434   85.008
  302.250    5.106    0.247    0.458   85.641
  302.500    4.563    0.249    0.443   86.891
  302.750    4.235    0.264    0.447   87.525
  303.000    3.445    0.276    0.474   88.777
  303.250    3.078    0.275    0.512   88.791
  303.500    2.649    0.293    0.551   86.321
  303.750    2.413    0.329    0.578   83.239
  304.000    2.325    0.353    0.549   82.632
  304.250    2.241    0.336    0.526   83.259
  304.500    2.201    0.334    0.503   84.510
  304.750    2.246    0.341    0.489   83.905
  305.000    2.290    0.329    0.489   82.060
  305.250    2.336    0.324    0.487   81.450
  305.500    2.338    0.321    0.507   82.084
  305.750    2.384    0.316    0.517   83.958
  306.000    2.525    0.305    0.513   86.447
  306.250    2.674    0.288    0.516   90.178
  306.500    2.833    0.288    0.528   92.053
  306.750    3.116    0.293    0.515   91.440
  307.000    3.299    0.274    0.509   90.837
  307.250    3.698    0.247    0.498   92.092
  307.500    4.224    0.238    0.493   93.341
  307.750    4.735    0.235    0.486   94.589
  308.000    5.308    0.228    0.474   95.222
  308.250    5.515    0.212    0.440   92.754
  308.500    5.842    0.203    0.426   90.908
  308.750    5.847    0.203    0.413   90.300
  309.000    5.426    0.219    0.419   92.177
  309.250    5.035    0.232    0.478   95.286
  309.500    4.501    0.263    0.537   99.018
  309.750    4.337    0.269    0.537  102.748
  310.000    4.260    0.272    0.523  105.858
  310.250    4.183    0.263    0.515   97.812
  310.500    4.033    0.250    0.508   92.246
  310.750    3.962    0.246    0.507   92.259
  311.000    3.891    0.243    0.494   97.232
  311.250    3.821    0.237    0.481   98.482
  311.500    3.754    0.231    0.449   99.734
  311.750    3.686    0.226    0.442  100.987
  312.000    3.620    0.222    0.461   96.661
  312.250    3.488    0.225    0.497   97.913
  312.500    3.425    0.232    0.509  100.405
  312.750    3.429    0.235    0.479  102.898
  313.000    3.431    0.236    0.466  104.147
  313.250    3.566    0.247    0.487  101.063
  313.500    3.849    0.251    0.526   98.593
  313.750    4.155    0.263    0.538   98.607
  314.000    4.483    0.266    0.516   98.620
  314.250    5.122    0.254    0.507   97.390
  314.500    5.742    0.236    0.494   92.446
  314.750    6.196    0.222    0.469   90.597
  315.000    6.944    0.216    0.440   87.510
  315.250    7.784    0.216    0.435   83.804
  315.500    8.726    0.217    0.422   81.338
  315.750    9.240    0.217    0.409   81.970
  316.000    9.790    0.222    0.395   80.742
  316.250    9.983    0.165    0.381   75.177
  316.500    9.620    0.120    0.368   67.749
  316.750    9.274    0.163    0.342   65.284
  317.000    8.448    0.211    0.329   72.117
  317.250    8.139    0.270    0.328   77.088
  317.500    7.413    0.262    0.379   80.816
  317.750    6.880    0.267    0.396   80.211
  318.000    6.505    0.275    0.406   80.843
  318.250    5.815    0.281    0.412   82.093
  318.500    5.198    0.264    0.427   77.771
  318.750    5.007    0.248    0.434   78.400
  319.000    4.561    0.248    0.443   82.135
  319.250    4.314    0.268    0.449   82.141
  319.500    4.237    0.283    0.458   71.618
  319.750    4.321    0.294    0.450   62.331
  320.000    4.245    0.299    0.423   54.906
  320.250    4.168    0.297    0.411   59.882
  320.500    4.018    0.286    0.411   62.988
  320.750    3.945    0.281    0.426   78.502
  321.000    4.178    0.277    0.448   85.947
  321.250    4.864    0.284    0.413  100.218
  321.500    6.584    0.299    0.360   84.113
  321.750    9.081    0.330    0.289   68.629
  322.000   10.771    0.353    0.244   57.485
  322.250   12.537    0.364    0.217   52.538
  322.500   13.789    0.360    0.209   55.651
  322.750   13.544    0.350    0.232   58.764
  323.000   12.338    0.334    0.258   58.773
  323.250   11.668    0.321    0.285   56.308
  323.500   11.457    0.300    0.312   55.706
  323.750   11.687    0.310    0.344   55.093
