~VERSION INFORMATION
 VERS.                 2.0:   CWLS LOG ASCII STANDARD -VERSION 2.0
 WRAP.                  NO:   ONE LINE PER DEPTH STEP
~WELL INFORMATION BLOCK
#MNEM.UNIT           DATA                    DESCRIPTION OF MNEMONIC
#---------    -------------------            -------------------------------
# Generated from Intellog Unique Number	CS_77_79/WELL/896
WELL.         CANADIAN WORLDWIDE ENERGY      : Well_name    - WELL
LOC .         00/07-13-077-06W4/0            : Location     - LOCATION
UWI .         00/07-13-077-06W4/0            : Uwi          - UNIQUE WELL ID
ENTR.         SP                             : Entered      - ENTERED BY
SRVC.         SCHLUMBERGER                   : Scn          - SERVICE COMPANY
STRT.M        150                            : top_depth    - START DEPTH
STOP.M        390                            : bot_depth    - STOP DEPTH
STEP.M        0.25                           : increment    - STEP LENGTH
 NULL. -999.2500:NULL Value
~CURVE INFORMATION BLOCK
#MNEM UNIT       ERCB CURVE CODE    CURVE DESCRIPTION
#-----------   ------------------   ----------------------------------
DEPT.M        00 001 00 00         : DEPTH        - DEPTH
ILD .OHMM     00 120 00 00         : RESD         - DEEP RESISTIVITY (DIL)
DPHI.V/V      00 890 00 00         : PHID         - DENSITY POROSITY (LIMESTONE)
NPHI.V/V      00 330 00 00         : PHIN         - NEUTRON POROSITY (LIMESTONE)
GR  .API      00 310 00 00         : GR           - GAMMA RAY
~PARAMETER INFORMATION
#MNEM.UNIT           DATA             DESCRIPTION OF MNEMONIC
#---------         -----------     ------------------------------
GL  .M        563.3                : gl           - GROUND LEVEL ELEVATION
EREF.M        566.3                : kb           - ELEVATION OF DEPTH REFERENCE
DATM.M        563.3                : datum        - DATUM ELEVATION
TDD .M        395                  : tdd          - TOTAL DEPTH DRILLER
RUN .         ONE                  : Run          - RUN NUMBER
ENG .         BILL                 : Engineer     - RECORDING ENGINEER
WIT .         JIM                  : Witness      - WITNESSED BY
MUD .         GEL                  : Mud_type     - MUD TYPE
MATR.         LIMESTONE            : Logunit      - NEUTRON MATRIX
TMAX.C        23                   : BHT          - MAXIMUM RECORDED TEMPERATURE
BHTD.M        395                  : BHTDEP       - MAXIMUM RECORDED TEMPERATURE
MATR.         1                    : LOGUNIT      - NEUTRON MATRIX
RMT .C        25                   : MDTP         - TEMPERATURE OF MUD
NEUT.         1                    : NEUTRON      - NEUTRON TYPE
RESI.         0                    : RESIST       - RESISTIVITY TYPE
RMC .OHMM     0.25                 : RMC          - RESISTIVITY OF MUD CAKE
RMF .OHMM     0.25                 : RMF          - RESISTIVITY OF MUD FILTRATE
SUFT.C        15                   : SUFT         - SURFACE TEMPERATURE
~A  DEPTH     RESD     PHID     PHIN       GR
# ...
  237.000    8.074    0.242    0.395   96.669
  237.250    8.234    0.245    0.406   97.298
  237.500    8.560    0.240    0.423   97.934
  237.750    8.732    0.230    0.421   99.810
  238.000    8.740    0.230    0.414  100.437
  238.250    8.106    0.240    0.405  101.690
  238.500    8.114    0.243    0.410  101.079
  238.750    8.119    0.230    0.404   99.852
  239.000    7.978    0.220    0.391   95.526
  239.250    7.833    0.207    0.384   94.922
  239.500    7.411    0.209    0.380   96.169
  239.750    7.007    0.208    0.385   98.662
  240.000    6.626    0.204    0.377   99.294
  240.250    6.034    0.212    0.375  102.406
  240.500    5.495    0.230    0.418  103.039
  240.750    5.005    0.241    0.440  100.573
  241.000    4.645    0.244    0.472  100.584
  241.250    4.310    0.247    0.483  106.177
  241.500    4.076    0.253    0.494  109.285
  241.750    4.319    0.265    0.499  109.918
  242.000    4.749    0.276    0.502  100.632
  242.250    5.528    0.289    0.493   85.150
  242.500    6.683    0.316    0.477   78.342
  242.750    7.212    0.304    0.471   77.738
  243.000    7.218    0.289    0.465   82.709
  243.250    6.452    0.261    0.457   87.060
  243.500    5.987    0.254    0.456   92.650
  243.750    5.556    0.258    0.472   93.901
  244.000    5.256    0.257    0.487   94.532
  244.250    5.067    0.268    0.499   94.547
  244.500    4.975    0.277    0.504   93.941
  244.750    4.978    0.281    0.498   95.193
  245.000    4.800    0.278    0.484   96.443
  245.250    4.803    0.272    0.465   97.079
  245.500    4.807    0.272    0.461   97.090
  245.750    4.902    0.280    0.460   94.002
  246.000    4.999    0.294    0.455   95.253
  246.250    5.399    0.314    0.456   95.884
  246.500    5.717    0.329    0.466   89.698
  246.750    6.409    0.332    0.478   79.793
  247.000    6.785    0.334    0.464   72.367
  247.250    7.749    0.344    0.452   66.801
  247.500    9.546    0.355    0.456   65.575
  247.750   11.539    0.355    0.452   63.727
  248.000   15.042    0.345    0.442   60.639
  248.250   16.863    0.346    0.435   62.515
  248.500   17.520    0.345    0.431   63.763
  248.750   18.211    0.343    0.430   67.497
  249.000   17.890    0.339    0.427   64.412
  249.250   17.900    0.336    0.425   63.800
  249.500   18.610    0.336    0.425   63.193
  249.750   18.977    0.341    0.427   63.830
  250.000   19.728    0.339    0.432   64.464
  250.250   20.117    0.334    0.438   64.472
  250.500   20.913    0.326    0.433   64.484
  250.750   21.325    0.326    0.424   65.114
  251.000   21.756    0.329    0.415   67.608
  251.250   21.768    0.330    0.414   66.382
  251.500   22.203    0.332    0.427   64.531
  251.750   22.220    0.341    0.436   61.447
  252.000   21.820    0.340    0.443   60.216
  252.250   21.432    0.330    0.450   60.852
  252.500   21.457    0.334    0.448   62.102
  252.750   21.468    0.335    0.439   62.114
  253.000   22.314    0.329    0.423   59.026
  253.250   23.194    0.318    0.421   62.760
  253.500   24.563    0.309    0.431   65.873
  253.750   25.532    0.282    0.418   61.545
  254.000   26.036    0.214    0.316   56.596
  254.250   26.559    0.124    0.285   51.031
  254.500   25.593    0.069    0.267   52.286
  254.750   23.752    0.160    0.262   55.395
  255.000   22.465    0.240    0.303   60.367
  255.250   21.652    0.324    0.368   64.720
  255.500   20.873    0.338    0.432   65.351
  255.750   20.885    0.342    0.412   64.745
  256.000   20.523    0.338    0.400   64.759
  256.250   20.538    0.333    0.414   64.772
  256.500   20.553    0.328    0.449   64.779
  256.750   20.569    0.331    0.445   62.935
  257.000   20.583    0.328    0.433   62.326
  257.250   21.001    0.325    0.429   62.959
  257.500   21.012    0.320    0.423   63.592
  257.750   21.035    0.323    0.417   64.226
  258.000   21.047    0.323    0.417   64.237
  258.250   21.071    0.318    0.438   64.249
  258.500   20.690    0.326    0.446   64.879
  258.750   20.709    0.337    0.454   65.514
  259.000   20.341    0.344    0.461   65.522
  259.250   19.970    0.338    0.456   65.536
  259.500   19.255    0.330    0.440   68.648
  259.750   18.908    0.328    0.429   66.184
  260.000   18.569    0.326    0.415   66.195
  260.250   18.234    0.328    0.405   68.064
  260.500   17.917    0.341    0.413   69.316
  260.750   17.592    0.350    0.413   70.573
  261.000   17.603    0.350    0.414   69.962
  261.250   17.288    0.346    0.424   68.735
  261.500   16.987    0.344    0.472   69.990
  261.750   16.998    0.341    0.494   70.621
  262.000   17.014    0.343    0.486   70.629
  262.250   17.024    0.346    0.453   70.642
  262.500   17.367    0.347    0.440   70.034
  262.750   17.716    0.350    0.419   66.329
  263.000   18.065    0.333    0.411   63.862
  263.250   18.429    0.314    0.392   62.015
  263.500   18.439    0.260    0.382   64.507
  263.750   18.452    0.275    0.389   67.621
  264.000   18.124    0.303    0.415   68.869
  264.250   17.801    0.339    0.459   70.743
  264.500   17.486    0.352    0.494   71.373
  264.750   17.168    0.361    0.480   72.006
  265.000   16.863    0.358    0.466   71.400
  265.250   16.255    0.358    0.464   67.695
  265.500   15.967    0.362    0.468   65.845
  265.750   15.975    0.352    0.471   64.617
  266.000   15.108    0.347    0.479   64.632
  266.250   14.025    0.345    0.472   65.882
  266.500   12.772    0.359    0.468   67.754
  266.750   11.852    0.365    0.472   67.766
  267.000   10.592    0.368    0.464   67.778
  267.250    9.289    0.351    0.450   73.371
  267.500    8.301    0.335    0.450   80.821
  267.750    7.143    0.297    0.472   90.130
  268.000    5.922    0.256    0.507   95.721
  268.250    5.494    0.242    0.504   99.454
  268.500    4.911    0.233    0.492  100.705
  268.750    4.557    0.239    0.501   97.618
  269.000    3.997    0.246    0.521   94.531
  269.250    3.640    0.266    0.520   97.022
  269.500    3.133    0.274    0.500  100.760
  269.750    2.907    0.279    0.546  102.628
  270.000    2.698    0.286    0.585  103.882
  270.250    2.552    0.291    0.609  103.893
  270.500    2.506    0.280    0.623  102.665
  270.750    2.556    0.268    0.593  101.440
  271.000    2.759    0.259    0.586  100.213
  271.250    2.978    0.256    0.578  100.221
  271.500    3.338    0.261    0.524  102.714
  271.750    3.886    0.270    0.517  103.966
  272.000    4.193    0.280    0.513  103.360
  272.250    4.975    0.286    0.492  101.517
  272.500    5.575    0.270    0.474  100.284
  272.750    6.131    0.251    0.472   97.816
  273.000    7.412    0.244    0.464   94.733
  273.250    8.308    0.255    0.462   91.642
  273.500    8.966    0.259    0.462   84.836
  273.750    9.678    0.260    0.448   78.030
  274.000   10.057    0.275    0.416   73.085
  274.250    9.693    0.293    0.410   74.341
  274.500    9.342    0.300    0.414   76.213
  274.750    9.531    0.289    0.424   76.840
  275.000    9.905    0.287    0.434   78.092
  275.250   10.490    0.288    0.431   76.865
  275.500   11.111    0.287    0.414   73.158
  275.750   11.771    0.279    0.406   71.310
  276.000   12.463    0.271    0.403   68.846
  276.250   13.972    0.253    0.390   66.377
  276.500   15.959    0.217    0.275   63.912
  276.750   17.883    0.040    0.227   62.063
  277.000   19.669    0.000    0.202   59.596
  277.250   20.060    0.000    0.194   61.468
  277.500   17.266    0.001    0.205   64.580
  277.750   15.428    0.099    0.253   67.070
  278.000   13.531    0.181    0.289   71.421
  278.250   11.869    0.249    0.340   77.634
  278.500   11.016    0.271    0.430   79.504
  278.750   10.818    0.294    0.449   78.900
  279.000   10.829    0.308    0.443   78.290
  279.250   10.636    0.309    0.427   80.167
  279.500   10.447    0.315    0.448   81.414
  279.750    8.987    0.319    0.463   82.669
  280.000    8.995    0.315    0.454   82.679
  280.250    8.835    0.305    0.440   82.696
