~VERSION INFORMATION
 VERS.                 2.0:   CWLS LOG ASCII STANDARD -VERSION 2.0
 WRAP.                  NO:   ONE LINE PER DEPTH STEP
~WELL INFORMATION BLOCK
#MNEM.UNIT           DATA                    DESCRIPTION OF MNEMONIC
#---------    -------------------            -------------------------------
# Generated from Intellog Unique Number	CW_73_75/WELL/694
WELL.         HB  MARTEN HILLS 07-11         : Well_name    - WELL
LOC .         00/07-11-074-01W5/0            : Location     - LOCATION
UWI .         00/07-11-074-01W5/0            : Uwi          - UNIQUE WELL ID
ENTR.         JAYE                           : Entered      - ENTERED BY
SRVC.         SCHLUMBERGER                   : Scn          - SERVICE COMPANY
DATE.         22 SEPT 73                     : Date         - LOG DATE
STRT.M        435.864                        : top_depth    - START DEPTH
STOP.M        673.614                        : bot_depth    - STOP DEPTH
STEP.M        0.25                           : increment    - STEP LENGTH
 NULL. -999.2500:NULL Value
~CURVE INFORMATION BLOCK
#MNEM UNIT       ERCB CURVE CODE    CURVE DESCRIPTION
#-----------   ------------------   ----------------------------------
DEPT.M        00 001 00 00         : DEPTH        - DEPTH
ILD .OHMM     00 120 00 00         : RESD         - DEEP RESISTIVITY (DIL)
NPHI.V/V      00 330 00 00         : PHIN         - NEUTRON POROSITY (SANDSTONE)
DPHI.V/V      00 890 00 00         : PHID         - DENSITY POROSITY (SANDSTONE)
CALI.MM       00 280 01 00         : CAL          - CALIPER
GR  .API      00 310 00 00         : GR           - GAMMA RAY
~PARAMETER INFORMATION
#MNEM.UNIT           DATA             DESCRIPTION OF MNEMONIC
#---------         -----------     ------------------------------
GL  .M        678.18               : gl           - GROUND LEVEL ELEVATION
EREF.M        681.838              : kb           - ELEVATION OF DEPTH REFERENCE
DATM.M        678.18               : datum        - DATUM ELEVATION
TDD .M        670.56               : tdd          - TOTAL DEPTH DRILLER
RUN .         ONE                  : Run          - RUN NUMBER
BASE.         EDM                  : Branch       - HOME BASE OF LOGGING UNIT
MATR.         SANDSTONE            : Logunit      - NEUTRON MATRIX
TMAX.C        30                   : BHT          - MAXIMUM RECORDED TEMPERATURE
BHTD.M        670.865              : BHTDEP       - MAXIMUM RECORDED TEMPERATURE
RMT .C        -17.7778             : MDTP         - TEMPERATURE OF MUD
MUDD.KG/M     0                    : MWT          - MUD DENSITY
NEUT.         1                    : NEUTRON      - NEUTRON TYPE
RESI.         0                    : RESIST       - RESISTIVITY TYPE
RM  .OHMM     0                    : RM           - RESISTIVITY OF MUD
RMC .OHMM     0                    : RMC          - RESISTIVITY OF MUD CAKE
RMF .OHMM     0                    : RMF          - RESISTIVITY OF MUD FILTRATE
SUFT.C        -17.7778             : SUFT         - SURFACE TEMPERATURE
~A  DEPTH     RESD     PHIN     PHID      CAL       GR
# ...
  472.364    3.390    0.494    0.295  199.602   79.347
  472.614    3.403    0.483    0.280  199.626   83.639
  472.864    3.421    0.494    0.275  199.752   85.854
  473.114    3.446    0.481    0.286  200.093   82.327
  473.364    3.472    0.487    0.266  200.120   79.104
  473.614    3.523    0.510    0.270  200.040   82.908
  473.864    3.634    0.532    0.241  200.175   83.963
  474.114    3.736    0.567    0.246  199.788   79.457
  474.364    3.826    0.593    0.263  199.397   71.102
  474.614    3.903    0.569    0.260  199.424   65.069
  474.864    4.020    0.531    0.276  199.558   59.769
  475.114    4.109    0.496    0.282  199.890   58.624
  475.364    4.147    0.467    0.271  199.712   57.909
  475.614    4.169    0.473    0.282  199.632   57.373
  475.864    4.162    0.500    0.285  199.246   57.940
  476.114    4.123    0.500    0.300  198.549   61.008
  476.364    4.048    0.504    0.286  198.573   61.392
  476.614    3.888    0.520    0.267  199.532   61.163
  476.864    3.740    0.495    0.285  200.905   62.890
  477.114    3.592    0.513    0.288  201.350   65.656
  477.364    3.356    0.541    0.272  201.269   68.114
  477.614    3.056    0.577    0.253  200.983   72.101
  477.864    2.865    0.609    0.235  200.802   75.966
  478.114    2.657    0.636    0.224  200.725   77.753
  478.364    2.510    0.587    0.242  200.757   69.338
  478.614    2.429    0.553    0.271  200.677   61.839
  478.864    2.464    0.575    0.289  200.190   59.778
  479.114    2.542    0.558    0.301  199.594   58.816
  479.364    2.662    0.544    0.296  199.519   58.404
  479.614    2.776    0.536    0.302  199.645   60.191
  479.864    2.923    0.563    0.303  199.678   63.262
  480.114    3.032    0.602    0.313  199.807   65.845
  480.364    3.065    0.590    0.324  199.827   66.898
  480.614    3.060    0.588    0.305  200.171   67.281
  480.864    2.976    0.613    0.296  200.613   69.129
  481.114    2.853    0.635    0.273  200.844   72.934
  481.364    2.700    0.644    0.265  200.970   73.193
  481.614    2.527    0.609    0.258  201.413   71.865
  481.864    2.370    0.600    0.276  201.854   71.025
  482.114    2.230    0.618    0.280  201.778   76.783
  482.364    2.174    0.586    0.289  201.596   75.395
  482.614    2.206    0.569    0.300  201.003   71.989
  482.864    2.395    0.546    0.303  200.410   64.856
  483.114    2.655    0.553    0.311  200.226   64.385
  483.364    3.008    0.531    0.309  200.050   64.217
  483.614    3.315    0.498    0.286  200.071   65.270
  483.864    3.407    0.509    0.251  199.998   69.135
  484.114    3.260    0.534    0.238  199.820   77.215
  484.364    3.207    0.576    0.229  199.737   79.859
  484.614    3.183    0.604    0.267  199.456   75.597
  484.864    3.218    0.588    0.288  199.273   72.558
  485.114    3.194    0.572    0.269  199.202   78.317
  485.364    3.188    0.531    0.255  199.327   77.539
  485.614    3.200    0.511    0.242  199.458   73.827
  485.864    3.247    0.516    0.263  199.283   69.262
  486.114    3.277    0.533    0.281  199.202   69.276
  486.364    3.307    0.555    0.293  199.023   72.836
  486.614    3.331    0.546    0.280  198.739   78.961
  486.864    3.368    0.571    0.268  198.661   78.672
  487.114    3.462    0.564    0.261  198.997   77.222
  487.364    3.487    0.581    0.262  199.438   74.306
  487.614    3.493    0.738    0.299  199.775   72.670
  487.864    3.423    0.818    0.414  199.904   63.949
  488.114    3.392    0.814    0.578  200.241   52.906
  488.364    3.577    0.785    0.549  200.479   46.995
  488.614    3.814    0.692    0.487  200.609   77.011
  488.864    4.322    0.506    0.237  200.531   82.647
  489.114    5.005    0.507    0.227  200.666   91.400
  489.364    5.660    0.498    0.211  200.688   86.650
  489.614    5.182    0.507    0.218  200.712   85.628
  489.864    4.797    0.529    0.236  200.744   85.337
  490.114    4.607    0.558    0.246  200.871   84.377
  490.364    4.498    0.592    0.256  201.418   82.497
  490.614    4.735    0.607    0.269  201.648   78.114
  490.864    5.326    0.588    0.278  201.675   78.679
  491.114    5.880    0.570    0.275  201.701   81.385
  491.364    6.529    0.561    0.269  201.313   82.316
  491.614    6.975    0.563    0.266  201.444   81.048
  491.864    7.249    0.571    0.259  201.678   80.759
  492.114    6.910    0.572    0.250  201.497   81.874
  492.364    6.612    0.573    0.248  201.423   80.547
  492.614    6.385    0.598    0.263  201.038   77.568
  492.864    6.076    0.603    0.290  200.958   75.814
  493.114    5.835    0.586    0.293  200.778   74.972
  493.364    5.718    0.559    0.285  200.389   72.055
  493.614    5.802    0.579    0.285  199.899   71.826
  493.864    5.910    0.594    0.282  198.993   70.560
  494.114    6.063    0.565    0.272  198.195   70.698
  494.364    6.232    0.539    0.257  197.601   72.669
  494.614    6.394    0.543    0.256  197.321   75.311
  494.864    6.500    0.531    0.259  197.135   77.955
  495.114    6.608    0.531    0.268  197.064   77.909
  495.364    6.584    0.534    0.281  197.085   71.998
  495.614    6.705    0.538    0.279  197.012   66.637
  495.864    7.072    0.531    0.278  196.726   67.753
  496.114    7.837    0.550    0.268  196.441   68.993
  496.364    8.419    0.567    0.273  196.367   68.823
  496.614    9.127    0.589    0.292  196.600   67.375
  496.864    9.822    0.610    0.293  197.146   66.288
  497.114   10.667    0.599    0.292  197.171   65.450
  497.364   11.374    0.580    0.304  197.300   64.914
  497.614   11.756    0.551    0.296  197.531   64.625
  497.864   10.764    0.519    0.306  197.560   64.885
  498.114    9.765    0.525    0.303  197.687   63.375
  498.364    8.462    0.534    0.285  197.714   62.657
  498.614    7.482    0.556    0.289  197.436   63.405
  498.864    6.471    0.569    0.286  197.355   65.744
  499.114    5.753    0.549    0.266  197.382   68.753
  499.364    5.013    0.510    0.254  196.998   72.251
  499.614    4.607    0.516    0.256  196.709   75.871
  499.864    4.368    0.533    0.252  197.047   79.370
  500.114    4.296    0.520    0.247  197.077   80.424
  500.364    4.296    0.538    0.237  197.414   81.969
  500.614    4.256    0.554    0.240  197.547   82.777
  500.864    4.232    0.523    0.228  197.882   81.083
  501.114    4.178    0.505    0.214  197.907   79.510
  501.364    4.147    0.479    0.221  197.931   78.793
  501.614    4.132    0.465    0.225  197.648   77.953
  501.864    4.117    0.508    0.233  197.053   76.380
  502.114    4.094    0.535    0.256  196.568   74.013
  502.364    4.079    0.506    0.266  195.970   66.941
  502.614    4.063    0.487    0.261  195.168   65.306
  502.864    4.041    0.470    0.271  194.884   65.995
  503.114    3.996    0.470    0.272  194.705   62.468
  503.364    3.938    0.477    0.259  194.734   59.675
  503.614    3.952    0.468    0.239  195.171   58.649
  503.864    4.011    0.363    0.215  196.749   57.993
  504.114    4.115    0.310    0.151  200.604   56.482
  504.364    4.502    0.322    0.134  200.631   54.054
  504.614    5.379    0.335    0.126  200.141   53.030
  504.864    6.381    0.281    0.103  199.859   52.373
  505.114    7.513    0.263    0.101  199.684   52.636
  505.364    8.928    0.279    0.105  199.393   53.505
  505.614   10.786    0.298    0.139  199.428   55.293
  505.864    9.858    0.379    0.170  199.450   57.446
  506.114    8.402    0.404    0.201  199.474   60.578
  506.364    7.096    0.458    0.221  199.710   63.833
  506.614    6.081    0.512    0.224  199.528   67.088
  506.864    5.240    0.518    0.209  199.557   72.846
  507.114    4.533    0.500    0.226  199.579   80.865
  507.364    4.059    0.481    0.229  201.158   84.180
  507.614    3.906    0.461    0.195  203.051   85.662
  507.864    3.891    0.466    0.172  203.907   89.772
  508.114    3.970    0.497    0.153  204.034   90.093
  508.364    4.157    0.517    0.137  204.579   89.132
  508.614    4.490    0.525    0.155  204.915   88.230
