~VERSION INFORMATION
 VERS.                 2.0:   CWLS LOG ASCII STANDARD -VERSION 2.0
 WRAP.                  NO:   ONE LINE PER DEPTH STEP
~WELL INFORMATION BLOCK
#MNEM.UNIT           DATA                    DESCRIPTION OF MNEMONIC
#---------    -------------------            -------------------------------
# Generated from Intellog Unique Number	CX_WELLS/WELL/3079
WELL.         BOW NEWPORT HOUSE              : Well_name    - WELL
LOC .         00/06-25-082-15W4/0            : Location     - LOCATION
UWI .         00/06-25-082-15W400            : Uwi          - UNIQUE WELL ID
ENTR.         TIM                            : Entered      - ENTERED BY
SRVC.         SCHLUMBERGER                   : Scn          - SERVICE COMPANY
DATE.         03/04/92                       : Date         - LOG DATE
STRT.M        140                            : top_depth    - START DEPTH
STOP.M        325                            : bot_depth    - STOP DEPTH
STEP.M        0.25                           : increment    - STEP LENGTH
 NULL. -999.2500:NULL Value
~CURVE INFORMATION BLOCK
#MNEM UNIT       ERCB CURVE CODE    CURVE DESCRIPTION
#-----------   ------------------   ----------------------------------
DEPT.M        00 001 00 00         : DEPTH        - DEPTH
GR  .API      00 310 00 00         : GR           - GAMMA RAY
NPHI.V/V      00 330 00 00         : PHIN         - NEUTRON POROSITY (SANDSTONE)
DPHI.V/V      00 890 00 00         : PHID         - DENSITY POROSITY (SANDSTONE)
ILD .OHMM     00 120 00 00         : RESD         - DEEP RESISTIVITY (OTHER)
~PARAMETER INFORMATION
#MNEM.UNIT           DATA             DESCRIPTION OF MNEMONIC
#---------         -----------     ------------------------------
GL  .M        566.8                : gl           - GROUND LEVEL ELEVATION
EREF.M        570.6                : kb           - ELEVATION OF DEPTH REFERENCE
DATM.M        570.6                : datum        - DATUM ELEVATION
TDD .M        332.7                : tdd          - TOTAL DEPTH DRILLER
RUN .         ONE                  : Run          - RUN NUMBER
ENG .         JO                   : Engineer     - RECORDING ENGINEER
WIT .         TIM                  : Witness      - WITNESSED BY
MUD .         GEL                  : Mud_type     - MUD TYPE
MATR.         SANDSTONE            : Logunit      - NEUTRON MATRIX
TMAX.C        20                   : BHT          - MAXIMUM RECORDED TEMPERATURE
BHTD.M        332                  : BHTDEP       - MAXIMUM RECORDED TEMPERATURE
RMT .C        19                   : MDTP         - TEMPERATURE OF MUD
MUDD.KG/M     1140                 : MWT          - MUD DENSITY
NEUT.         1                    : NEUTRON      - NEUTRON TYPE
RESI.         2.74                 : RESIST       - RESISTIVITY TYPE
RM  .OHMM     2.74                 : RM           - RESISTIVITY OF MUD
RMC .OHMM     2.74                 : RMC          - RESISTIVITY OF MUD CAKE
RMF .OHMM     2.74                 : RMF          - RESISTIVITY OF MUD FILTRATE
SUFT.C        4                    : SUFT         - SURFACE TEMPERATURE
~A  DEPTH       GR     PHIN     PHID     RESD
# ...
  270.500   84.621    0.423    0.201    9.641
  270.750   86.454    0.428    0.196    9.832
  271.000   87.727    0.428    0.208    9.843
  271.250   88.363    0.432    0.217   10.241
  271.500   88.999    0.439    0.227   10.244
  271.750   88.499    0.444    0.235   10.260
  272.000   87.954    0.444    0.239   10.275
  272.250   86.863    0.438    0.242   10.486
  272.500   86.318    0.436    0.239   10.694
  272.750   85.803    0.433    0.228   10.718
  273.000   85.834    0.436    0.216   10.530
  273.250   85.909    0.440    0.211   10.356
  273.500   85.379    0.449    0.207   10.181
  273.750   81.290    0.454    0.207   10.005
  274.000   77.215    0.455    0.216   10.020
  274.250   78.457    0.451    0.232   10.035
  274.500   79.714    0.450    0.230   10.242
  274.750   80.941    0.451    0.209   10.253
  275.000   81.623    0.451    0.205   10.084
  275.250   81.668    0.448    0.205    9.910
  275.500   81.744    0.448    0.215    9.564
  275.750   81.805    0.450    0.249    9.064
  276.000   81.835    0.455    0.262    8.429
  276.250   83.698    0.456    0.273    7.839
  276.500   84.319    0.462    0.273    7.028
  276.750   85.576    0.472    0.247    6.299
  277.000   86.213    0.472    0.258    5.965
  277.250   87.470    0.472    0.252    5.348
  277.500   88.712    0.479    0.245    5.159
  277.750   90.560    0.484    0.242    4.979
  278.000   91.787    0.490    0.237    4.897
  278.250   94.225    0.493    0.227    4.902
  278.500   96.649    0.495    0.222    5.287
  278.750   97.891    0.492    0.214    5.806
  279.000   99.148    0.477    0.203    6.743
  279.250   99.769    0.469    0.196    7.981
  279.500   99.845    0.466    0.186    9.098
  279.750   98.739    0.459    0.176    9.996
  280.000   97.012    0.447    0.192   10.014
  280.250   92.938    0.436    0.187    9.845
  280.500   89.454    0.420    0.156    9.860
  280.750   87.137    0.399    0.167    9.875
  281.000   84.259    0.401    0.218    9.889
  281.250   86.092    0.418    0.218    9.904
  281.500   87.909    0.424    0.216    9.741
  281.750   90.333    0.425    0.209    9.748
  282.000   91.590    0.426    0.194    9.587
  282.250   92.241    0.426    0.178    9.601
  282.500   91.136    0.421    0.161    9.791
  282.750   89.984    0.416    0.156    9.806
  283.000   89.485    0.416    0.161   10.199
  283.250   90.136    0.419    0.166   10.206
  283.500   92.560    0.422    0.165   10.222
  283.750   93.787    0.429    0.163    9.865
  284.000   95.619    0.432    0.157    8.841
  284.250   98.073    0.425    0.146    7.222
  284.500   99.285    0.420    0.149    6.125
  284.750   99.936    0.415    0.176    4.476
  285.000  101.193    0.410    0.181    4.322
  285.250  101.830    0.409    0.187    4.171
  285.500   99.542    0.415    0.195    3.880
  285.750   96.634    0.421    0.203    3.742
  286.000   93.166    0.449    0.213    3.747
  286.250   89.091    0.456    0.229    4.117
  286.500   84.411    0.461    0.237    5.055
  286.750   75.611    0.454    0.235    5.982
  287.000   68.567    0.445    0.232    7.764
  287.250   64.493    0.439    0.230    8.223
  287.500   59.237    0.435    0.226    8.081
  287.750   59.312    0.432    0.213    7.112
  288.000   62.917    0.431    0.205    6.490
  288.250   67.113    0.430    0.200    5.923
  288.500   68.946    0.433    0.203    5.308
  288.750   71.960    0.440    0.228    5.125
  289.000   77.928    0.448    0.234    5.036
  289.250   83.320    0.458    0.242    4.862
  289.500   83.972    0.472    0.242    4.869
  289.750   86.986    0.479    0.236    4.968
  290.000   90.606    0.478    0.229    5.072
  290.250   91.257    0.471    0.228    5.078
  290.500   91.318    0.468    0.223    5.087
  290.750   90.212    0.461    0.218    4.999
  291.000   90.243    0.448    0.212    4.825
  291.250   90.303    0.444    0.203    4.656
  291.500   92.757    0.446    0.199    4.494
  291.750   93.378    0.451    0.198    4.416
  292.000   95.226    0.455    0.194    4.342
  292.250   96.483    0.463    0.191    4.350
  292.500   97.135    0.465    0.181    4.355
  292.750   97.210    0.469    0.172    4.363
  293.000   97.847    0.470    0.165    4.451
  293.250   99.104    0.469    0.162    4.541
  293.500   99.725    0.465    0.175    4.633
  293.750  101.573    0.459    0.190    4.996
  294.000  102.224    0.454    0.203    5.386
  294.250  102.860    0.451    0.214    6.028
  294.500  102.921    0.447    0.220    7.131
  294.750  101.209    0.441    0.203   10.161
  295.000   96.544    0.429    0.187   10.954
  295.250   89.516    0.407    0.193   13.956
  295.500   81.291    0.410    0.235   21.804
  295.750   68.356    0.421    0.246   21.845
  296.000   64.887    0.433    0.258   20.688
  296.250   64.963    0.436    0.260   18.894
  296.500   63.812    0.423    0.265   18.582
  296.750   61.510    0.416    0.272   18.943
  297.000   56.254    0.420    0.281   19.687
  297.250   54.542    0.422    0.290   20.850
  297.500   54.618    0.421    0.293   22.065
  297.750   53.512    0.418    0.288   23.360
  298.000   52.361    0.416    0.281   25.665
  298.250   50.059    0.414    0.276   23.430
  298.500   50.135    0.411    0.273   18.797
  298.750   50.180    0.409    0.273   14.260
  299.000   51.422    0.416    0.274   13.014
  299.250   53.285    0.419    0.270   11.239
  299.500   55.088    0.423    0.259    9.884
  299.750   59.874    0.429    0.217    8.858
  300.000   73.537    0.430    0.188    9.209
  300.250   83.049    0.409    0.171   10.310
  300.500   89.623    0.387    0.157   11.543
  300.750   89.683    0.391    0.172   12.216
  301.000   89.168    0.393    0.185   13.421
  301.250   88.653    0.390    0.179   14.739
  301.500   88.699    0.385    0.204   18.095
  301.750   89.350    0.390    0.226   29.338
  302.000   90.607    0.392    0.235   32.846
  302.250   91.834    0.396    0.246   31.700
  302.500   94.243    0.404    0.257   30.593
  302.750   96.696    0.414    0.250   29.514
  303.000   96.727    0.410    0.239   28.494
  303.250   83.201    0.402    0.230   27.488
  303.500   74.991    0.392    0.224   26.052
  303.750   70.311    0.384    0.214   24.237
  304.000   75.703    0.385    0.209   22.962
  304.250   78.732    0.389    0.204   22.987
  304.500   79.989    0.388    0.203   23.022
  304.750   80.050    0.382    0.192   23.487
  305.000   79.490    0.380    0.183   23.522
  305.250   78.384    0.375    0.176   24.454
  305.500   76.672    0.368    0.170   25.396
  305.750   74.946    0.359    0.158   27.399
  306.000   71.462    0.351    0.147   27.430
  306.250   67.978    0.349    0.152   26.492
  306.500   66.872    0.347    0.181   26.025
  306.750   68.115    0.351    0.192   24.656
  307.000   69.962    0.359    0.192   22.517
  307.250   71.174    0.361    0.189   22.129
  307.500   74.779    0.360    0.188   22.585
  307.750   79.566    0.362    0.188   23.463
  308.000   83.776    0.365    0.185   24.411
  308.250   80.883    0.361    0.180   23.981
  308.500   76.809    0.356    0.179   22.711
  308.750   72.734    0.349    0.176   21.516
  309.000   69.266    0.344    0.175   20.391
  309.250   67.539    0.355    0.175   19.672
  309.500   69.357    0.363    0.175   18.644
  309.750   75.930    0.370    0.174   17.339
  310.000   86.624    0.373    0.169   16.426
  310.250  100.877    0.375    0.161   15.568
  310.500  103.316    0.379    0.147   15.294
  310.750  103.392    0.381    0.153   14.760
  311.000  103.422    0.383    0.158   14.510
  311.250  103.483    0.384    0.163   14.537
  311.500  104.134    0.387    0.165   14.287
  311.750  103.604    0.388    0.159   14.313
  312.000  101.908    0.388    0.152   14.597
  312.250  100.772    0.387    0.149   14.892
  312.500   97.303    0.387    0.154   15.482
  312.750   94.425    0.387    0.159   16.698
  313.000   92.093    0.387    0.161   19.036
  313.250   88.609    0.389    0.166   20.530
  313.500   85.125    0.389    0.175   22.141
  313.750   81.656    0.388    0.190   22.605
