~VERSION INFORMATION
 VERS.                 2.0:   CWLS LOG ASCII STANDARD -VERSION 2.0
 WRAP.                  NO:   ONE LINE PER DEPTH STEP
~WELL INFORMATION BLOCK
#MNEM.UNIT           DATA                    DESCRIPTION OF MNEMONIC
#---------    -------------------            -------------------------------
# Generated from Intellog Unique Number	CW_73_75/WELL/694
WELL.         HB  MARTEN HILLS 07-11         : Well_name    - WELL
LOC .         00/07-11-074-01W5/0            : Location     - LOCATION
UWI .         00/07-11-074-01W5/0            : Uwi          - UNIQUE WELL ID
ENTR.         JAYE                           : Entered      - ENTERED BY
SRVC.         SCHLUMBERGER                   : Scn          - SERVICE COMPANY
DATE.         22 SEPT 73                     : Date         - LOG DATE
STRT.M        435.864                        : top_depth    - START DEPTH
STOP.M        673.614                        : bot_depth    - STOP DEPTH
STEP.M        0.25                           : increment    - STEP LENGTH
 NULL. -999.2500:NULL Value
~CURVE INFORMATION BLOCK
#MNEM UNIT       ERCB CURVE CODE    CURVE DESCRIPTION
#-----------   ------------------   ----------------------------------
DEPT.M        00 001 00 00         : DEPTH        - DEPTH
ILD .OHMM     00 120 00 00         : RESD         - DEEP RESISTIVITY (DIL)
NPHI.V/V      00 330 00 00         : PHIN         - NEUTRON POROSITY (SANDSTONE)
DPHI.V/V      00 890 00 00         : PHID         - DENSITY POROSITY (SANDSTONE)
CALI.MM       00 280 01 00         : CAL          - CALIPER
GR  .API      00 310 00 00         : GR           - GAMMA RAY
~PARAMETER INFORMATION
#MNEM.UNIT           DATA             DESCRIPTION OF MNEMONIC
#---------         -----------     ------------------------------
GL  .M        678.18               : gl           - GROUND LEVEL ELEVATION
EREF.M        681.838              : kb           - ELEVATION OF DEPTH REFERENCE
DATM.M        678.18               : datum        - DATUM ELEVATION
TDD .M        670.56               : tdd          - TOTAL DEPTH DRILLER
RUN .         ONE                  : Run          - RUN NUMBER
BASE.         EDM                  : Branch       - HOME BASE OF LOGGING UNIT
MATR.         SANDSTONE            : Logunit      - NEUTRON MATRIX
TMAX.C        30                   : BHT          - MAXIMUM RECORDED TEMPERATURE
BHTD.M        670.865              : BHTDEP       - MAXIMUM RECORDED TEMPERATURE
RMT .C        -17.7778             : MDTP         - TEMPERATURE OF MUD
MUDD.KG/M     0                    : MWT          - MUD DENSITY
NEUT.         1                    : NEUTRON      - NEUTRON TYPE
RESI.         0                    : RESIST       - RESISTIVITY TYPE
RM  .OHMM     0                    : RM           - RESISTIVITY OF MUD
RMC .OHMM     0                    : RMC          - RESISTIVITY OF MUD CAKE
RMF .OHMM     0                    : RMF          - RESISTIVITY OF MUD FILTRATE
SUFT.C        -17.7778             : SUFT         - SURFACE TEMPERATURE
~A  DEPTH     RESD     PHIN     PHID      CAL       GR
# ...
  581.864    6.875    0.469    0.252  196.438   63.630
  582.114    6.446    0.497    0.240  194.969   61.847
  582.364    5.955    0.500    0.277  196.079   63.111
  582.614    5.472    0.505    0.268  198.325   64.074
  582.864    5.084    0.505    0.269  199.745   64.483
  583.114    4.784    0.489    0.270  199.824   64.105
  583.364    4.396    0.491    0.263  200.006   62.748
  583.614    4.107    0.532    0.223  201.214   58.404
  583.864    3.980    0.556    0.253  202.640   58.570
  584.114    3.906    0.592    0.258  203.953   61.055
  584.364    3.905    0.592    0.230  203.515   63.968
  584.614    3.869    0.548    0.310  201.942   63.710
  584.864    3.839    0.545    0.317  201.297   64.304
  585.114    3.810    0.551    0.304  201.065   67.216
  585.364    3.789    0.543    0.317  201.350   67.504
  585.614    3.739    0.544    0.315  201.631   66.698
  585.864    3.664    0.542    0.303  202.022   67.658
  586.114    3.518    0.521    0.296  202.100   68.010
  586.364    3.422    0.518    0.287  201.554   64.946
  586.614    3.421    0.524    0.279  201.532   63.162
  586.864    3.445    0.500    0.285  201.194   63.574
  587.114    3.488    0.512    0.288  201.167   65.876
  587.364    3.545    0.505    0.266  201.353   68.117
  587.614    3.623    0.509    0.263  201.013   69.870
  587.864    3.710    0.523    0.264  200.988   71.563
  588.114    3.826    0.520    0.267  200.964   74.658
  588.364    3.946    0.510    0.239  200.834   74.338
  588.614    4.078    0.502    0.237  200.498   76.335
  588.864    4.129    0.511    0.251  200.372   78.698
  589.114    4.166    0.508    0.251  200.143   76.610
  589.364    4.196    0.533    0.238  200.011   78.484
  589.614    4.202    0.517    0.252  199.983   78.470
  589.864    4.201    0.534    0.254  200.058   78.150
  590.114    4.185    0.522    0.253  200.446   81.428
  590.364    4.168    0.515    0.245  200.732   79.217
  590.614    4.129    0.517    0.243  201.120   77.799
  590.864    4.090    0.507    0.250  201.299   78.269
  591.114    4.060    0.518    0.237  201.478   78.258
  591.364    4.126    0.539    0.236  201.866   76.840
  591.614    4.303    0.550    0.262  202.160   80.484
  591.864    4.397    0.547    0.249  203.270   85.041
  592.114    4.477    0.537    0.231  204.583   85.513
  592.364    4.493    0.516    0.230  205.384   82.512
  592.614    4.442    0.507    0.214  206.289   81.703
  592.864    4.369    0.531    0.193  207.504   86.323
  593.114    4.241    0.532    0.183  209.023   90.455
  593.364    4.102    0.525    0.199  209.518   80.316
  593.614    3.997    0.499    0.207  210.416   74.875
  593.864    3.982    0.495    0.204  210.912   70.775
  594.114    4.039    0.518    0.194  211.503   69.297
  594.364    4.159    0.543    0.188  211.791   73.610
  594.614    4.353    0.536    0.226  212.280   75.362
  594.864    4.465    0.513    0.202  212.460   75.957
  595.114    4.431    0.514    0.206  212.845   76.553
  595.364    4.317    0.530    0.208  212.514   77.209
  595.614    4.261    0.552    0.205  212.177   77.558
  595.864    4.315    0.529    0.215  212.051   77.849
  596.114    4.499    0.531    0.227  211.917   74.603
  596.364    4.658    0.522    0.228  211.893   77.270
  596.614    4.840    0.490    0.238  211.870   79.388
  596.864    5.037    0.504    0.213  211.536   76.691
  597.114    5.148    0.532    0.204  211.303   75.763
  597.364    5.194    0.533    0.193  210.966   75.623
  597.614    5.212    0.511    0.207  210.732   75.793
  597.864    5.201    0.492    0.212  210.605   75.107
  598.114    5.152    0.503    0.210  210.273   74.235
  598.364    5.104    0.519    0.219  209.934   73.430
  598.614    5.037    0.496    0.235  209.807   71.526
  598.864    4.999    0.485    0.227  209.576   71.998
  599.114    4.980    0.488    0.218  209.341   73.812
  599.364    5.107    0.478    0.214  209.110   75.504
  599.614    5.210    0.478    0.217  208.776   75.002
  599.864    5.286    0.478    0.226  208.442   74.072
  600.114    5.304    0.479    0.224  208.307   75.398
  600.364    5.274    0.490    0.210  208.182   77.152
  600.614    5.243    0.491    0.201  207.948   77.381
  600.864    5.232    0.482    0.201  208.027   75.720
  601.114    5.231    0.483    0.182  208.209   75.583
  601.364    5.297    0.472    0.184  208.596   77.761
  601.614    5.453    0.483    0.194  208.780   81.223
  601.864    5.708    0.499    0.195  209.063   82.489
  602.114    5.995    0.476    0.206  209.142   76.254
  602.364    6.161    0.436    0.201  209.219   72.274
  602.614    6.239    0.406    0.186  209.296   74.880
  602.864    6.237    0.427    0.163  209.375   79.318
  603.114    6.224    0.456    0.172  209.546   84.182
  603.364    6.098    0.490    0.192  209.623   87.642
  603.614    5.655    0.517    0.187  209.703   90.494
  603.864    5.440    0.502    0.189  210.094   90.292
  604.114    5.591    0.494    0.180  210.280   89.914
  604.364    5.927    0.467    0.165  210.562   87.155
  604.614    6.447    0.434    0.171  210.848   81.896
  604.864    7.287    0.444    0.147  211.340   79.685
  605.114    8.103    0.455    0.149  212.134   81.439
  605.364    7.809    0.452    0.155  212.526   84.655
  605.614    6.816    0.469    0.168  212.916   89.580
  605.864    5.983    0.479    0.174  213.200   92.307
  606.114    5.468    0.486    0.143  213.485   94.305
  606.364    5.136    0.467    0.146  213.559   96.181
  606.614    4.931    0.471    0.151  213.327   97.629
  606.864    4.903    0.493    0.147  212.992   98.530
  607.114    4.965    0.506    0.155  212.551  100.039
  607.364    5.009    0.455    0.161  212.319  101.060
  607.614    5.082    0.448    0.155  211.988   99.216
  607.864    5.137    0.460    0.137  211.757  100.298
  608.114    5.288    0.472    0.138  211.316  100.588
  608.364    5.395    0.463    0.144  211.081   96.671
  608.614    5.554    0.454    0.134  211.057   95.129
  608.864    5.686    0.451    0.129  210.931   98.044
  609.114    5.801    0.429    0.122  210.590  103.942
  609.364    5.939    0.419    0.122  210.153  109.050
  609.614    5.981    0.444    0.119  209.817  110.741
  609.864    5.980    0.454    0.124  209.482  108.471
  610.114    6.179    0.436    0.132  209.458  104.736
  610.364    6.586    0.447    0.121  209.537  102.769
  610.614    6.906    0.472    0.157  209.721  102.510
  610.864    7.322    0.432    0.163  209.691  101.032
  611.114    8.067    0.407    0.151  209.872  102.419
  611.364    8.920    0.431    0.149  210.049  100.881
  611.614    9.319    0.455    0.159  210.022   97.755
  611.864    9.559    0.412    0.155  209.893   98.593
  612.114    9.145    0.403    0.146  209.974  101.078
  612.364    8.606    0.404    0.133  209.949  101.248
  612.614    8.143    0.396    0.136  209.823   97.756
  612.864    7.891    0.406    0.149  209.694   93.839
  613.114    7.846    0.422    0.155  209.673   90.531
  613.364    8.628    0.416    0.171  209.642   87.833
  613.614    9.541    0.401    0.167  209.620   87.025
  613.864    9.949    0.408    0.138  209.591   88.779
  614.114   10.356    0.399    0.130  209.567   90.775
  614.364   10.681    0.406    0.117  209.335   88.078
  614.614   11.117    0.412    0.149  209.621   90.195
  614.864   11.362    0.373    0.161  210.003   94.327
  615.114   11.112    0.353    0.136  210.294   94.008
  615.364   10.515    0.334    0.108  210.780   94.786
  615.614    9.697    0.341    0.085  211.275   98.186
  615.864    9.092    0.365    0.108  211.659  103.169
  616.114    8.039    0.395    0.130  211.326  110.778
  616.364    7.510    0.420    0.134  210.164  111.739
  616.614    7.412    0.395    0.110  208.903  106.234
  616.864    7.815    0.364    0.078  208.155   93.354
  617.114    8.721    0.324    0.052  208.642   83.460
  617.364   10.096    0.333    0.028  209.342   86.799
  617.614   11.205    0.378    0.084  210.452   91.783
  617.864   11.642    0.385    0.110  211.040   94.389
  618.114   10.313    0.373    0.113  211.019   95.230
