~VERSION INFORMATION
 VERS.                 2.0:   CWLS LOG ASCII STANDARD -VERSION 2.0
 WRAP.                  NO:   ONE LINE PER DEPTH STEP
~WELL INFORMATION BLOCK
#MNEM.UNIT           DATA                    DESCRIPTION OF MNEMONIC
#---------    -------------------            -------------------------------
# Generated from Intellog Unique Number	CS_71_72/WELL/782
WELL.         AEC IPIATIK KIRBY              : Well_name    - WELL
LOC .         00/06-30-071-06W4/0            : Location     - LOCATION
UWI .         00/06-30-071-06W4/0            : Uwi          - UNIQUE WELL ID
ENTR.         SP                             : Entered      - ENTERED BY
SRVC.         SCHLUMBERGER                   : Scn          - SERVICE COMPANY
STRT.M        300                            : top_depth    - START DEPTH
STOP.M        525                            : bot_depth    - STOP DEPTH
STEP.M        0.25                           : increment    - STEP LENGTH
 NULL. -999.2500:NULL Value
~CURVE INFORMATION BLOCK
#MNEM UNIT       ERCB CURVE CODE    CURVE DESCRIPTION
#-----------   ------------------   ----------------------------------
DEPT.M        00 001 00 00         : DEPTH        - DEPTH
ILD .OHMM     00 120 00 00         : RESD         - DEEP RESISTIVITY (DIL)
DPHI.V/V      00 890 00 00         : PHID         - DENSITY POROSITY (LIMESTONE)
NPHI.V/V      00 330 00 00         : PHIN         - NEUTRON POROSITY (LIMESTONE)
GR  .API      00 310 00 00         : GR           - GAMMA RAY
~PARAMETER INFORMATION
#MNEM.UNIT           DATA             DESCRIPTION OF MNEMONIC
#---------         -----------     ------------------------------
GL  .M        660.1                : gl           - GROUND LEVEL ELEVATION
EREF.M        665.16               : kb           - ELEVATION OF DEPTH REFERENCE
DATM.M        660.1                : datum        - DATUM ELEVATION
TDD .M        548                  : tdd          - TOTAL DEPTH DRILLER
RUN .         ONE                  : Run          - RUN NUMBER
ENG .         BILL                 : Engineer     - RECORDING ENGINEER
WIT .         JIM                  : Witness      - WITNESSED BY
MUD .         GEL                  : Mud_type     - MUD TYPE
MATR.         LIMESTONE            : Logunit      - NEUTRON MATRIX
TMAX.C        19                   : BHT          - MAXIMUM RECORDED TEMPERATURE
BHTD.M        548                  : BHTDEP       - MAXIMUM RECORDED TEMPERATURE
MATR.         1                    : LOGUNIT      - NEUTRON MATRIX
RMT .C        25                   : MDTP         - TEMPERATURE OF MUD
NEUT.         1                    : NEUTRON      - NEUTRON TYPE
RESI.         0                    : RESIST       - RESISTIVITY TYPE
RMC .OHMM     0.25                 : RMC          - RESISTIVITY OF MUD CAKE
RMF .OHMM     0.25                 : RMF          - RESISTIVITY OF MUD FILTRATE
SUFT.C        15                   : SUFT         - SURFACE TEMPERATURE
~A  DEPTH     RESD     PHID     PHIN       GR
# ...
  343.500   13.564    0.289    0.384   42.081
  343.750   13.224    0.269    0.362   43.316
  344.000   13.086    0.296    0.403   46.197
  344.250   13.170    0.311    0.400   51.990
  344.500   13.205    0.314    0.391   54.869
  344.750   13.140    0.318    0.402   46.514
  345.000   13.076    0.328    0.413   38.888
  345.250   12.892    0.329    0.390   34.235
  345.500   12.615    0.318    0.376   36.873
  345.750   12.069    0.316    0.369   44.308
  346.000   11.003    0.305    0.386   48.037
  346.250   10.721    0.299    0.419   47.333
  346.500    9.770    0.285    0.430   55.860
  346.750    8.953    0.251    0.405   69.064
  347.000    8.067    0.228    0.399   76.134
  347.250    7.448    0.217    0.402   85.147
  347.500    6.980    0.215    0.421   88.330
  347.750    6.729    0.222    0.440   85.014
  348.000    6.798    0.241    0.448   83.828
  348.250    7.049    0.250    0.437   85.249
  348.500    7.215    0.258    0.427   82.296
  348.750    7.330    0.256    0.415   81.471
  349.000    7.322    0.240    0.408   88.844
  349.250    7.124    0.225    0.406   93.728
  349.500    6.778    0.219    0.416   90.658
  349.750    6.509    0.222    0.432   89.101
  350.000    6.405    0.224    0.444   89.431
  350.250    6.470    0.226    0.443   89.882
  350.500    6.787    0.224    0.433   90.514
  350.750    6.985    0.218    0.431   90.843
  351.000    7.029    0.233    0.454   89.351
  351.250    6.957    0.243    0.457   90.466
  351.500    6.975    0.232    0.455   91.531
  351.750    7.179    0.229    0.470   92.584
  352.000    7.700    0.240    0.465   90.420
  352.250    8.511    0.222    0.466   83.827
  352.500    9.251    0.201    0.429   78.142
  352.750    9.665    0.206    0.408   69.604
  353.000    9.967    0.240    0.399   77.524
  353.250   10.012    0.257    0.434   84.657
  353.500    9.454    0.232    0.470   88.874
  353.750    8.615    0.227    0.488   91.265
  354.000    7.954    0.236    0.482   93.476
  354.250    7.289    0.224    0.482   98.420
  354.500    6.755    0.212    0.450  103.061
  354.750    6.415    0.204    0.428  105.029
  355.000    6.615    0.227    0.449  100.012
  355.250    7.163    0.258    0.465   94.756
  355.500    7.798    0.277    0.448   90.711
  355.750    8.684    0.279    0.444   86.911
  356.000    9.455    0.274    0.454   84.263
  356.250   10.086    0.268    0.454   82.404
  356.500   10.677    0.268    0.468   76.055
  356.750   11.197    0.304    0.484   69.823
  357.000   11.504    0.317    0.478   67.479
  357.250   11.384    0.285    0.447   68.295
  357.500   11.203    0.262    0.422   71.359
  357.750   11.128    0.249    0.408   73.688
  358.000   11.184    0.250    0.416   73.471
  358.250   11.207    0.257    0.413   78.053
  358.500   11.346    0.255    0.415   78.562
  358.750   11.439    0.249    0.425   73.183
  359.000   11.511    0.258    0.429   68.835
  359.250   11.455    0.273    0.415   66.613
  359.500   11.271    0.262    0.417   72.895
  359.750   10.969    0.241    0.439   75.895
  360.000   10.592    0.233    0.444   74.401
  360.250   10.306    0.241    0.454   74.850
  360.500   10.352    0.247    0.456   73.176
  360.750   10.380    0.243    0.450   73.382
  361.000   10.369    0.247    0.452   77.722
  361.250   10.357    0.261    0.459   77.622
  361.500   10.326    0.270    0.453   73.640
  361.750   10.295    0.265    0.441   72.571
  362.000   10.207    0.261    0.433   78.670
  362.250   10.158    0.258    0.435   81.309
  362.500   10.057    0.262    0.426   81.149
  362.750   10.004    0.266    0.425   77.654
  363.000    9.919    0.268    0.446   74.521
  363.250    9.833    0.270    0.458   74.911
  363.500    9.766    0.277    0.465   78.823
  363.750    9.701    0.281    0.474   82.248
  364.000    9.618    0.270    0.490   84.701
  364.250    9.501    0.262    0.508   85.514
  364.500    9.436    0.257    0.488   85.724
  364.750    9.338    0.256    0.471   86.840
  365.000    9.207    0.259    0.471   86.320
  365.250    9.110    0.264    0.492   84.643
  365.500    8.948    0.270    0.502   87.159
  365.750    8.805    0.276    0.513   88.339
  366.000    8.584    0.274    0.520   85.876
  366.250    8.336    0.269    0.521   86.929
  366.500    8.065    0.278    0.532   85.195
  366.750    7.892    0.285    0.525   81.035
  367.000    7.636    0.279    0.512   80.385
  367.250    7.542    0.272    0.534   85.451
  367.500    7.822    0.285    0.553   85.476
  367.750    8.265    0.314    0.548   74.388
  368.000    8.966    0.327    0.518   64.149
  368.250    9.708    0.328    0.473   57.798
  368.500   10.297    0.332    0.450   55.455
  368.750   10.679    0.331    0.435   53.480
  369.000   10.827    0.327    0.436   52.834
  369.250   10.960    0.327    0.435   52.924
  369.500   10.783    0.332    0.420   53.065
  369.750   10.453    0.335    0.413   53.211
  370.000   10.152    0.331    0.426   53.784
  370.250    9.897    0.320    0.435   55.083
  370.500    9.757    0.311    0.439   55.655
  370.750    9.638    0.311    0.452   54.223
  371.000    9.609    0.315    0.440   54.735
  371.250    9.707    0.319    0.431   56.828
  371.500    9.897    0.321    0.425   60.743
  371.750   10.380    0.323    0.430   64.407
  372.000   10.846    0.331    0.449   68.073
  372.250   11.205    0.339    0.482   70.346
  372.500   11.214    0.349    0.505   71.037
  372.750   10.973    0.358    0.480   72.156
  373.000   10.521    0.329    0.463   74.616
  373.250   10.197    0.298    0.456   76.518
  373.500    9.939    0.276    0.429   79.407
  373.750    9.873    0.257    0.411   79.058
  374.000    9.825    0.243    0.412   74.591
  374.250    9.454    0.237    0.416   73.521
  374.500    9.164    0.234    0.406   71.849
  374.750    8.967    0.230    0.402   70.597
  375.000    8.890    0.225    0.405   74.752
  375.250    9.015    0.224    0.421   78.236
  375.500    9.669    0.255    0.443   76.805
  375.750   10.332    0.293    0.437   68.327
  376.000   10.861    0.319    0.424   60.579
  376.250   10.927    0.321    0.417   54.349
  376.500   10.956    0.305    0.417   58.564
  376.750   10.740    0.290    0.418   69.402
  377.000   10.217    0.274    0.418   73.857
  377.250    9.416    0.258    0.419   76.799
  377.500    8.726    0.248    0.424   81.990
  377.750    7.895    0.244    0.435   85.046
  378.000    7.650    0.242    0.465   88.962
  378.250    7.144    0.234    0.464   91.048
  378.500    6.733    0.225    0.451   94.119
  378.750    6.478    0.224    0.469   95.663
  379.000    6.222    0.223    0.458   94.162
  379.250    6.087    0.213    0.455   90.298
  379.500    5.946    0.207    0.465   95.303
  379.750    5.906    0.206    0.488   96.729
  380.000    5.955    0.220    0.505   92.195
  380.250    6.072    0.230    0.502   87.848
  380.500    6.204    0.245    0.485   84.655
  380.750    6.302    0.251    0.473   85.772
  381.000    6.390    0.247    0.468   87.862
  381.250    6.395    0.249    0.468   84.247
  381.500    6.328    0.256    0.468   80.746
  381.750    6.274    0.262    0.479   76.765
  382.000    6.256    0.267    0.478   73.513
  382.250    6.319    0.269    0.460   75.721
  382.500    6.302    0.261    0.453   78.662
  382.750    6.212    0.247    0.454   81.243
  383.000    6.124    0.234    0.466   82.660
  383.250    6.014    0.243    0.464   82.318
  383.500    5.940    0.256    0.452   80.461
  383.750    5.934    0.267    0.450   78.300
  384.000    6.029    0.274    0.462   76.507
  384.250    6.147    0.267    0.474   75.133
  384.500    6.351    0.263    0.476   75.704
  384.750    6.562    0.260    0.470   78.886
  385.000    6.728    0.267    0.468   79.763
  385.250    6.835    0.281    0.472   74.442
  385.500    6.905    0.290    0.473   70.824
  385.750    6.910    0.289    0.470   72.912
  386.000    6.665    0.278    0.463   75.916
  386.250    6.604    0.271    0.459   78.186
  386.500    6.022    0.265    0.455   80.704
  386.750    5.911    0.262    0.457   80.362
