~VERSION INFORMATION
 VERS.                 2.0:   CWLS LOG ASCII STANDARD -VERSION 2.0
 WRAP.                  NO:   ONE LINE PER DEPTH STEP
~WELL INFORMATION BLOCK
#MNEM.UNIT           DATA                    DESCRIPTION OF MNEMONIC
#---------    -------------------            -------------------------------
# Generated from Intellog Unique Number	CC_80_83/WELL/1048
LOC .         00/03-32-080-07W4/0            : Location     - LOCATION
UWI .         00/03-32-080-07W400            : Uwi          - UNIQUE WELL ID
ENTR.         DW                             : Entered      - ENTERED BY
SRVC.         SCHLUMBERGER                   : Scn          - SERVICE COMPANY
STRT.M        195.00                         : top_depth    - START DEPTH
STOP.M        424.75                         : bot_depth    - STOP DEPTH
STEP.M        0.25                           : increment    - STEP LENGTH
 NULL. -999.2500:NULL Value
~CURVE INFORMATION BLOCK
#MNEM UNIT       ERCB CURVE CODE    CURVE DESCRIPTION
#-----------   ------------------   ----------------------------------
DEPT.M        00 001 00 00         : DEPTH        - DEPTH
GR  .API      00 310 00 00         : GR           - GAMMA RAY
DPHI.V/V      00 890 00 00         : PHID         - DENSITY POROSITY (SANDSTONE)
NPHI.V/V      00 330 00 00         : PHIN         - NEUTRON POROSITY (SANDSTONE)
ILD .OHMM     00 120 00 00         : RESD         - DEEP RESISTIVITY (DIL)
~PARAMETER INFORMATION
#MNEM.UNIT           DATA             DESCRIPTION OF MNEMONIC
#---------         -----------     ------------------------------
GL  .M        633.9                : gl           - GROUND LEVEL ELEVATION
EREF.M        637.1                : kb           - ELEVATION OF DEPTH REFERENCE
DATM.M        637.1                : datum        - DATUM ELEVATION
TDD .M        432                  : tdd          - TOTAL DEPTH DRILLER
RUN .         ONE                  : Run          - RUN NUMBER
ENG .         BILL                 : Engineer     - RECORDING ENGINEER
WIT .         JIM                  : Witness      - WITNESSED BY
MUD .         GEL                  : Mud_type     - MUD TYPE
MATR.         SANDSTONE            : Logunit      - NEUTRON MATRIX
TMAX.C        20                   : BHT          - MAXIMUM RECORDED TEMPERATURE
BHTD.M        432                  : BHTDEP       - MAXIMUM RECORDED TEMPERATURE
MATR.         1                    : LOGUNIT      - NEUTRON MATRIX
RMT .C        25                   : MDTP         - TEMPERATURE OF MUD
NEUT.         1                    : NEUTRON      - NEUTRON TYPE
RESI.         0                    : RESIST       - RESISTIVITY TYPE
RMC .OHMM     0.25                 : RMC          - RESISTIVITY OF MUD CAKE
RMF .OHMM     0.25                 : RMF          - RESISTIVITY OF MUD FILTRATE
SUFT.C        15                   : SUFT         - SURFACE TEMPERATURE
~A  DEPTH       GR     PHID     PHIN     RESD
# ...
  325.500   75.778    0.036    0.301   14.650
  325.750   65.507    0.002    0.182   13.785
  326.000   66.342    0.088    0.191   12.297
  326.250   77.290    0.181    0.273    9.566
  326.500   89.624    0.229    0.362    7.081
  326.750   96.881    0.249    0.434    6.304
  327.000   98.802    0.254    0.468    6.363
  327.250   93.751    0.264    0.461    6.380
  327.500   89.193    0.247    0.461    6.219
  327.750   87.535    0.236    0.464    5.955
  328.000   86.546    0.251    0.464    5.954
  328.250   87.835    0.269    0.459    6.732
  328.500   93.886    0.289    0.475    8.197
  328.750   96.312    0.333    0.544    9.268
  329.000   89.740    0.305    0.500    9.531
  329.250   85.595    0.267    0.442    9.685
  329.500   87.249    0.270    0.412    9.664
  329.750   87.133    0.283    0.386    9.316
  330.000   83.255    0.285    0.397    8.838
  330.250   82.356    0.300    0.393    7.537
  330.500   84.853    0.327    0.382    6.503
  330.750   86.347    0.373    0.380    5.900
  331.000   89.704    0.375    0.403    5.552
  331.250   94.195    0.334    0.453    5.432
  331.500   91.274    0.358    0.497    5.445
  331.750   85.069    0.415    0.505    5.604
  332.000   85.498    0.405    0.513    5.935
  332.250   86.079    0.374    0.515    5.904
  332.500   83.168    0.359    0.498    5.461
  332.750   81.303    0.344    0.486    5.086
  333.000   83.286    0.329    0.498    5.140
  333.250   86.381    0.325    0.514    5.657
  333.500   82.945    0.324    0.513    6.319
  333.750   78.308    0.324    0.497    7.706
  334.000   76.624    0.329    0.467    9.179
  334.250   78.467    0.328    0.437    9.824
  334.500   81.351    0.311    0.431    9.932
  334.750   77.008    0.300    0.435    9.664
  335.000   77.170    0.300    0.435    8.723
  335.250   79.215    0.286    0.430    6.502
  335.500   79.592    0.332    0.428    4.292
  335.750   80.398    0.422    0.424    3.478
  336.000   81.339    0.409    0.441    3.555
  336.250   79.728    0.333    0.534    3.899
  336.500   79.815    0.263    0.570    4.513
  336.750   82.534    0.263    0.538    5.515
  337.000   80.528    0.295    0.495    7.415
  337.250   73.129    0.307    0.456   10.143
  337.500   69.528    0.309    0.404   12.557
  337.750   69.435    0.292    0.361   13.907
  338.000   69.697    0.271    0.369   14.889
  338.250   68.970    0.282    0.408   17.037
  338.500   67.804    0.164    0.398   20.093
  338.750   63.763   -0.018    0.287   22.320
  339.000   54.533    0.016    0.163   22.417
  339.250   46.886    0.052    0.171   20.190
  339.500   44.070    0.107    0.186   16.450
  339.750   44.946    0.152    0.186   11.547
  340.000   48.271    0.215    0.236    8.840
  340.250   58.452    0.291    0.326    9.013
  340.500   75.246    0.305    0.392    8.665
  340.750   82.480    0.315    0.449    8.815
  341.000   85.228    0.334    0.460    8.665
  341.250   82.260    0.295    0.432    8.236
  341.500   75.413    0.232    0.400    7.894
  341.750   72.752    0.243    0.399    7.425
  342.000   76.353    0.316    0.436    6.728
  342.250   78.510    0.322    0.459    6.510
  342.500   80.292    0.281    0.464    6.229
  342.750   83.140    0.241    0.464    6.009
  343.000   86.096    0.212    0.445    6.013
  343.250   88.644    0.190    0.431    6.149
  343.500   89.920    0.169    0.462    6.483
  343.750   87.562    0.157    0.468    7.145
  344.000   90.039    0.267    0.460    7.737
  344.250   96.498    0.283    0.453    7.912
  344.500  101.273    0.231    0.441    7.818
  344.750   99.239    0.246    0.434    7.672
  345.000   94.264    0.257    0.450    7.414
  345.250  100.492    0.261    0.453    6.984
  345.500  103.003    0.264    0.444    6.165
  345.750  100.763    0.263    0.430    5.112
  346.000   96.519    0.239    0.425    4.277
  346.250   91.471    0.203    0.443    3.587
  346.500   88.633    0.222    0.468    2.695
  346.750   87.471    0.320    0.466    2.155
  347.000   86.908    0.345    0.469    1.992
  347.250   81.336    0.335    0.528    1.979
  347.500   78.146    0.353    0.571    1.985
  347.750   83.020    0.381    0.559    1.979
  348.000   87.429    0.371    0.578    2.023
  348.250   88.591    0.307    0.604    2.376
  348.500   88.751    0.293    0.549    3.197
  348.750   88.071    0.305    0.504    3.697
  349.000   86.982    0.298    0.494    3.799
  349.250   85.837    0.266    0.489    3.948
  349.500   84.902    0.228    0.498    4.580
  349.750   86.400    0.215    0.482    6.219
  350.000   87.598    0.213    0.461    6.961
  350.250   86.038    0.206    0.449    7.006
  350.500   83.127    0.199    0.425    6.977
  350.750   80.651    0.201    0.395    7.023
  351.000   80.583    0.224    0.396    6.851
  351.250   86.460    0.257    0.415    5.576
  351.500   88.508    0.227    0.443    4.609
  351.750   89.492    0.233    0.471    4.108
  352.000   90.644    0.273    0.485    3.812
  352.250   90.459    0.282    0.488    3.656
  352.500   94.270    0.282    0.495    3.545
  352.750  102.684    0.282    0.492    3.544
  353.000   89.832    0.276    0.481    3.521
  353.250   80.647    0.252    0.481    3.368
  353.500   85.512    0.238    0.504    3.265
  353.750   92.652    0.243    0.516    3.278
  354.000   97.240    0.245    0.497    3.282
  354.250   93.050    0.265    0.509    3.444
  354.500   92.153    0.268    0.511    3.578
  354.750   96.669    0.259    0.508    3.668
  355.000  101.230    0.242    0.485    3.667
  355.250  101.978    0.215    0.461    3.731
  355.500   98.400    0.204    0.490    4.146
  355.750   92.099    0.220    0.501    4.764
  356.000   87.703    0.215    0.475    5.783
  356.250   85.322    0.192    0.471    6.323
  356.500   81.742    0.146    0.499    6.681
  356.750   77.220    0.131    0.484    6.962
  357.000   76.781    0.188    0.421    6.463
  357.250   81.940    0.181    0.456    6.330
  357.500   85.031    0.192    0.505    6.552
  357.750   80.038    0.238    0.486    7.695
  358.000   71.690    0.283    0.433    8.815
  358.250   67.706    0.309    0.387    9.294
  358.500   68.052    0.323    0.342    9.918
  358.750   67.242    0.319    0.343   10.106
  359.000   64.350    0.273    0.362   10.083
  359.250   64.456    0.241    0.377   10.083
  359.500   70.702    0.256    0.370    8.091
  359.750   76.651    0.276    0.360    4.793
  360.000   75.437    0.274    0.379    3.601
  360.250   75.458    0.284    0.408    2.944
  360.500   81.246    0.294    0.485    2.718
  360.750   88.299    0.279    0.539    2.930
  361.000   95.053    0.256    0.537    3.649
  361.250   93.027    0.287    0.482    4.547
  361.500   73.876    0.355    0.369    5.676
  361.750   57.694    0.316    0.290    8.234
  362.000   55.493    0.301    0.307    9.692
  362.250   56.027    0.308    0.356   10.153
  362.500   56.099    0.311    0.378   10.357
  362.750   59.628    0.320    0.380   10.583
  363.000   64.345    0.327    0.382   11.834
  363.250   66.708    0.326    0.386   14.923
  363.500   59.488    0.324    0.393   17.689
  363.750   53.687    0.324    0.401   22.651
  364.000   56.213    0.326    0.403   28.036
  364.250   61.428    0.318    0.389   31.085
  364.500   64.945    0.300    0.365   32.344
  364.750   71.471    0.294    0.356   29.683
  365.000   79.264    0.285    0.363   24.081
  365.250   83.763    0.274    0.380   19.335
  365.500   83.538    0.279    0.401   16.976
  365.750   84.199    0.287    0.405   15.367
  366.000   88.439    0.269    0.383   13.489
  366.250   87.958    0.261    0.379   12.553
  366.500   95.147    0.254    0.389   10.196
  366.750  106.092    0.236    0.402    8.811
  367.000  112.765    0.225    0.406    8.809
  367.250  114.607    0.216    0.403    8.863
  367.500  114.428    0.179    0.404    9.352
  367.750  114.530    0.162    0.413   10.484
  368.000  116.497    0.259    0.459   13.728
  368.250   93.662    0.302    0.477   17.089
  368.500   66.945    0.279    0.400   19.118
  368.750   60.929    0.281    0.317   20.018
