~VERSION INFORMATION
 VERS.                 2.0:   CWLS LOG ASCII STANDARD -VERSION 2.0
 WRAP.                  NO:   ONE LINE PER DEPTH STEP
~WELL INFORMATION BLOCK
#MNEM.UNIT           DATA                    DESCRIPTION OF MNEMONIC
#---------    -------------------            -------------------------------
# Generated from Intellog Unique Number	CS_69_70/WELL/662
WELL.         HUSKY OIL OPERATIONS           : Well_name    - WELL
LOC .         00/05-14-069-05W4/0            : Location     - LOCATION
UWI .         00/05-14-069-05W4/0            : Uwi          - UNIQUE WELL ID
ENTR.         J                              : Entered      - ENTERED BY
SRVC.         SCHLUMBERGER                   : Scn          - SERVICE COMPANY
STRT.M        300                            : top_depth    - START DEPTH
STOP.M        575                            : bot_depth    - STOP DEPTH
STEP.M        0.25                           : increment    - STEP LENGTH
 NULL. -999.2500:NULL Value
~CURVE INFORMATION BLOCK
#MNEM UNIT       ERCB CURVE CODE    CURVE DESCRIPTION
#-----------   ------------------   ----------------------------------
DEPT.M        00 001 00 00         : DEPTH        - DEPTH
ILD .OHMM     00 120 00 00         : RESD         - DEEP RESISTIVITY (DIL)
DPHI.V/V      00 890 00 00         : PHID         - DENSITY POROSITY (LIMESTONE)
NPHI.V/V      00 330 00 00         : PHIN         - NEUTRON POROSITY (LIMESTONE)
GR  .API      00 310 00 00         : GR           - GAMMA RAY
~PARAMETER INFORMATION
#MNEM.UNIT           DATA             DESCRIPTION OF MNEMONIC
#---------         -----------     ------------------------------
GL  .M        673.9                : gl           - GROUND LEVEL ELEVATION
EREF.M        677.5                : kb           - ELEVATION OF DEPTH REFERENCE
DATM.M        673.9                : datum        - DATUM ELEVATION
TDD .M        581                  : tdd          - TOTAL DEPTH DRILLER
RUN .         ONE                  : Run          - RUN NUMBER
ENG .         BILL                 : Engineer     - RECORDING ENGINEER
WIT .         JIM                  : Witness      - WITNESSED BY
MUD .         GEL                  : Mud_type     - MUD TYPE
MATR.         LIMESTONE            : Logunit      - NEUTRON MATRIX
TMAX.C        25                   : BHT          - MAXIMUM RECORDED TEMPERATURE
BHTD.M        581                  : BHTDEP       - MAXIMUM RECORDED TEMPERATURE
MATR.         1                    : LOGUNIT      - NEUTRON MATRIX
RMT .C        25                   : MDTP         - TEMPERATURE OF MUD
NEUT.         1                    : NEUTRON      - NEUTRON TYPE
RESI.         0                    : RESIST       - RESISTIVITY TYPE
RMC .OHMM     0.25                 : RMC          - RESISTIVITY OF MUD CAKE
RMF .OHMM     0.25                 : RMF          - RESISTIVITY OF MUD FILTRATE
SUFT.C        15                   : SUFT         - SURFACE TEMPERATURE
~A  DEPTH     RESD     PHID     PHIN       GR
# ...
  430.500    5.604    0.318    0.437   66.147
  430.750    5.797    0.281    0.425   65.240
  431.000    5.819    0.248    0.430   65.243
  431.250    5.670    0.291    0.440   66.645
  431.500    5.283    0.321    0.447   70.476
  431.750    5.157    0.302    0.436   76.191
  432.000    5.101    0.270    0.441   82.270
  432.250    5.140    0.275    0.459   82.152
  432.500    5.247    0.297    0.469   77.053
  432.750    5.287    0.317    0.462   73.412
  433.000    5.249    0.335    0.452   72.687
  433.250    5.182    0.325    0.445   73.419
  433.500    5.154    0.314    0.449   74.456
  433.750    5.116    0.311    0.459   76.162
  434.000    5.098    0.307    0.472   76.894
  434.250    5.051    0.302    0.480   77.141
  434.500    4.977    0.309    0.470   74.958
  434.750    4.760    0.309    0.460   75.630
  435.000    4.394    0.299    0.468   78.308
  435.250    4.102    0.289    0.471   79.648
  435.500    3.938    0.282    0.474   80.624
  435.750    3.887    0.282    0.487   81.661
  436.000    3.932    0.284    0.495   84.703
  436.250    4.143    0.282    0.510   87.136
  436.500    4.490    0.290    0.515   89.449
  436.750    4.696    0.295    0.494   88.177
  437.000    4.902    0.284    0.480   86.480
  437.250    5.042    0.277    0.487   86.120
  437.500    5.024    0.273    0.498   87.338
  437.750    3.750    0.277    0.499   91.170
  438.000    3.142    0.283    0.526   93.847
  438.250    2.773    0.286    0.544   91.056
  438.500    2.536    0.287    0.546   93.126
  438.750    2.363    0.288    0.526   94.284
  439.000    2.273    0.294    0.516   90.460
  439.250    2.194    0.295    0.517   85.847
  439.500    2.142    0.302    0.540   84.819
  439.750    2.118    0.313    0.558   86.888
  440.000    2.127    0.312    0.565   88.471
  440.250    2.171    0.303    0.554   89.812
  440.500    2.279    0.290    0.538   90.302
  440.750    2.393    0.279    0.527   92.129
  441.000    2.540    0.271    0.513   92.800
  441.250    2.613    0.268    0.505   91.468
  441.500    2.642    0.269    0.524   90.864
  441.750    2.718    0.268    0.530   90.261
  442.000    3.275    0.272    0.548   85.647
  442.250    4.374    0.293    0.565   79.090
  442.500    5.764    0.314    0.544   72.046
  442.750    8.216    0.339    0.500   64.517
  443.000   11.431    0.350    0.482   58.263
  443.250   14.219    0.359    0.479   54.561
  443.500   16.694    0.356    0.470   53.897
  443.750   18.604    0.353    0.461   54.144
  444.000   19.531    0.353    0.473   54.208
  444.250   19.976    0.356    0.458   52.572
  444.500   20.166    0.362    0.442   53.305
  444.750   20.169    0.360    0.438   54.038
  445.000   20.024    0.356    0.446   54.224
  445.250   19.877    0.352    0.462   53.377
  445.500   19.549    0.349    0.454   52.956
  445.750   19.300    0.347    0.440   53.689
  446.000   19.338    0.345    0.432   54.422
  446.250   19.927    0.343    0.448   54.912
  446.500   20.726    0.348    0.456   53.822
  446.750   22.004    0.347    0.459   51.092
  447.000   23.800    0.294    0.475   49.699
  447.250   25.220    0.174    0.382   49.400
  447.500   26.925    0.158    0.277   49.647
  447.750   27.848    0.284    0.284   50.076
  448.000   28.218    0.313    0.423   50.626
  448.250   25.519    0.332    0.463   51.237
  448.500   22.652    0.344    0.473   51.910
  448.750   20.872    0.354    0.482   52.521
  449.000   19.851    0.353    0.480   52.829
  449.250   19.743    0.348    0.472   53.380
  449.500   20.117    0.347    0.467   54.538
  449.750   20.461    0.349    0.464   57.154
  450.000   20.811    0.353    0.471   57.340
  450.250   20.970    0.356    0.465   55.643
  450.500   20.973    0.355    0.451   54.918
  450.750   20.782    0.351    0.447   55.712
  451.000   20.516    0.320    0.396   56.931
  451.250   20.215    0.278    0.366   56.934
  451.500   19.661    0.283    0.349   56.938
  451.750   18.979    0.314    0.422   57.246
  452.000   17.950    0.337    0.449   58.708
  452.250   17.621    0.345    0.456   58.834
  452.500   17.856    0.348    0.460   54.767
  452.750   18.606    0.355    0.465   51.187
  453.000   19.460    0.361    0.477   49.429
  453.250   20.545    0.366    0.495   47.306
  453.500   21.488    0.358    0.401   42.754
  453.750   22.019    0.245    0.347   38.262
  454.000   22.188    0.204    0.288   40.331
  454.250   20.867    0.182    0.303   47.019
  454.500   17.548    0.253    0.341   50.242
  454.750   15.489    0.317    0.425   53.284
  455.000   14.166    0.349    0.449   54.867
  455.250   13.199    0.346    0.458   55.722
  455.500   12.530    0.346    0.449   56.334
  455.750   12.254    0.347    0.445   57.735
  456.000   12.075    0.349    0.463   58.892
  456.250   12.077    0.352    0.466   59.139
  456.500   12.146    0.346    0.454   57.078
  456.750   12.285    0.342    0.443   57.446
  457.000   12.425    0.339    0.441   57.633
  457.250   12.543    0.341    0.450   56.179
  457.500   12.592    0.343    0.455   53.388
  457.750   12.524    0.331    0.443   50.961
  458.000   12.181    0.243    0.399   48.535
  458.250   11.434    0.214    0.387   46.595
  458.500   10.018    0.226    0.413   52.188
  458.750    8.300    0.260    0.432   60.698
  459.000    7.191    0.278    0.462   66.838
  459.250    7.663    0.305    0.472   71.520
  459.500    8.700    0.283    0.477   69.640
  459.750   10.082    0.283    0.503   65.088
  460.000   12.129    0.304    0.489   60.961
  460.250   13.315    0.319    0.466   58.656
  460.500   15.175    0.327    0.454   56.533
  460.750   16.079    0.319    0.455   55.383
  461.000   16.849    0.318    0.470   55.812
  461.250   16.633    0.276    0.457   58.611
  461.500   15.614    0.246    0.442   63.475
  461.750   12.301    0.299    0.466   68.035
  462.000    9.947    0.326    0.473   71.442
  462.250    8.257    0.312    0.473   73.694
  462.500    6.982    0.304    0.467   75.338
  462.750    5.938    0.288    0.447   76.617
  463.000    5.031    0.275    0.433   77.411
  463.250    4.045    0.264    0.424   77.050
  463.500    3.383    0.270    0.506   75.232
  463.750    2.670    0.285    0.546   74.567
  464.000    2.300    0.301    0.565   74.450
  464.250    2.061    0.309    0.568   73.543
  464.500    1.960    0.314    0.555   72.210
  464.750    1.885    0.317    0.543   69.784
  465.000    1.847    0.322    0.569   67.357
  465.250    1.834    0.329    0.590   69.366
  465.500    1.869    0.331    0.590   72.347
  465.750    1.901    0.323    0.570   74.721
  466.000    1.973    0.322    0.552   75.879
  466.250    2.071    0.322    0.537   77.341
  466.500    2.171    0.316    0.526   77.952
  466.750    2.245    0.310    0.520   75.404
  467.000    2.288    0.301    0.539   77.596
  467.250    2.297    0.292    0.537   81.062
  467.500    2.267    0.283    0.523   84.773
  467.750    2.285    0.277    0.528   86.052
  468.000    2.453    0.274    0.532   87.149
  468.250    2.653    0.277    0.533   87.457
  468.500    2.875    0.276    0.534   85.457
  468.750    3.133    0.267    0.513   83.273
  469.000    3.446    0.259    0.487   80.665
  469.250    3.727    0.254    0.466   78.542
  469.500    4.009    0.251    0.462   75.873
  469.750    4.288    0.248    0.453   72.171
  470.000    4.510    0.231    0.422   69.380
  470.250    4.570    0.202    0.416   72.421
  470.500    4.282    0.212    0.448   77.468
  470.750    3.731    0.241    0.464   80.510
  471.000    3.330    0.250    0.477   81.000
  471.250    3.138    0.248    0.488   80.518
  471.500    3.103    0.249    0.495   81.190
  471.750    3.121    0.251    0.507   82.895
  472.000    3.180    0.255    0.495   84.539
  472.250    3.271    0.260    0.482   86.305
  472.500    3.358    0.261    0.481   86.552
  472.750    3.506    0.258    0.497   86.617
  473.000    3.694    0.251    0.490   84.919
  473.250    3.893    0.243    0.480   83.951
  473.500    4.118    0.234    0.476   84.016
  473.750    4.212    0.228    0.473   84.445
