~VERSION INFORMATION
 VERS.                 2.0:   CWLS LOG ASCII STANDARD -VERSION 2.0
 WRAP.                  NO:   ONE LINE PER DEPTH STEP
~WELL INFORMATION BLOCK
#MNEM.UNIT           DATA                    DESCRIPTION OF MNEMONIC
#---------    -------------------            -------------------------------
# Generated from Intellog Unique Number	CS_77_79/WELL/896
WELL.         CANADIAN WORLDWIDE ENERGY      : Well_name    - WELL
LOC .         00/07-13-077-06W4/0            : Location     - LOCATION
UWI .         00/07-13-077-06W4/0            : Uwi          - UNIQUE WELL ID
ENTR.         SP                             : Entered      - ENTERED BY
SRVC.         SCHLUMBERGER                   : Scn          - SERVICE COMPANY
STRT.M        150                            : top_depth    - START DEPTH
STOP.M        390                            : bot_depth    - STOP DEPTH
STEP.M        0.25                           : increment    - STEP LENGTH
 NULL. -999.2500:NULL Value
~CURVE INFORMATION BLOCK
#MNEM UNIT       ERCB CURVE CODE    CURVE DESCRIPTION
#-----------   ------------------   ----------------------------------
DEPT.M        00 001 00 00         : DEPTH        - DEPTH
ILD .OHMM     00 120 00 00         : RESD         - DEEP RESISTIVITY (DIL)
DPHI.V/V      00 890 00 00         : PHID         - DENSITY POROSITY (LIMESTONE)
NPHI.V/V      00 330 00 00         : PHIN         - NEUTRON POROSITY (LIMESTONE)
GR  .API      00 310 00 00         : GR           - GAMMA RAY
~PARAMETER INFORMATION
#MNEM.UNIT           DATA             DESCRIPTION OF MNEMONIC
#---------         -----------     ------------------------------
GL  .M        563.3                : gl           - GROUND LEVEL ELEVATION
EREF.M        566.3                : kb           - ELEVATION OF DEPTH REFERENCE
DATM.M        563.3                : datum        - DATUM ELEVATION
TDD .M        395                  : tdd          - TOTAL DEPTH DRILLER
RUN .         ONE                  : Run          - RUN NUMBER
ENG .         BILL                 : Engineer     - RECORDING ENGINEER
WIT .         JIM                  : Witness      - WITNESSED BY
MUD .         GEL                  : Mud_type     - MUD TYPE
MATR.         LIMESTONE            : Logunit      - NEUTRON MATRIX
TMAX.C        23                   : BHT          - MAXIMUM RECORDED TEMPERATURE
BHTD.M        395                  : BHTDEP       - MAXIMUM RECORDED TEMPERATURE
MATR.         1                    : LOGUNIT      - NEUTRON MATRIX
RMT .C        25                   : MDTP         - TEMPERATURE OF MUD
NEUT.         1                    : NEUTRON      - NEUTRON TYPE
RESI.         0                    : RESIST       - RESISTIVITY TYPE
RMC .OHMM     0.25                 : RMC          - RESISTIVITY OF MUD CAKE
RMF .OHMM     0.25                 : RMF          - RESISTIVITY OF MUD FILTRATE
SUFT.C        15                   : SUFT         - SURFACE TEMPERATURE
~A  DEPTH     RESD     PHID     PHIN       GR
# ...
  367.500   41.708    0.336    0.419   51.212
  367.750   44.151    0.342    0.433   50.608
  368.000   45.850    0.353    0.444   54.925
  368.250   53.313    0.341    0.427   58.011
  368.500   54.337    0.338    0.420   58.030
  368.750   57.519    0.346    0.419   56.807
  369.000   62.034    0.343    0.411   53.746
  369.250   69.457    0.336    0.407   51.291
  369.500   80.749    0.343    0.412   44.542
  369.750   95.652    0.347    0.408   40.249
  370.000  117.665    0.348    0.406   39.033
  370.250  129.291    0.349    0.407   40.887
  370.500  136.832    0.354    0.408   40.900
  370.750  131.852    0.360    0.405   40.294
  371.000   99.544    0.366    0.397   55.676
  371.250   53.603    0.348    0.392   69.826
  371.500   42.813    0.311    0.399   71.682
  371.750   37.557    0.295    0.412   67.392
  372.000   32.336    0.305    0.427   58.795
  372.250   32.352    0.318    0.436   53.891
  372.500   39.052    0.333    0.436   45.911
  372.750   53.763    0.343    0.420   37.928
  373.000   67.369    0.348    0.416   33.635
  373.250   76.857    0.351    0.410   33.646
  373.500   76.898    0.359    0.414   39.809
  373.750   70.038    0.348    0.415   45.350
  374.000   63.794    0.329    0.409   49.052
  374.250   57.025    0.339    0.410   47.217
  374.500   51.944    0.343    0.417   50.303
  374.750   48.207    0.340    0.420   54.004
  375.000   44.751    0.331    0.410   55.244
  375.250   43.121    0.314    0.415   58.330
  375.500   43.133    0.322    0.419   61.414
  375.750   44.803    0.313    0.419   66.958
  376.000   45.674    0.304    0.404   66.357
  376.250   46.561    0.297    0.389   60.833
  376.500   45.723    0.285    0.375   52.852
  376.750   44.887    0.279    0.350   56.554
  377.000   38.645    0.280    0.347   67.631
  377.250   29.731    0.259    0.352   91.004
  377.500   23.743    0.227    0.348   98.393
  377.750   19.324    0.172    0.337   99.019
  378.000   15.726    0.163    0.341   71.979
  378.250   13.797    0.189    0.367   57.237
  378.500   14.602    0.223    0.396   48.642
  378.750   16.662    0.256    0.381   40.660
  379.000   19.369    0.284    0.362   36.368
  379.250   31.568    0.299    0.357   39.455
  379.500   40.313    0.298    0.354   43.768
  379.750   39.588    0.297    0.360   46.855
  380.000   38.865    0.314    0.386   45.024
  380.250   37.451    0.336    0.418   43.805
  380.500   32.859    0.354    0.427   41.972
  380.750   29.926    0.365    0.429   39.525
  381.000   25.286    0.320    0.425   38.920
  381.250   22.602    0.284    0.389   49.997
  381.500   19.098    0.116    0.360   83.206
  381.750   15.836    0.122    0.343  100.430
  382.000   13.132    0.138    0.339  100.442
  382.250   10.293    0.146    0.347   99.839
  382.500    8.862    0.147    0.355   98.622
  382.750    7.922    0.139    0.368   95.561
  383.000    7.218    0.127    0.379   92.497
  383.250    7.085    0.132    0.374   95.581
  383.500    6.957    0.144    0.371  104.818
  383.750    7.093    0.150    0.375  107.901
  384.000    7.095    0.150    0.374  110.369
  384.250    7.370    0.149    0.369  107.924
  384.500    7.656    0.153    0.369  103.630
  384.750    8.104    0.144    0.374   99.341
  385.000    8.576    0.119    0.386   95.049
  385.250    9.077    0.000    0.420   89.526
  385.500    9.977    0.000    0.447   82.773
  385.750   10.361    0.000    0.426   80.940
  386.000   11.388    0.004    0.393   90.790
  386.250   11.827    0.000    0.330   87.112
  386.500   13.244    0.000    0.301   76.057
  386.750   14.830    0.000    0.265   61.928
  387.000   16.921    0.000    0.235   57.025
  387.250   18.946    0.008    0.225   54.580
  387.500   21.618    0.013    0.217   54.585
  387.750   23.756    0.010    0.212   55.826
  388.000   25.141    0.014    0.212   57.686
  388.250   27.633    0.022    0.214   57.080
  388.500   29.245    0.030    0.217   54.633
  388.750   30.373    0.022    0.217   53.412
  389.000   31.552    0.001    0.217   53.428
  389.250   32.779    0.000    0.215   55.898
  389.500   32.790    0.010    0.214   57.138
  389.750   32.807    0.017    0.214   59.607
  390.000   32.209    0.021    0.216   61.463
