~VERSION INFORMATION
 VERS.                 2.0:   CWLS LOG ASCII STANDARD -VERSION 2.0
 WRAP.                  NO:   ONE LINE PER DEPTH STEP
~WELL INFORMATION BLOCK
#MNEM.UNIT           DATA                    DESCRIPTION OF MNEMONIC
#---------    -------------------            -------------------------------
# Generated from Intellog Unique Number	CX_WELLS/WELL/3079
WELL.         BOW NEWPORT HOUSE              : Well_name    - WELL
LOC .         00/06-25-082-15W4/0            : Location     - LOCATION
UWI .         00/06-25-082-15W400            : Uwi          - UNIQUE WELL ID
ENTR.         TIM                            : Entered      - ENTERED BY
SRVC.         SCHLUMBERGER                   : Scn          - SERVICE COMPANY
DATE.         03/04/92                       : Date         - LOG DATE
STRT.M        140                            : top_depth    - START DEPTH
STOP.M        325                            : bot_depth    - STOP DEPTH
STEP.M        0.25                           : increment    - STEP LENGTH
 NULL. -999.2500:NULL Value
~CURVE INFORMATION BLOCK
#MNEM UNIT       ERCB CURVE CODE    CURVE DESCRIPTION
#-----------   ------------------   ----------------------------------
DEPT.M        00 001 00 00         : DEPTH        - DEPTH
GR  .API      00 310 00 00         : GR           - GAMMA RAY
NPHI.V/V      00 330 00 00         : PHIN         - NEUTRON POROSITY (SANDSTONE)
DPHI.V/V      00 890 00 00         : PHID         - DENSITY POROSITY (SANDSTONE)
ILD .OHMM     00 120 00 00         : RESD         - DEEP RESISTIVITY (OTHER)
~PARAMETER INFORMATION
#MNEM.UNIT           DATA             DESCRIPTION OF MNEMONIC
#---------         -----------     ------------------------------
GL  .M        566.8                : gl           - GROUND LEVEL ELEVATION
EREF.M        570.6                : kb           - ELEVATION OF DEPTH REFERENCE
DATM.M        570.6                : datum        - DATUM ELEVATION
TDD .M        332.7                : tdd          - TOTAL DEPTH DRILLER
RUN .         ONE                  : Run          - RUN NUMBER
ENG .         JO                   : Engineer     - RECORDING ENGINEER
WIT .         TIM                  : Witness      - WITNESSED BY
MUD .         GEL                  : Mud_type     - MUD TYPE
MATR.         SANDSTONE            : Logunit      - NEUTRON MATRIX
TMAX.C        20                   : BHT          - MAXIMUM RECORDED TEMPERATURE
BHTD.M        332                  : BHTDEP       - MAXIMUM RECORDED TEMPERATURE
RMT .C        19                   : MDTP         - TEMPERATURE OF MUD
MUDD.KG/M     1140                 : MWT          - MUD DENSITY
NEUT.         1                    : NEUTRON      - NEUTRON TYPE
RESI.         2.74                 : RESIST       - RESISTIVITY TYPE
RM  .OHMM     2.74                 : RM           - RESISTIVITY OF MUD
RMC .OHMM     2.74                 : RMC          - RESISTIVITY OF MUD CAKE
RMF .OHMM     2.74                 : RMF          - RESISTIVITY OF MUD FILTRATE
SUFT.C        4                    : SUFT         - SURFACE TEMPERATURE
~A  DEPTH       GR     PHIN     PHID     RESD
# ...
  183.500   93.430    0.467    0.205    5.210
  183.750   92.900    0.451    0.210    5.520
  184.000   95.338    0.448    0.211    5.627
  184.250   93.611    0.454    0.214    5.743
  184.500   90.718    0.464    0.222    5.857
  184.750   87.235    0.486    0.234    6.208
  185.000   82.585    0.485    0.245    6.447
  185.250   78.510    0.457    0.253    6.825
  185.500   80.934    0.447    0.255    7.223
  185.750   82.176    0.452    0.226    7.790
  186.000   79.298    0.462    0.254    8.718
  186.250   77.571    0.474    0.256   10.907
  186.500   74.072    0.448    0.219   13.641
  186.750   68.816    0.423    0.174   17.379
  187.000   62.379    0.377    0.142   21.743
  187.250   60.061    0.376    0.097   23.887
  187.500   57.774    0.372    0.034   21.416
  187.750   54.881    0.335    0.062   18.833
  188.000   53.154    0.364    0.104   16.562
  188.250   53.230    0.407    0.154   14.046
  188.500   53.866    0.430    0.233   13.809
  188.750   55.124    0.425    0.311   13.088
  189.000   56.366    0.422    0.317   13.097
  189.250   59.410    0.423    0.313   13.117
  189.500   60.622    0.436    0.310   13.382
  189.750   64.257    0.449    0.306   13.652
  190.000   65.484    0.450    0.297   14.194
  190.250   67.317    0.443    0.289   14.756
  190.500   68.544    0.442    0.281   15.049
  190.750   70.983    0.446    0.279   15.652
  191.000   72.240    0.450    0.271   15.968
  191.250   72.876    0.458    0.269   16.284
  191.500   74.133    0.464    0.266   16.620
  191.750   74.784    0.469    0.266   16.632
  192.000   74.845    0.471    0.266   16.657
  192.250   73.724    0.466    0.267   17.000
  192.500   72.588    0.466    0.268   17.343
  192.750   69.105    0.465    0.268   17.369
  193.000   66.212    0.463    0.270   17.720
  193.250   62.743    0.464    0.275   17.746
  193.500   61.637    0.465    0.282   17.773
  193.750   61.077    0.469    0.288   18.132
  194.000   62.334    0.471    0.290   18.159
  194.250   62.970    0.472    0.290   18.193
  194.500   64.833    0.470    0.286   18.206
  194.750   65.454    0.467    0.283   18.240
  195.000   67.287    0.467    0.281   18.274
  195.250   69.120    0.467    0.282   17.952
  195.500   72.134    0.464    0.285   17.992
  195.750   74.573    0.463    0.285   18.012
  196.000   75.239    0.464    0.281   18.032
  196.250   75.875    0.464    0.276   17.735
  196.500   76.527    0.464    0.260   17.768
  196.750   78.375    0.460    0.245   17.160
  197.000   79.026    0.445    0.236   16.858
  197.250   77.314    0.443    0.228   16.573
  197.500   75.588    0.448    0.233   16.000
  197.750   72.725    0.456    0.253   15.719
  198.000   72.165    0.463    0.260   15.459
  198.250   72.225    0.464    0.269   15.198
  198.500   72.877    0.467    0.271   14.941
  198.750   72.968    0.467    0.271   14.689
  199.000   72.437    0.459    0.272   14.711
  199.250   71.877    0.453    0.274   14.728
  199.500   70.756    0.449    0.278   14.749
  199.750   68.469    0.445    0.285   14.506
  200.000   67.333    0.441    0.286   14.522
  200.250   66.227    0.438    0.280   14.544
  200.500   65.712    0.430    0.268   14.838
  200.750   65.152    0.423    0.236   16.008
  201.000   63.471    0.395    0.210   17.270
  201.250   62.335    0.297    0.150   16.966
  201.500   60.623    0.343    0.166   16.080
  201.750   58.306    0.398    0.193   15.512
  202.000   56.003    0.426    0.219   14.976
  202.250   62.562    0.447    0.247   14.729
  202.500   67.939    0.450    0.277   14.745
  202.750   68.606    0.452    0.294   14.491
  203.000   68.696    0.458    0.293   14.513
  203.250   68.742    0.463    0.293   14.273
  203.500   68.818    0.467    0.293   14.032
  203.750   68.848    0.467    0.293   14.058
  204.000   69.499    0.460    0.289   13.810
  204.250   70.151    0.455    0.290   13.333
  204.500   71.393    0.455    0.290   12.873
  204.750   72.650    0.461    0.290   12.414
  205.000   73.907    0.462    0.288   11.761
  205.250   74.543    0.466    0.285   10.937
  205.500   75.180    0.469    0.281    9.989
  205.750   76.437    0.472    0.279    8.952
  206.000   77.073    0.478    0.263    7.728
  206.250   78.936    0.482    0.261    6.928
  206.500   80.193    0.487    0.267    6.811
  206.750   80.814    0.494    0.267    6.822
  207.000   82.056    0.498    0.265    6.957
  207.250   83.298    0.502    0.262    7.503
  207.500   82.177    0.498    0.261    8.092
  207.750   79.875    0.493    0.261    8.255
  208.000   76.391    0.484    0.260    7.967
  208.250   72.923    0.471    0.262    7.415
  208.500   71.787    0.463    0.268    7.022
  208.750   71.257    0.463    0.275    6.774
  209.000   74.271    0.463    0.275    6.418
  209.250   79.073    0.464    0.244    6.196
  209.500   82.087    0.466    0.229    6.439
  209.750   83.344    0.466    0.234    6.690
  210.000   82.784    0.467    0.237    7.085
  210.250   79.891    0.468    0.243    7.093
  210.500   76.998    0.468    0.264    7.103
  210.750   76.483    0.468    0.270    6.986
  211.000   77.740    0.468    0.271    6.868
  211.250   78.376    0.468    0.266    6.878
  211.500   79.633    0.468    0.259    7.015
  211.750   80.284    0.468    0.255    7.568
  212.000   79.754    0.467    0.252    8.162
  212.250   79.209    0.467    0.249    8.486
  212.500   76.907    0.467    0.246    8.654
  212.750   74.605    0.466    0.256    9.165
  213.000   72.893    0.462    0.281    9.525
  213.250   70.591    0.462    0.293    9.899
  213.500   67.107    0.463    0.310   10.095
  213.750   63.623    0.467    0.327   10.114
  214.000   60.139    0.470    0.338   10.129
  214.250   60.185    0.473    0.332   10.144
  214.500   60.851    0.464    0.326   10.159
  214.750   60.897    0.452    0.328   10.171
  215.000   62.760    0.443    0.334   10.186
  215.250   63.381    0.443    0.339   10.014
  215.500   63.487    0.441    0.336   10.029
  215.750   62.926    0.440    0.334    9.860
  216.000   62.396    0.442    0.332    9.697
  216.250   62.472    0.447    0.330    9.533
  216.500   63.108    0.457    0.327    9.544
  216.750   64.350    0.462    0.323    9.558
  217.000   65.002    0.461    0.322    9.400
  217.250   65.668    0.452    0.318    9.417
  217.500   65.729    0.444    0.316    9.424
  217.750   65.774    0.442    0.313    9.265
  218.000   65.835    0.443    0.314    9.279
  218.250   66.486    0.450    0.315    9.303
  218.500   67.728    0.453    0.316    9.488
  218.750   68.970    0.458    0.319    9.498
  219.000   69.031    0.460    0.321    9.513
  219.250   69.107    0.460    0.323    9.708
  219.500   69.167    0.460    0.327    9.723
  219.750   68.622    0.459    0.324    9.734
  220.000   67.516    0.456    0.317    9.755
  220.250   66.395    0.450    0.303    9.763
  220.500   68.228    0.424    0.213    9.598
  220.750   68.880    0.341    0.165    9.612
  221.000   65.987    0.339    0.104    9.450
  221.250   64.866    0.362    0.181    9.468
  221.500   66.699    0.385    0.233    9.482
  221.750   68.546    0.407    0.295    9.325
  222.000   69.773    0.436    0.304    9.161
  222.250   71.016    0.455    0.307    8.847
  222.500   72.258    0.464    0.308    8.695
  222.750   72.318    0.459    0.311    8.398
  223.000   72.394    0.459    0.312    8.250
  223.250   72.439    0.462    0.312    8.265
  223.500   72.500    0.463    0.313    8.271
  223.750   73.166    0.467    0.316    8.287
  224.000   73.818    0.469    0.319    8.457
  224.250   75.075    0.468    0.321    8.308
  224.500   75.711    0.461    0.321    8.021
  224.750   75.772    0.453    0.317    7.596
  225.000   75.832    0.449    0.310    6.940
  225.250   76.499    0.449    0.291    6.818
  225.500   77.135    0.448    0.285    6.459
  225.750   78.377    0.449    0.276    6.124
  226.000   80.225    0.458    0.277    5.908
  226.250   80.861    0.468    0.280    5.706
  226.500   81.513    0.480    0.274    5.607
  226.750   82.164    0.476    0.249    5.511
