~VERSION INFORMATION
 VERS.                 2.0:   CWLS LOG ASCII STANDARD -VERSION 2.0
 WRAP.                  NO:   ONE LINE PER DEPTH STEP
~WELL INFORMATION BLOCK
#MNEM.UNIT           DATA                    DESCRIPTION OF MNEMONIC
#---------    -------------------            -------------------------------
# Generated from Intellog Unique Number	CC_80_83/WELL/1048
LOC .         00/03-32-080-07W4/0            : Location     - LOCATION
UWI .         00/03-32-080-07W400            : Uwi          - UNIQUE WELL ID
ENTR.         DW                             : Entered      - ENTERED BY
SRVC.         SCHLUMBERGER                   : Scn          - SERVICE COMPANY
STRT.M        195.00                         : top_depth    - START DEPTH
STOP.M        424.75                         : bot_depth    - STOP DEPTH
STEP.M        0.25                           : increment    - STEP LENGTH
 NULL. -999.2500:NULL Value
~CURVE INFORMATION BLOCK
#MNEM UNIT       ERCB CURVE CODE    CURVE DESCRIPTION
#-----------   ------------------   ----------------------------------
DEPT.M        00 001 00 00         : DEPTH        - DEPTH
GR  .API      00 310 00 00         : GR           - GAMMA RAY
DPHI.V/V      00 890 00 00         : PHID         - DENSITY POROSITY (SANDSTONE)
NPHI.V/V      00 330 00 00         : PHIN         - NEUTRON POROSITY (SANDSTONE)
ILD .OHMM     00 120 00 00         : RESD         - DEEP RESISTIVITY (DIL)
~PARAMETER INFORMATION
#MNEM.UNIT           DATA             DESCRIPTION OF MNEMONIC
#---------         -----------     ------------------------------
GL  .M        633.9                : gl           - GROUND LEVEL ELEVATION
EREF.M        637.1                : kb           - ELEVATION OF DEPTH REFERENCE
DATM.M        637.1                : datum        - DATUM ELEVATION
TDD .M        432                  : tdd          - TOTAL DEPTH DRILLER
RUN .         ONE                  : Run          - RUN NUMBER
ENG .         BILL                 : Engineer     - RECORDING ENGINEER
WIT .         JIM                  : Witness      - WITNESSED BY
MUD .         GEL                  : Mud_type     - MUD TYPE
MATR.         SANDSTONE            : Logunit      - NEUTRON MATRIX
TMAX.C        20                   : BHT          - MAXIMUM RECORDED TEMPERATURE
BHTD.M        432                  : BHTDEP       - MAXIMUM RECORDED TEMPERATURE
MATR.         1                    : LOGUNIT      - NEUTRON MATRIX
RMT .C        25                   : MDTP         - TEMPERATURE OF MUD
NEUT.         1                    : NEUTRON      - NEUTRON TYPE
RESI.         0                    : RESIST       - RESISTIVITY TYPE
RMC .OHMM     0.25                 : RMC          - RESISTIVITY OF MUD CAKE
RMF .OHMM     0.25                 : RMF          - RESISTIVITY OF MUD FILTRATE
SUFT.C        15                   : SUFT         - SURFACE TEMPERATURE
~A  DEPTH       GR     PHID     PHIN     RESD
# ...
  238.500   57.748    0.329    0.403   20.155
  238.750   47.784    0.337    0.391   23.574
  239.000   44.821    0.348    0.395   24.621
  239.250   44.286    0.352    0.403   23.930
  239.500   44.538    0.355    0.407   22.384
  239.750   48.244    0.350    0.406   20.643
  240.000   54.009    0.322    0.411   19.765
  240.250   57.983    0.305    0.437   19.842
  240.500   64.135    0.309    0.443   18.817
  240.750   68.656    0.314    0.425   17.823
  241.000   77.467    0.307    0.392   17.449
  241.250   80.700    0.292    0.377   17.247
  241.500   64.532    0.287    0.404   17.590
  241.750   67.219    0.305    0.419   18.466
  242.000   73.159    0.314    0.401   19.198
  242.250   75.972    0.316    0.395   19.565
  242.500   75.492    0.317    0.405   19.947
  242.750   72.886    0.314    0.408   20.092
  243.000   73.195    0.311    0.414   19.007
  243.250   75.427    0.311    0.432   16.779
  243.500   81.556    0.307    0.404   14.302
  243.750   90.616    0.283    0.389   12.232
  244.000  101.007    0.241    0.417   10.690
  244.250  110.884    0.218    0.442    9.374
  244.500  117.800    0.239    0.438    7.943
  244.750  120.927    0.249    0.418    6.590
  245.000  119.009    0.243    0.422    6.120
  245.250  116.332    0.240    0.472    5.864
  245.500  106.648    0.246    0.496    6.039
  245.750   89.296    0.272    0.468    8.577
  246.000   78.149    0.319    0.455   13.384
  246.250   73.739    0.341    0.444   15.993
  246.500   76.603    0.337    0.434   16.894
  246.750   81.558    0.321    0.424   16.535
  247.000   86.246    0.304    0.416   14.809
  247.250   90.557    0.286    0.414   12.458
  247.500   91.745    0.269    0.415   10.827
  247.750   92.026    0.274    0.418   10.135
  248.000  105.970    0.279    0.424    9.404
  248.250  116.676    0.276    0.453    8.713
  248.500  116.631    0.265    0.466    8.227
  248.750  117.101    0.258    0.442    7.888
  249.000  121.473    0.270    0.440    7.781
  249.250  120.780    0.279    0.476    7.772
  249.500  112.622    0.252    0.491    7.905
  249.750  105.697    0.214    0.481    8.575
  250.000  103.590    0.241    0.467    9.784
  250.250   99.606    0.309    0.455   11.384
  250.500   91.721    0.318    0.439   12.882
  250.750   91.820    0.315    0.421   13.233
  251.000   93.644    0.306    0.432   14.784
  251.250   94.499    0.298    0.447   16.699
  251.500   85.370    0.294    0.444   18.088
  251.750   70.601    0.289    0.416   18.582
  252.000   69.351    0.277    0.372   17.578
  252.250   72.176    0.265    0.344   16.262
  252.500   74.050    0.246    0.349   14.486
  252.750   92.860    0.238    0.402   12.437
  253.000  113.081    0.244    0.453   11.094
  253.250  112.046    0.249    0.470   10.799
  253.500  105.315    0.246    0.487   10.611
  253.750  108.750    0.239    0.498    9.835
  254.000  109.767    0.254    0.492    8.849
  254.250  102.515    0.267    0.481    8.420
  254.500   88.727    0.214    0.476    8.799
  254.750   76.411    0.136    0.445    9.313
  255.000   76.122    0.159    0.381    9.261
  255.250   85.433    0.253    0.382    9.117
  255.500   91.820    0.292    0.422    8.889
  255.750   93.306    0.318    0.469    8.434
  256.000   87.538    0.351    0.486    7.862
  256.250   81.745    0.372    0.460    7.406
  256.500   83.588    0.374    0.443    7.195
  256.750   70.941    0.304    0.455    7.207
  257.000   60.418    0.306    0.457    7.189
  257.250   50.410    0.414    0.460    8.510
  257.500   45.623    0.520    0.529   10.558
  257.750   51.373    0.516    0.617   13.037
  258.000   57.484    0.410    0.569   17.208
  258.250   62.492    0.334    0.420   20.819
  258.500   63.719    0.336    0.408   22.412
  258.750   63.956    0.355    0.449   22.676
  259.000   62.761    0.356    0.438   22.502
  259.250   59.363    0.351    0.410   22.048
  259.500   57.489    0.348    0.415   21.321
  259.750   57.433    0.357    0.441   20.623
  260.000   57.332    0.364    0.418   20.183
  260.250   55.671    0.361    0.393   20.117
  260.500   55.408    0.342    0.402   20.034
  260.750   58.011    0.331    0.417   19.633
  261.000   59.330    0.357    0.414   18.975
  261.250   58.109    0.371    0.412   18.015
  261.500   59.635    0.374    0.422   17.869
  261.750   61.372    0.374    0.420   17.765
  262.000   65.448    0.372    0.432   17.467
  262.250   72.121    0.365    0.456   17.094
  262.500   72.953    0.356    0.436   16.244
  262.750   67.755    0.345    0.423   15.494
  263.000   64.595    0.343    0.413   14.536
  263.250   64.052    0.359    0.395   13.794
  263.500   63.085    0.372    0.407   12.975
  263.750   63.570    0.374    0.442   11.993
  264.000   67.354    0.379    0.439   11.454
  264.250   67.000    0.385    0.451   10.713
  264.500   65.877    0.388    0.461   10.411
  264.750   62.330    0.380    0.463   10.367
  265.000   63.971    0.363    0.478   10.489
  265.250   67.385    0.354    0.490   11.243
  265.500   59.275    0.353    0.458   12.619
  265.750   57.828    0.352    0.423   13.553
  266.000   58.544    0.349    0.426   13.675
  266.250   61.586    0.344    0.447   13.682
  266.500   65.447    0.339    0.438   14.191
  266.750   65.841    0.340    0.431   16.249
  267.000   61.737    0.318    0.424   20.101
  267.250   52.668    0.215    0.246   22.447
  267.500   42.774    0.127    0.179   22.143
  267.750   38.326    0.153    0.256   21.295
  268.000   41.437    0.270    0.341   20.487
  268.250   48.128    0.356    0.385   18.995
  268.500   53.657    0.342    0.423   17.208
  268.750   59.124    0.332    0.448   15.774
  269.000   65.865    0.338    0.451   15.420
  269.250   63.847    0.348    0.441   14.954
  269.500   58.635    0.354    0.432   15.673
  269.750   58.620    0.361    0.433   18.479
  270.000   58.599    0.369    0.441   21.717
  270.250   60.120    0.374    0.432   26.026
  270.500   61.193    0.379    0.424   29.775
  270.750   60.171    0.389    0.441   31.547
  271.000   57.342    0.396    0.460   29.215
  271.250   56.371    0.395    0.456   23.852
  271.500   60.440    0.387    0.448   19.706
  271.750   64.528    0.377    0.471   16.674
  272.000   63.434    0.373    0.487   15.055
  272.250   61.162    0.374    0.473   14.447
  272.500   59.901    0.376    0.450   14.612
  272.750   58.172    0.371    0.444   15.066
  273.000   56.701    0.353    0.450   15.017
  273.250   58.265    0.343    0.463   14.809
  273.500   64.158    0.340    0.467   14.215
  273.750   66.294    0.344    0.464   13.424
  274.000   63.468    0.353    0.462   13.047
  274.250   60.501    0.360    0.460   13.119
  274.500   59.163    0.364    0.459   13.107
  274.750   60.623    0.371    0.458   13.115
  275.000   62.124    0.364    0.459   12.986
  275.250   61.845    0.344    0.467   12.582
  275.500   60.404    0.335    0.469   12.325
  275.750   58.829    0.346    0.448   12.364
  276.000   58.525    0.353    0.424   12.364
  276.250   61.694    0.355    0.446   12.583
  276.500   62.569    0.359    0.438   12.575
  276.750   59.194    0.357    0.425   12.868
  277.000   57.158    0.351    0.437   13.787
  277.250   59.849    0.346    0.458   14.948
  277.500   63.467    0.346    0.469   15.910
  277.750   64.624    0.356    0.456   16.481
  278.000   59.280    0.368    0.441   16.590
  278.250   54.073    0.375    0.430   16.445
  278.500   52.677    0.375    0.426   16.799
  278.750   55.074    0.373    0.427   17.688
  279.000   60.348    0.371    0.425   18.222
  279.250   61.167    0.374    0.432   18.517
  279.500   60.079    0.381    0.474   18.851
  279.750   59.388    0.385    0.487   18.962
  280.000   58.822    0.380    0.463   18.958
  280.250   58.515    0.368    0.440   18.893
  280.500   59.089    0.361    0.422   18.219
  280.750   58.029    0.362    0.425   16.824
  281.000   52.697    0.366    0.430   15.253
  281.250   53.767    0.367    0.426   11.645
  281.500   61.732    0.357    0.417    7.848
  281.750   68.105    0.337    0.419    6.314
