~VERSION INFORMATION
 VERS.                 2.0:   CWLS LOG ASCII STANDARD -VERSION 2.0
 WRAP.                  NO:   ONE LINE PER DEPTH STEP
~WELL INFORMATION BLOCK
#MNEM.UNIT           DATA                    DESCRIPTION OF MNEMONIC
#---------    -------------------            -------------------------------
# Generated from Intellog Unique Number	CS_71_72/WELL/782
WELL.         AEC IPIATIK KIRBY              : Well_name    - WELL
LOC .         00/06-30-071-06W4/0            : Location     - LOCATION
UWI .         00/06-30-071-06W4/0            : Uwi          - UNIQUE WELL ID
ENTR.         SP                             : Entered      - ENTERED BY
SRVC.         SCHLUMBERGER                   : Scn          - SERVICE COMPANY
STRT.M        300                            : top_depth    - START DEPTH
STOP.M        525                            : bot_depth    - STOP DEPTH
STEP.M        0.25                           : increment    - STEP LENGTH
 NULL. -999.2500:NULL Value
~CURVE INFORMATION BLOCK
#MNEM UNIT       ERCB CURVE CODE    CURVE DESCRIPTION
#-----------   ------------------   ----------------------------------
DEPT.M        00 001 00 00         : DEPTH        - DEPTH
ILD .OHMM     00 120 00 00         : RESD         - DEEP RESISTIVITY (DIL)
DPHI.V/V      00 890 00 00         : PHID         - DENSITY POROSITY (LIMESTONE)
NPHI.V/V      00 330 00 00         : PHIN         - NEUTRON POROSITY (LIMESTONE)
GR  .API      00 310 00 00         : GR           - GAMMA RAY
~PARAMETER INFORMATION
#MNEM.UNIT           DATA             DESCRIPTION OF MNEMONIC
#---------         -----------     ------------------------------
GL  .M        660.1                : gl           - GROUND LEVEL ELEVATION
EREF.M        665.16               : kb           - ELEVATION OF DEPTH REFERENCE
DATM.M        660.1                : datum        - DATUM ELEVATION
TDD .M        548                  : tdd          - TOTAL DEPTH DRILLER
RUN .         ONE                  : Run          - RUN NUMBER
ENG .         BILL                 : Engineer     - RECORDING ENGINEER
WIT .         JIM                  : Witness      - WITNESSED BY
MUD .         GEL                  : Mud_type     - MUD TYPE
MATR.         LIMESTONE            : Logunit      - NEUTRON MATRIX
TMAX.C        19                   : BHT          - MAXIMUM RECORDED TEMPERATURE
BHTD.M        548                  : BHTDEP       - MAXIMUM RECORDED TEMPERATURE
MATR.         1                    : LOGUNIT      - NEUTRON MATRIX
RMT .C        25                   : MDTP         - TEMPERATURE OF MUD
NEUT.         1                    : NEUTRON      - NEUTRON TYPE
RESI.         0                    : RESIST       - RESISTIVITY TYPE
RMC .OHMM     0.25                 : RMC          - RESISTIVITY OF MUD CAKE
RMF .OHMM     0.25                 : RMF          - RESISTIVITY OF MUD FILTRATE
SUFT.C        15                   : SUFT         - SURFACE TEMPERATURE
~A  DEPTH     RESD     PHID     PHIN       GR
  300.000    3.196    0.242    0.522  100.450
  300.250    3.253    0.228    0.533   96.711
  300.500    3.295    0.225    0.544   93.880
  300.750    3.308    0.235    0.559   92.508
  301.000    3.399    0.245    0.540   95.084
  301.250    3.511    0.229    0.528  102.701
  301.500    3.682    0.214    0.517  107.463
  301.750    3.862    0.209    0.527  109.067
  302.000    4.073    0.217    0.534  102.475
  302.250    4.224    0.178    0.510   97.458
  302.500    4.251    0.152    0.498   93.534
  302.750    4.222    0.197    0.496   98.052
  303.000    4.093    0.224    0.498  102.331
  303.250    3.946    0.226    0.489  102.114
  303.500    3.761    0.210    0.481   99.406
  303.750    3.558    0.208    0.507   96.945
  304.000    3.397    0.225    0.533   95.809
  304.250    3.331    0.249    0.545   94.690
  304.500    3.321    0.264    0.535   94.714
  304.750    3.361    0.265    0.527   98.983
  305.000    3.453    0.250    0.542  101.132
  305.250    3.554    0.235    0.530   97.515
  305.500    3.707    0.231    0.512   97.539
  305.750    3.808    0.233    0.499  103.760
  306.000    3.811    0.224    0.490  100.565
  306.250    3.857    0.222    0.498   96.217
  306.500    4.008    0.229    0.510   93.085
  306.750    4.071    0.201    0.505  102.948
  307.000    4.021    0.175    0.490  109.414
  307.250    3.898    0.204    0.480  104.698
  307.500    3.772    0.227    0.494   97.984
  307.750    3.697    0.241    0.511   99.041
  308.000    3.652    0.238    0.533   98.034
  308.250    3.787    0.236    0.525   95.449
  308.500    4.330    0.225    0.510   93.837
  308.750    5.256    0.220    0.498   94.039
  309.000    6.332    0.222    0.485   91.150
  309.250    7.239    0.248    0.469   84.434
  309.500    7.882    0.279    0.450   77.536
  309.750    8.205    0.326    0.410   73.066
  310.000    8.366    0.377    0.477   70.419
  310.250    8.807    0.453    0.549   72.204
  310.500    9.626    0.367    0.625   63.122
  310.750   10.540    0.310    0.482   50.333
  311.000   11.455    0.277    0.406   40.700
  311.250   12.356    0.255    0.296   50.139
  311.500   12.412    0.238    0.319   60.611
  311.750   11.525    0.292    0.352   58.934
  312.000   11.005    0.313    0.345   49.548
  312.250   10.588    0.296    0.329   51.574
  312.500   10.402    0.255    0.350   78.930
  312.750   10.691    0.230    0.397   85.391
  313.000   10.834    0.309    0.428   60.820
  313.250   11.799    0.330    0.392   45.116
  313.500   12.349    0.348    0.368   37.307
  313.750   12.711    0.323    0.360   47.778
  314.000   12.414    0.306    0.375   52.965
  314.250   11.723    0.316    0.388   54.510
  314.500   11.385    0.319    0.397   60.910
  314.750   11.120    0.285    0.402   74.295
  315.000   10.699    0.252    0.384   82.520
  315.250   10.065    0.243    0.393   87.100
  315.500    9.504    0.217    0.383   90.832
  315.750    9.110    0.196    0.389   94.619
  316.000    9.329    0.182    0.421   97.863
  316.250    9.437    0.195    0.444   95.521
  316.500    9.971    0.229    0.455   90.932
  316.750   10.380    0.249    0.461   87.675
  317.000   10.684    0.263    0.443   83.697
  317.250   10.935    0.272    0.425   85.114
  317.500   11.214    0.282    0.411   87.993
  317.750   11.435    0.292    0.420   89.475
  318.000   11.529    0.302    0.417   89.197
  318.250   11.517    0.295    0.407   87.706
  318.500   11.461    0.292    0.412   82.933
  318.750   11.687    0.303    0.432   77.794
  319.000   11.630    0.314    0.439   71.264
  319.250   11.380    0.326    0.437   68.613
  319.500   11.283    0.316    0.421   76.170
  319.750   11.207    0.283    0.408   82.390
  320.000   11.111    0.245    0.396   83.749
  320.250   11.057    0.292    0.416   79.281
  320.500   10.983    0.307    0.413   84.894
  320.750   10.930    0.307    0.405   95.547
  321.000   10.877    0.292    0.427  102.012
  321.250   10.946    0.283    0.441  106.894
  321.500   11.100    0.294    0.446  102.484
  321.750   11.298    0.309    0.416   91.578
  322.000   11.650    0.299    0.400   88.687
  322.250   12.173    0.272    0.392   77.963
  322.500   12.694    0.250    0.396   67.421
  322.750   12.283    0.237    0.392   59.613
  323.000   11.256    0.212    0.288   52.652
  323.250   10.142    0.173    0.251   63.913
  323.500    8.986    0.193    0.281   82.157
  323.750    8.173    0.197    0.328   92.811
  324.000    7.406    0.156    0.405   98.301
  324.250    6.837    0.124    0.461   98.508
  324.500    6.301    0.104    0.477  102.483
  324.750    5.774    0.128    0.487  110.644
  325.000    5.331    0.173    0.496  116.686
  325.250    4.941    0.186    0.498  120.108
  325.500    4.605    0.182    0.493  121.714
  325.750    4.299    0.157    0.518  119.429
  326.000    4.052    0.157    0.535  121.034
  326.250    3.764    0.197    0.550  117.900
  326.500    3.668    0.231    0.528  120.118
  326.750    3.496    0.248    0.511  121.898
  327.000    3.440    0.248    0.527  122.348
  327.250    3.456    0.242    0.547  115.631
  327.500    3.498    0.252    0.534  110.251
  327.750    3.620    0.260    0.517  107.180
  328.000    3.797    0.270    0.507  110.909
  328.250    3.997    0.262    0.500  113.486
  328.500    4.130    0.234    0.508  107.744
  328.750    4.315    0.210    0.519  103.939
  329.000    4.585    0.196    0.495  101.110
  329.250    4.900    0.193    0.463   96.642
  329.500    5.148    0.200    0.440   93.023
  329.750    5.349    0.211    0.416   95.781
  330.000    5.313    0.185    0.431  101.150
  330.250    4.915    0.170    0.461  108.044
  330.500    4.512    0.210    0.483  111.528
  330.750    4.189    0.234    0.494  113.919
  331.000    3.993    0.243    0.506  114.671
  331.250    3.959    0.235    0.491  114.759
  331.500    4.060    0.225    0.464  114.663
  331.750    4.242    0.209    0.446  112.804
  332.000    4.516    0.206    0.460  108.214
  332.250    4.728    0.215    0.479  101.559
  332.500    4.894    0.211    0.451   95.630
  332.750    4.934    0.210    0.419   97.418
  333.000    4.801    0.224    0.416  101.030
  333.250    4.585    0.237    0.450  104.150
  333.500    4.362    0.246    0.472  106.543
  333.750    4.204    0.242    0.494  108.274
  334.000    4.176    0.223    0.497  109.023
  334.250    4.396    0.231    0.513  109.349
  334.500    4.760    0.240    0.507   99.963
  334.750    5.183    0.246    0.483   91.363
  335.000    5.570    0.221    0.449   84.829
  335.250    5.963    0.193    0.410   89.046
  335.500    6.184    0.182    0.410   96.842
  335.750    6.189    0.188    0.424  103.612
  336.000    5.790    0.198    0.456  107.949
  336.250    5.457    0.212    0.472  111.857
  336.500    5.143    0.210    0.487  103.748
  336.750    5.024    0.184    0.468   98.243
  337.000    5.036    0.184    0.417   93.471
  337.250    5.145    0.214    0.444   98.962
  337.500    5.406    0.235    0.490   90.547
  337.750    5.864    0.263    0.516   80.126
  338.000    6.410    0.296    0.367   60.230
  338.250    6.722    0.269    0.352   76.412
  338.500    6.919    0.245    0.406   88.885
  338.750    6.873    0.224    0.437  100.024
  339.000    6.827    0.225    0.458  105.331
  339.250    6.844    0.238    0.423   95.458
  339.500    7.300    0.227    0.406   81.820
  339.750    8.054    0.257    0.424   74.494
  340.000    8.902    0.285    0.439   68.570
  340.250    9.675    0.320    0.426   59.727
  340.500   10.320    0.342    0.420   51.919
  340.750   10.823    0.346    0.405   49.210
  341.000   11.223    0.346    0.404   46.990
  341.250   11.466    0.346    0.414   44.709
  341.500   11.671    0.332    0.404   42.732
  341.750   11.968    0.310    0.398   41.780
  342.000   12.317    0.294    0.399   41.989
  342.250   12.870    0.286    0.405   42.013
  342.500   13.473    0.267    0.384   41.188
  342.750   13.945    0.253    0.355   39.632
  343.000   14.115    0.287    0.337   39.845
  343.250   13.915    0.307    0.374   40.534
