~VERSION INFORMATION
 VERS.                 2.0:   CWLS LOG ASCII STANDARD -VERSION 2.0
 WRAP.                  NO:   ONE LINE PER DEPTH STEP
~WELL INFORMATION BLOCK
#MNEM.UNIT           DATA                    DESCRIPTION OF MNEMONIC
#---------    -------------------            -------------------------------
# Generated from Intellog Unique Number	CS_77_79/WELL/896
WELL.         CANADIAN WORLDWIDE ENERGY      : Well_name    - WELL
LOC .         00/07-13-077-06W4/0            : Location     - LOCATION
UWI .         00/07-13-077-06W4/0            : Uwi          - UNIQUE WELL ID
ENTR.         SP                             : Entered      - ENTERED BY
SRVC.         SCHLUMBERGER                   : Scn          - SERVICE COMPANY
STRT.M        150                            : top_depth    - START DEPTH
STOP.M        390                            : bot_depth    - STOP DEPTH
STEP.M        0.25                           : increment    - STEP LENGTH
 NULL. -999.2500:NULL Value
~CURVE INFORMATION BLOCK
#MNEM UNIT       ERCB CURVE CODE    CURVE DESCRIPTION
#-----------   ------------------   ----------------------------------
DEPT.M        00 001 00 00         : DEPTH        - DEPTH
ILD .OHMM     00 120 00 00         : RESD         - DEEP RESISTIVITY (DIL)
DPHI.V/V      00 890 00 00         : PHID         - DENSITY POROSITY (LIMESTONE)
NPHI.V/V      00 330 00 00         : PHIN         - NEUTRON POROSITY (LIMESTONE)
GR  .API      00 310 00 00         : GR           - GAMMA RAY
~PARAMETER INFORMATION
#MNEM.UNIT           DATA             DESCRIPTION OF MNEMONIC
#---------         -----------     ------------------------------
GL  .M        563.3                : gl           - GROUND LEVEL ELEVATION
EREF.M        566.3                : kb           - ELEVATION OF DEPTH REFERENCE
DATM.M        563.3                : datum        - DATUM ELEVATION
TDD .M        395                  : tdd          - TOTAL DEPTH DRILLER
RUN .         ONE                  : Run          - RUN NUMBER
ENG .         BILL                 : Engineer     - RECORDING ENGINEER
WIT .         JIM                  : Witness      - WITNESSED BY
MUD .         GEL                  : Mud_type     - MUD TYPE
MATR.         LIMESTONE            : Logunit      - NEUTRON MATRIX
TMAX.C        23                   : BHT          - MAXIMUM RECORDED TEMPERATURE
BHTD.M        395                  : BHTDEP       - MAXIMUM RECORDED TEMPERATURE
MATR.         1                    : LOGUNIT      - NEUTRON MATRIX
RMT .C        25                   : MDTP         - TEMPERATURE OF MUD
NEUT.         1                    : NEUTRON      - NEUTRON TYPE
RESI.         0                    : RESIST       - RESISTIVITY TYPE
RMC .OHMM     0.25                 : RMC          - RESISTIVITY OF MUD CAKE
RMF .OHMM     0.25                 : RMF          - RESISTIVITY OF MUD FILTRATE
SUFT.C        15                   : SUFT         - SURFACE TEMPERATURE
~A  DEPTH     RESD     PHID     PHIN       GR
# ...
  324.000   12.144    0.307    0.371   54.489
  324.250   13.874    0.296    0.390   53.258
  324.500   15.846    0.285    0.396   52.654
  324.750   18.445    0.289    0.391   52.044
  325.000   21.471    0.302    0.385   50.822
  325.250   23.170    0.304    0.379   50.209
  325.500   24.543    0.299    0.374   50.219
  325.750   24.563    0.306    0.382   52.093
  326.000   22.799    0.313    0.380   56.444
  326.250   21.976    0.317    0.376   58.934
  326.500   21.578    0.311    0.382   63.906
  326.750   20.805    0.302    0.394   65.158
  327.000   20.819    0.297    0.399   62.690
  327.250   20.445    0.290    0.407   61.462
  327.500   20.457    0.281    0.403   60.235
  327.750   20.477    0.265    0.394   59.011
  328.000   20.110    0.200    0.392   59.642
  328.250   19.751    0.183    0.379   60.893
  328.500   18.680    0.239    0.375   64.004
  328.750   17.666    0.286    0.376   67.737
  329.000   14.921    0.304    0.392   65.269
  329.250   12.599    0.308    0.402   65.281
  329.500   10.053    0.301    0.400   67.774
  329.750    8.333    0.285    0.397   72.125
  330.000    7.589    0.277    0.406   80.820
  330.250    7.314    0.262    0.409   85.168
  330.500    7.184    0.265    0.410   88.278
  330.750    7.189    0.265    0.411   88.291
  331.000    7.196    0.248    0.417   83.347
  331.250    7.338    0.237    0.432   84.599
  331.500    7.628    0.248    0.438   87.087
  331.750    7.780    0.260    0.427   86.479
  332.000    8.088    0.265    0.415   83.394
  332.250    8.247    0.254    0.417   80.926
  332.500    8.904    0.243    0.421   79.082
  332.750    9.251    0.260    0.407   79.093
  333.000   10.774    0.268    0.399   77.863
  333.250   11.627    0.275    0.406   76.020
  333.500   12.310    0.278    0.410   72.932
  333.750   13.540    0.277    0.402   69.222
  334.000   14.611    0.277    0.392   62.422
  334.250   16.071    0.282    0.389   59.334
  334.500   18.016    0.287    0.389   56.864
  334.750   19.814    0.290    0.390   53.158
  335.000   20.206    0.289    0.389   52.549
  335.250   19.474    0.284    0.384   55.042
  335.500   16.456    0.274    0.386   62.492
  335.750   16.154    0.263    0.392   67.463
  336.000   17.111    0.262    0.385   67.478
  336.250   19.914    0.273    0.382   67.489
  336.500   23.620    0.283    0.389   63.162
  336.750   26.980    0.288    0.382   53.257
  337.000   29.685    0.288    0.370   46.451
  337.250   30.265    0.289    0.361   41.502
  337.500   26.053    0.293    0.364   43.996
  337.750   23.722    0.295    0.375   53.308
  338.000   21.602    0.291    0.379   58.276
  338.250   20.049    0.283    0.382   66.968
  338.500   19.692    0.264    0.380   74.418
  338.750   20.857    0.269    0.396   73.190
  339.000   21.679    0.270    0.409   68.244
  339.250   22.534    0.225    0.417   68.875
  339.500   22.551    0.169    0.412   67.029
  339.750   20.926    0.205    0.404   72.002
  340.000   17.349    0.233    0.401   76.970
  340.250   15.801    0.233    0.386   88.763
  340.500   15.224    0.220    0.371   93.112
  340.750   14.397    0.205    0.356   95.604
  341.000   13.874    0.193    0.352   96.855
  341.250   14.699    0.206    0.366   95.008
  341.500   16.790    0.254    0.410   82.003
  341.750   19.912    0.291    0.436   69.000
  342.000   23.616    0.314    0.451   55.375
  342.250   24.544    0.313    0.426   50.429
  342.500   21.532    0.292    0.394   58.498
  342.750   20.747    0.252    0.386   81.445
  343.000   19.998    0.233    0.385   83.937
  343.250   19.646    0.254    0.389   78.990
  343.500   19.654    0.280    0.397   70.945
  343.750   19.672    0.280    0.394   76.538
  344.000   19.695    0.249    0.395   85.846
  344.250   19.337    0.232    0.404   78.422
  344.500   19.357    0.237    0.411   74.714
  344.750   19.368    0.251    0.415   75.349
  345.000   20.130    0.273    0.417   71.639
  345.250   20.927    0.292    0.411   67.313
  345.500   21.748    0.278    0.393   64.846
  345.750   22.614    0.292    0.400   64.238
  346.000   23.056    0.303    0.415   63.632
  346.250   24.422    0.311    0.405   72.943
  346.500   25.383    0.297    0.391   82.251
  346.750   26.882    0.270    0.385   79.166
  347.000   28.465    0.247    0.395   71.741
  347.250   35.075    0.287    0.405   66.172
  347.500   37.138    0.308    0.408   57.506
  347.750   37.177    0.319    0.401   51.320
  348.000   35.825    0.316    0.385   55.673
  348.250   28.053    0.298    0.368   65.601
  348.500   21.158    0.271    0.362   81.112
  348.750   18.908    0.256    0.353   84.841
  349.000   17.548    0.258    0.349   83.614
  349.250   17.563    0.260    0.350   86.106
  349.500   18.604    0.250    0.357   82.401
  349.750   20.460    0.256    0.366   76.215
  350.000   20.157    0.274    0.383   68.855
  350.250   21.737    0.290    0.394   65.179
  350.500   24.802    0.305    0.407   60.888
  350.750   28.298    0.313    0.412   59.674
  351.000   32.288    0.319    0.411   60.294
  351.250   35.480    0.291    0.386   69.529
  351.500   37.557    0.293    0.381   67.694
  351.750   37.568    0.307    0.384   62.173
  352.000   36.888    0.320    0.385   52.963
  352.250   36.217    0.289    0.386   57.893
  352.500   33.619    0.268    0.385   64.053
  352.750   33.004    0.267    0.387   56.688
  353.000   34.936    0.292    0.400   48.706
  353.250   36.971    0.306    0.410   45.030
  353.500   41.410    0.326    0.406   51.191
  353.750   43.827    0.313    0.387   58.576
  354.000   46.380    0.301    0.382   56.746
  354.250   50.968    0.321    0.400   49.992
  354.500   54.965    0.338    0.408   41.398
  354.750   57.100    0.347    0.411   37.721
  355.000   61.589    0.353    0.411   39.575
  355.250   63.963    0.343    0.418   41.432
  355.500   70.295    0.321    0.423   45.131
  355.750   71.654    0.317    0.425   48.833
  356.000   66.498    0.332    0.424   45.157
  356.250   65.303    0.337    0.415   45.166
  356.500   67.820    0.323    0.420   50.096
  356.750   70.456    0.317    0.410   50.107
  357.000   70.489    0.329    0.418   52.579
  357.250   67.929    0.329    0.423   56.893
  357.500   66.691    0.310    0.425   60.592
  357.750   64.258    0.306    0.412   62.449
  358.000   59.636    0.304    0.410   61.845
  358.250   57.466    0.305    0.413   61.244
  358.500   56.433    0.305    0.414   60.640
  358.750   56.451    0.316    0.414   57.574
  359.000   57.548    0.323    0.411   56.356
  359.250   55.455    0.328    0.415   61.288
  359.500   47.751    0.297    0.397   66.837
  359.750   43.489    0.281    0.393   69.919
  360.000   38.877    0.270    0.387   72.387
  360.250   36.081    0.265    0.382   74.241
  360.500   34.767    0.274    0.382   66.876
  360.750   35.443    0.282    0.388   45.986
  361.000   40.439    0.297    0.389   39.234
  361.250   54.629    0.311    0.382   38.017
  361.500   85.754    0.312    0.378   38.030
  361.750  111.575    0.317    0.374   36.809
  362.000  124.935    0.320    0.385   38.054
  362.250  111.684    0.325    0.393   44.212
  362.500   94.384    0.314    0.390   51.600
  362.750   90.936    0.302    0.391   49.765
  363.000   89.282    0.317    0.396   43.630
  363.250   92.741    0.329    0.395   43.026
  363.500   98.162    0.342    0.395   42.422
  363.750  112.011    0.355    0.422   39.976
  364.000  123.092    0.366    0.437   40.601
  364.250  130.259    0.370    0.445   46.762
  364.500  108.017    0.367    0.448   51.691
  364.750   89.577    0.352    0.442   54.163
  365.000   78.580    0.340    0.439   55.403
  365.250   75.730    0.343    0.434   48.651
  365.500   75.782    0.351    0.443   43.129
  365.750   74.392    0.359    0.443   44.984
  366.000   69.047    0.356    0.428   58.522
  366.250   64.075    0.347    0.417   62.836
  366.500   58.361    0.333    0.408   62.235
  366.750   49.315    0.308    0.417   59.786
  367.000   44.915    0.319    0.430   56.108
  367.250   42.476    0.322    0.424   53.046
