~VERSION INFORMATION
 VERS.                 2.0:   CWLS LOG ASCII STANDARD -VERSION 2.0
 WRAP.                  NO:   ONE LINE PER DEPTH STEP
~WELL INFORMATION BLOCK
#MNEM.UNIT           DATA                    DESCRIPTION OF MNEMONIC
#---------    -------------------            -------------------------------
# Generated from Intellog Unique Number	CW_73_75/WELL/694
WELL.         HB  MARTEN HILLS 07-11         : Well_name    - WELL
LOC .         00/07-11-074-01W5/0            : Location     - LOCATION
UWI .         00/07-11-074-01W5/0            : Uwi          - UNIQUE WELL ID
ENTR.         JAYE                           : Entered      - ENTERED BY
SRVC.         SCHLUMBERGER                   : Scn          - SERVICE COMPANY
DATE.         22 SEPT 73                     : Date         - LOG DATE
STRT.M        435.864                        : top_depth    - START DEPTH
STOP.M        673.614                        : bot_depth    - STOP DEPTH
STEP.M        0.25                           : increment    - STEP LENGTH
 NULL. -999.2500:NULL Value
~CURVE INFORMATION BLOCK
#MNEM UNIT       ERCB CURVE CODE    CURVE DESCRIPTION
#-----------   ------------------   ----------------------------------
DEPT.M        00 001 00 00         : DEPTH        - DEPTH
ILD .OHMM     00 120 00 00         : RESD         - DEEP RESISTIVITY (DIL)
NPHI.V/V      00 330 00 00         : PHIN         - NEUTRON POROSITY (SANDSTONE)
DPHI.V/V      00 890 00 00         : PHID         - DENSITY POROSITY (SANDSTONE)
CALI.MM       00 280 01 00         : CAL          - CALIPER
GR  .API      00 310 00 00         : GR           - GAMMA RAY
~PARAMETER INFORMATION
#MNEM.UNIT           DATA             DESCRIPTION OF MNEMONIC
#---------         -----------     ------------------------------
GL  .M        678.18               : gl           - GROUND LEVEL ELEVATION
EREF.M        681.838              : kb           - ELEVATION OF DEPTH REFERENCE
DATM.M        678.18               : datum        - DATUM ELEVATION
TDD .M        670.56               : tdd          - TOTAL DEPTH DRILLER
RUN .         ONE                  : Run          - RUN NUMBER
BASE.         EDM                  : Branch       - HOME BASE OF LOGGING UNIT
MATR.         SANDSTONE            : Logunit      - NEUTRON MATRIX
TMAX.C        30                   : BHT          - MAXIMUM RECORDED TEMPERATURE
BHTD.M        670.865              : BHTDEP       - MAXIMUM RECORDED TEMPERATURE
RMT .C        -17.7778             : MDTP         - TEMPERATURE OF MUD
MUDD.KG/M     0                    : MWT          - MUD DENSITY
NEUT.         1                    : NEUTRON      - NEUTRON TYPE
RESI.         0                    : RESIST       - RESISTIVITY TYPE
RM  .OHMM     0                    : RM           - RESISTIVITY OF MUD
RMC .OHMM     0                    : RMC          - RESISTIVITY OF MUD CAKE
RMF .OHMM     0                    : RMF          - RESISTIVITY OF MUD FILTRATE
SUFT.C        -17.7778             : SUFT         - SURFACE TEMPERATURE
~A  DEPTH     RESD     PHIN     PHID      CAL       GR
# ...
  654.864   11.136    0.165    0.089  205.622   37.467
  655.114   15.860    0.135    0.038  205.492   24.647
  655.364   21.535    0.136    0.023  204.847   23.290
  655.614   31.873    0.145    0.036  204.410   25.836
  655.864   36.763    0.135    0.053  205.519   31.613
  656.114   33.781    0.108    0.018  207.352   38.245
  656.364   20.549    0.128   -0.004  208.359   57.743
  656.614   16.098    0.156    0.034  208.436   89.010
  656.864   11.634    0.328    0.106  208.207  105.153
  657.114    9.351    0.399    0.136  207.972  103.125
  657.364    8.996    0.355    0.097  208.049   96.160
  657.614   10.319    0.293    0.078  208.332   84.681
  657.864   11.794    0.263    0.037  208.723   76.129
  658.114   13.906    0.235    0.017  209.111   64.650
  658.364   16.306    0.238    0.027  209.702   61.586
  658.614   19.086    0.258    0.039  210.192   61.876
  658.864   17.666    0.280    0.050  210.789   61.495
  659.114   16.963    0.310    0.044  211.071   60.199
  659.364   17.209    0.332    0.056  211.356   53.415
  659.614   17.913    0.207    0.042  211.436   46.572
  659.864   19.556    0.176    0.006  211.822   39.848
  660.114   21.904    0.184   -0.022  212.514   41.724
  660.364   21.898    0.232   -0.005  212.806   53.782
  660.614   18.326    0.230    0.020  213.398   57.304
  660.864   12.218    0.222   -0.014  214.094   63.630
  661.114    8.782    0.289   -0.008  215.101   86.970
  661.364    6.607    0.432    0.031  215.902  108.053
  661.614    5.821    0.476    0.081  216.290  128.160
  661.864    5.156    0.499    0.145  216.367  132.658
  662.114    5.061    0.502    0.170  216.548  132.580
  662.364    5.088    0.439    0.147  216.728  129.700
  662.614    5.162    0.368    0.131  217.012  118.222
  662.864    5.392    0.340    0.087  216.576  106.804
  663.114    5.727    0.288    0.073  216.139   94.411
  663.364    6.229    0.262    0.085  216.111   88.906
  663.614    6.544    0.299    0.090  216.498   91.942
  663.864    6.849    0.368    0.116  217.092  116.806
  664.114    6.637    0.372    0.122  217.274  115.632
  664.364    6.189    0.352    0.113  217.453  106.348
  664.614    5.635    0.338    0.113  217.323   95.235
  664.864    5.206    0.323    0.127  217.200   94.184
  665.114    5.110    0.323    0.091  217.172  103.925
  665.364    5.053    0.354    0.105  216.733  108.666
  665.614    4.817    0.352    0.110  215.264  100.175
  665.864    4.362    0.339    0.102  207.392   88.879
  666.114    3.928    0.331    0.091  207.468   94.656
  666.364    3.683    0.366    0.147  209.096  103.362
  666.614    3.595    0.416    0.127  211.133  103.224
  666.864    3.621    0.443    0.169  212.552  106.381
  667.114    3.213    0.447    0.155  213.563  109.718
  667.364    3.001    0.409   -0.013  214.671  101.960
  667.614    3.023    0.451   -0.029  215.577  107.860
  667.864    3.193    0.492    0.018  215.034  122.844
  668.114    3.311    0.471    0.135  214.285  126.001
  668.364    3.328    0.413    0.062  215.498  121.413
  668.614    3.285    0.369    0.087  217.437  115.970
  668.864    3.225    0.337    0.076  220.198  108.333
  669.114    3.200    0.333    0.085  221.513   99.537
  669.364    3.193    0.336    0.098  221.901   93.912
  669.614    3.193    0.349    0.095  222.083   93.044
  669.864    3.204    0.392    0.093  221.644   94.858
  670.114    3.232    0.459    0.061  220.897  103.441
  670.364    3.255    0.424    0.042  210.650  103.852
  670.614    3.284    0.319    0.046  201.229   86.764
  670.864    3.320    0.267    0.003  202.853   60.528
  671.114    3.356    0.230   -0.006  210.264   51.489
  671.364    3.392    0.179    0.007  208.379   43.242
  671.614    3.428    0.140   -0.010  203.809   37.616
  671.864    3.459    0.131   -0.010  203.268   40.162
  672.114    3.484    0.161   -0.012  203.134   50.697
  672.364    3.483    0.190   -0.013  203.523   58.669
  672.614    3.450    0.207   -0.012  204.225   64.631
  672.864    3.437    0.207   -0.010  205.128   57.420
  673.114    3.423    0.192    0.003  205.926   48.623
  673.364    3.409    0.163    0.022  206.318   42.023
  673.614    3.409    0.148    0.003  206.601   35.728
