~VERSION INFORMATION
 VERS.                 2.0:   CWLS LOG ASCII STANDARD -VERSION 2.0
 WRAP.                  NO:   ONE LINE PER DEPTH STEP
~WELL INFORMATION BLOCK
#MNEM.UNIT           DATA                    DESCRIPTION OF MNEMONIC
#---------    -------------------            -------------------------------
# Generated from Intellog Unique Number	CS_69_70/WELL/662
WELL.         HUSKY OIL OPERATIONS           : Well_name    - WELL
LOC .         00/05-14-069-05W4/0            : Location     - LOCATION
UWI .         00/05-14-069-05W4/0            : Uwi          - UNIQUE WELL ID
ENTR.         J                              : Entered      - ENTERED BY
SRVC.         SCHLUMBERGER                   : Scn          - SERVICE COMPANY
STRT.M        300                            : top_depth    - START DEPTH
STOP.M        575                            : bot_depth    - STOP DEPTH
STEP.M        0.25                           : increment    - STEP LENGTH
 NULL. -999.2500:NULL Value
~CURVE INFORMATION BLOCK
#MNEM UNIT       ERCB CURVE CODE    CURVE DESCRIPTION
#-----------   ------------------   ----------------------------------
DEPT.M        00 001 00 00         : DEPTH        - DEPTH
ILD .OHMM     00 120 00 00         : RESD         - DEEP RESISTIVITY (DIL)
DPHI.V/V      00 890 00 00         : PHID         - DENSITY POROSITY (LIMESTONE)
NPHI.V/V      00 330 00 00         : PHIN         - NEUTRON POROSITY (LIMESTONE)
GR  .API      00 310 00 00         : GR           - GAMMA RAY
~PARAMETER INFORMATION
#MNEM.UNIT           DATA             DESCRIPTION OF MNEMONIC
#---------         -----------     ------------------------------
GL  .M        673.9                : gl           - GROUND LEVEL ELEVATION
EREF.M        677.5                : kb           - ELEVATION OF DEPTH REFERENCE
DATM.M        673.9                : datum        - DATUM ELEVATION
TDD .M        581                  : tdd          - TOTAL DEPTH DRILLER
RUN .         ONE                  : Run          - RUN NUMBER
ENG .         BILL                 : Engineer     - RECORDING ENGINEER
WIT .         JIM                  : Witness      - WITNESSED BY
MUD .         GEL                  : Mud_type     - MUD TYPE
MATR.         LIMESTONE            : Logunit      - NEUTRON MATRIX
TMAX.C        25                   : BHT          - MAXIMUM RECORDED TEMPERATURE
BHTD.M        581                  : BHTDEP       - MAXIMUM RECORDED TEMPERATURE
MATR.         1                    : LOGUNIT      - NEUTRON MATRIX
RMT .C        25                   : MDTP         - TEMPERATURE OF MUD
NEUT.         1                    : NEUTRON      - NEUTRON TYPE
RESI.         0                    : RESIST       - RESISTIVITY TYPE
RMC .OHMM     0.25                 : RMC          - RESISTIVITY OF MUD CAKE
RMF .OHMM     0.25                 : RMF          - RESISTIVITY OF MUD FILTRATE
SUFT.C        15                   : SUFT         - SURFACE TEMPERATURE
~A  DEPTH     RESD     PHID     PHIN       GR
  300.000    2.512    0.281    0.536   95.748
  300.250    2.517    0.280    0.532   96.420
  300.500    2.532    0.280    0.525   93.872
  300.750    2.541    0.282    0.527   92.540
  301.000    2.542    0.286    0.527   94.853
  301.250    2.495    0.290    0.533   92.669
  301.500    2.459    0.296    0.543   90.729
  301.750    2.418    0.299    0.534   93.042
  302.000    2.369    0.300    0.535   94.200
  302.250    2.326    0.299    0.555   91.652
  302.500    2.292    0.303    0.567   93.722
  302.750    2.327    0.305    0.577   96.520
  303.000    2.353    0.303    0.550   95.430
  303.250    2.371    0.302    0.532   92.700
  303.500    2.394    0.300    0.541   90.153
  303.750    2.403    0.300    0.541   88.638
  304.000    2.377    0.298    0.540   88.824
  304.250    2.373    0.295    0.552   89.557
  304.500    2.295    0.293    0.547   89.135
  304.750    2.224    0.296    0.566   91.449
  305.000    2.183    0.298    0.574   92.971
  305.250    2.233    0.299    0.566   92.550
  305.500    2.237    0.296    0.539   90.852
  305.750    2.225    0.296    0.536   90.006
  306.000    2.192    0.297    0.552   93.655
  306.250    2.148    0.311    0.564   95.239
  306.500    2.089    0.316    0.575   95.789
  306.750    2.043    0.320    0.581   94.821
  307.000    2.098    0.309    0.577   93.246
  307.250    2.138    0.305    0.541   92.581
  307.500    2.211    0.308    0.522   92.464
  307.750    2.245    0.303    0.513   92.650
  308.000    2.270    0.295    0.530   93.565
  308.250    2.275    0.290    0.561   94.602
  308.500    2.288    0.288    0.557   95.699
  308.750    2.280    0.284    0.535   96.980
  309.000    2.255    0.284    0.526   96.375
  309.250    2.234    0.300    0.533   94.253
  309.500    2.243    0.304    0.538   92.373
  309.750    2.256    0.294    0.564   89.462
  310.000    2.260    0.288    0.574   87.217
  310.250    2.261    0.286    0.557   86.431
  310.500    2.261    0.285    0.554   87.469
  310.750    2.261    0.279    0.550   89.355
  311.000    2.249    0.274    0.544   90.757
  311.250    2.245    0.274    0.548   90.761
  311.500    2.267    0.276    0.548   91.007
  311.750    2.323    0.275    0.559   91.194
  312.000    2.385    0.279    0.578   89.254
  312.250    2.453    0.283    0.584   87.314
  312.500    2.485    0.274    0.574   85.799
  312.750    2.537    0.268    0.546   84.891
  313.000    2.561    0.269    0.527   85.259
  313.250    2.620    0.275    0.524   88.787
  313.500    2.659    0.280    0.523   90.796
  313.750    2.685    0.276    0.525   92.987
  314.000    2.725    0.271    0.535   95.482
  314.250    2.767    0.268    0.546   97.126
  314.500    2.799    0.267    0.532   97.069
  314.750    2.841    0.268    0.517   96.648
  315.000    2.895    0.269    0.521   96.834
  315.250    2.978    0.267    0.495   97.992
  315.500    2.995    0.259    0.487  100.427
  315.750    3.018    0.249    0.507  101.281
  316.000    3.052    0.240    0.527   97.093
  316.250    3.070    0.242    0.545   93.877
  316.500    3.087    0.226    0.477   91.572
  316.750    3.146    0.217    0.460   91.515
  317.000    3.212    0.235    0.452   93.281
  317.250    3.285    0.245    0.476   94.865
  317.500    3.328    0.250    0.506   94.990
  317.750    3.360    0.251    0.495   93.718
  318.000    3.324    0.250    0.490   93.965
  318.250    3.250    0.250    0.507   94.334
  318.500    3.057    0.249    0.523   93.244
  318.750    2.886    0.254    0.531   94.524
  319.000    2.833    0.258    0.513   97.747
  319.250    2.839    0.258    0.506   95.444
  319.500    2.952    0.252    0.493   92.835
  319.750    3.025    0.248    0.504   96.180
  320.000    3.111    0.245    0.519  101.287
  320.250    3.159    0.249    0.525  103.417
  320.500    3.153    0.255    0.524  101.416
  320.750    3.160    0.261    0.517   97.593
  321.000    3.232    0.255    0.514   93.952
  321.250    3.349    0.223    0.527   90.432
  321.500    3.451    0.206    0.534   87.034
  321.750    3.523    0.195    0.463   84.303
  322.000    3.563    0.222    0.474  102.777
  322.250    3.584    0.248    0.498  109.888
  322.500    3.584    0.260    0.498  102.845
  322.750    3.512    0.267    0.464   97.381
  323.000    3.334    0.261    0.474   94.105
  323.250    3.177    0.253    0.496   94.655
  323.500    3.049    0.249    0.508   94.720
  323.750    3.027    0.245    0.528   93.630
  324.000    3.256    0.203    0.545   91.326
  324.250    3.608    0.137    0.484   88.717
  324.500    3.809    0.137    0.450   86.838
  324.750    4.237    0.168    0.412   88.968
  325.000    4.566    0.191    0.418   91.281
  325.250    5.069    0.208    0.429   88.125
  325.500    5.442    0.213    0.427   84.666
  325.750    5.714    0.216    0.421   84.731
  326.000    5.833    0.216    0.426   82.730
  326.250    5.910    0.214    0.415   79.271
  326.500    6.023    0.212    0.408   83.771
  326.750    5.912    0.209    0.428   86.630
  327.000    5.707    0.208    0.443   85.601
  327.250    5.762    0.215    0.434   83.297
  327.500    5.959    0.232    0.411   79.838
  327.750    6.222    0.240    0.385   76.682
  328.000    6.387    0.227    0.383   74.863
  328.250    6.533    0.227    0.406   77.906
  328.500    6.546    0.221    0.429   82.587
  328.750    6.168    0.210    0.455   90.429
  329.000    5.715    0.203    0.477   92.316
  329.250    5.285    0.199    0.504   93.231
  329.500    5.055    0.211    0.500   94.207
  329.750    4.916    0.219    0.478   94.758
  330.000    4.935    0.220    0.468   95.369
  330.250    5.038    0.222    0.459   95.130
  330.500    5.221    0.226    0.438   93.615
  330.750    5.370    0.218    0.444   91.128
  331.000    5.492    0.212    0.444   90.099
  331.250    5.586    0.207    0.428   91.439
  331.500    5.545    0.209    0.426   93.509
  331.750    5.294    0.210    0.449   97.219
  332.000    5.226    0.208    0.446   97.526
  332.250    5.285    0.205    0.439   96.741
  332.500    5.356    0.202    0.445   96.745
  332.750    5.367    0.200    0.456   98.024
  333.000    5.298    0.200    0.463   99.973
  333.250    5.124    0.210    0.466  100.341
  333.500    4.801    0.215    0.477   98.704
  333.750    4.652    0.213    0.448   94.638
  334.000    4.618    0.208    0.427   91.847
  334.250    4.723    0.200    0.433   91.547
  334.500    4.968    0.199    0.429   89.182
  334.750    5.119    0.199    0.416   94.107
  335.000    5.314    0.203    0.413   99.579
  335.250    5.456    0.202    0.431  102.620
  335.500    5.559    0.203    0.458  104.629
  335.750    5.612    0.210    0.455  101.352
  336.000    5.645    0.212    0.448   97.043
  336.250    5.541    0.199    0.448  100.389
  336.500    5.389    0.196    0.465  103.004
  336.750    5.251    0.204    0.479  104.527
  337.000    5.351    0.220    0.480   98.942
  337.250    5.586    0.233    0.489   88.071
  337.500    6.031    0.255    0.484   80.116
  337.750    6.634    0.183    0.422   75.746
  338.000    7.324    0.136    0.358   84.620
  338.250    7.936    0.109    0.378   95.134
  338.500    8.457    0.170    0.434  101.760
  338.750    8.602    0.213    0.462  107.718
  339.000    8.288    0.254    0.478   95.146
  339.250    7.838    0.319    0.455   79.779
  339.500    7.539    0.337    0.428   68.665
  339.750    7.387    0.340    0.409   59.860
  340.000    7.184    0.339    0.394   53.910
  340.250    7.053    0.343    0.411   70.500
  340.500    6.962    0.341    0.433   75.364
  340.750    6.899    0.334    0.447   79.195
  341.000    6.926    0.328    0.443   79.503
  341.250    7.058    0.329    0.442   75.376
  341.500    7.098    0.334    0.441   70.823
  341.750    7.165    0.339    0.436   67.668
  342.000    7.247    0.342    0.450   67.672
  342.250    7.262    0.342    0.448   70.228
  342.500    7.223    0.335    0.436   72.965
  342.750    7.197    0.326    0.430   76.007
  343.000    7.212    0.318    0.435   77.469
  343.250    7.267    0.313    0.434   74.010
