~VERSION INFORMATION
 VERS.                 2.0:   CWLS LOG ASCII STANDARD -VERSION 2.0
 WRAP.                  NO:   ONE LINE PER DEPTH STEP
~WELL INFORMATION BLOCK
#MNEM.UNIT           DATA                    DESCRIPTION OF MNEMONIC
#---------    -------------------            -------------------------------
# Generated from Intellog Unique Number	CW_73_75/WELL/694
WELL.         HB  MARTEN HILLS 07-11         : Well_name    - WELL
LOC .         00/07-11-074-01W5/0            : Location     - LOCATION
UWI .         00/07-11-074-01W5/0            : Uwi          - UNIQUE WELL ID
ENTR.         JAYE                           : Entered      - ENTERED BY
SRVC.         SCHLUMBERGER                   : Scn          - SERVICE COMPANY
DATE.         22 SEPT 73                     : Date         - LOG DATE
STRT.M        435.864                        : top_depth    - START DEPTH
STOP.M        673.614                        : bot_depth    - STOP DEPTH
STEP.M        0.25                           : increment    - STEP LENGTH
 NULL. -999.2500:NULL Value
~CURVE INFORMATION BLOCK
#MNEM UNIT       ERCB CURVE CODE    CURVE DESCRIPTION
#-----------   ------------------   ----------------------------------
DEPT.M        00 001 00 00         : DEPTH        - DEPTH
ILD .OHMM     00 120 00 00         : RESD         - DEEP RESISTIVITY (DIL)
NPHI.V/V      00 330 00 00         : PHIN         - NEUTRON POROSITY (SANDSTONE)
DPHI.V/V      00 890 00 00         : PHID         - DENSITY POROSITY (SANDSTONE)
CALI.MM       00 280 01 00         : CAL          - CALIPER
GR  .API      00 310 00 00         : GR           - GAMMA RAY
~PARAMETER INFORMATION
#MNEM.UNIT           DATA             DESCRIPTION OF MNEMONIC
#---------         -----------     ------------------------------
GL  .M        678.18               : gl           - GROUND LEVEL ELEVATION
EREF.M        681.838              : kb           - ELEVATION OF DEPTH REFERENCE
DATM.M        678.18               : datum        - DATUM ELEVATION
TDD .M        670.56               : tdd          - TOTAL DEPTH DRILLER
RUN .         ONE                  : Run          - RUN NUMBER
BASE.         EDM                  : Branch       - HOME BASE OF LOGGING UNIT
MATR.         SANDSTONE            : Logunit      - NEUTRON MATRIX
TMAX.C        30                   : BHT          - MAXIMUM RECORDED TEMPERATURE
BHTD.M        670.865              : BHTDEP       - MAXIMUM RECORDED TEMPERATURE
RMT .C        -17.7778             : MDTP         - TEMPERATURE OF MUD
MUDD.KG/M     0                    : MWT          - MUD DENSITY
NEUT.         1                    : NEUTRON      - NEUTRON TYPE
RESI.         0                    : RESIST       - RESISTIVITY TYPE
RM  .OHMM     0                    : RM           - RESISTIVITY OF MUD
RMC .OHMM     0                    : RMC          - RESISTIVITY OF MUD CAKE
RMF .OHMM     0                    : RMF          - RESISTIVITY OF MUD FILTRATE
SUFT.C        -17.7778             : SUFT         - SURFACE TEMPERATURE
~A  DEPTH     RESD     PHIN     PHID      CAL       GR
# ...
  618.364    8.678    0.404    0.103  210.785   96.494
  618.614    7.829    0.467    0.087  210.556   96.358
  618.864    7.207    0.448    0.101  210.738   95.550
  619.114    6.467    0.445    0.116  210.711   93.645
  619.364    5.942    0.439    0.117  210.684   92.167
  619.614    5.695    0.432    0.102  210.653   93.859
  619.864    5.983    0.437    0.123  210.527   97.503
  620.114    6.366    0.439    0.117  210.400   99.134
  620.364    6.836    0.421    0.115  210.376   96.131
  620.614    7.287    0.383    0.107  210.353   92.092
  620.864    7.882    0.331    0.088  210.428   87.808
  621.114    8.190    0.312    0.051  210.504   83.281
  621.364    8.309    0.339    0.024  210.789   88.754
  621.614    8.155    0.372    0.056  210.865   96.299
  621.864    7.831    0.396    0.087  211.046   98.968
  622.114    7.424    0.406    0.097  211.229   98.708
  622.364    7.115    0.393    0.083  211.516   96.740
  622.614    7.010    0.388    0.090  211.900   96.849
  622.864    7.034    0.397    0.098  211.980   96.956
  623.114    7.175    0.391    0.077  212.164   99.380
  623.364    7.279    0.382    0.053  212.131  105.158
  623.614    7.453    0.391    0.070  212.312  103.009
  623.864    7.603    0.391    0.084  212.594   95.128
  624.114    7.656    0.379    0.071  212.682   97.430
  624.364    7.598    0.379    0.087  213.068  100.524
  624.614    7.514    0.384    0.081  213.454  100.631
  624.864    7.416    0.374    0.090  213.733  101.347
  625.114    7.482    0.363    0.108  214.016  102.248
  625.364    7.816    0.372    0.115  214.302  101.562
  625.614    8.077    0.364    0.102  214.485   98.070
  625.864    8.422    0.350    0.089  214.876   93.788
  626.114    8.719    0.351    0.068  215.365   88.895
  626.364    8.780    0.362    0.053  215.856   92.171
  626.614    8.478    0.367    0.062  216.247   96.912
  626.864    7.790    0.359    0.089  217.251  101.593
  627.114    5.872    0.369    0.100  218.054  104.567
  627.364    4.354    0.385    0.107  218.747  106.685
  627.614    3.319    0.397    0.106  219.138  106.671
  627.864    2.416    0.414    0.115  219.734  105.801
  628.114    1.852    0.455    0.135  220.321  105.054
  628.364    1.628    0.749    0.174  220.815  104.857
  628.614    1.474    0.687    0.260  221.410  101.793
  628.864    1.398    0.658    0.260  222.313   98.973
  629.114    1.420    0.656    0.227  223.012   99.019
  629.364    1.565    0.670    0.230  224.124  100.224
  629.614    1.815    0.670    0.190  229.364   99.842
  629.864    2.228    0.624    0.194  228.305   99.584
  630.114    2.632    0.584    0.202  219.502  100.971
  630.364    3.053    0.537    0.191  216.482  103.211
  630.614    3.476    0.475    0.160  216.148  107.100
  630.864    4.267    0.366    0.129  216.120  106.718
  631.114    6.122    0.345    0.067  216.509   92.129
  631.364    7.298    0.352    0.026  217.100   91.018
  631.614    6.982    0.377    0.056  217.592   95.696
  631.864    6.570    0.400    0.062  217.977  100.316
  632.114    6.026    0.426    0.062  217.958  109.449
  632.364    5.744    0.427    0.086  217.929  107.482
  632.614    6.146    0.411    0.129  217.490  107.650
  632.864    6.528    0.392    0.099  217.363  107.513
  633.114    7.218    0.400    0.076  217.235  103.472
  633.364    7.866    0.374    0.083  213.593   99.129
  633.614    8.431    0.343    0.063  211.506   89.541
  633.864    8.632    0.343    0.027  210.961   88.670
  634.114    8.582    0.363    0.040  211.451   93.474
  634.364    8.596    0.384    0.087  211.840   97.971
  634.614    8.239    0.369    0.093  212.126   98.566
  634.864    7.839    0.348    0.087  212.203   97.087
  635.114    7.568    0.378    0.066  212.173   97.864
  635.364    7.608    0.408    0.085  211.740  100.106
  635.614    7.761    0.411    0.096  209.650  100.700
  635.864    7.802    0.389    0.095  208.075  100.623
  636.114    7.658    0.376    0.069  207.942  104.391
  636.364    7.246    0.389    0.039  207.819  109.436
  636.614    6.933    0.385    0.081  207.585  105.457
  636.864    6.669    0.378    0.085  207.044   96.540
  637.114    6.322    0.408    0.103  205.986   89.940
  637.364    5.895    0.406    0.095  204.825   77.302
  637.614    5.527    0.373    0.147  203.663   56.677
  637.864    5.060    0.350    0.175  202.604   56.660
  638.114    4.797    0.358    0.152  201.858   58.354
  638.364    4.581    0.396    0.169  201.724   58.704
  638.614    4.399    0.433    0.198  201.394   59.848
  638.864    4.155    0.440    0.207  201.059   62.943
  639.114    3.917    0.399    0.170  201.136   59.148
  639.364    3.761    0.389    0.144  201.523   56.449
  639.614    3.665    0.396    0.118  201.494   59.300
  639.864    3.584    0.405    0.127  201.471   60.871
  640.114    3.544    0.413    0.180  201.443   60.549
  640.364    3.589    0.429    0.150  201.420   60.170
  640.614    3.722    0.425    0.192  201.603   60.032
  640.864    3.960    0.403    0.205  202.190   60.018
  641.114    4.260    0.386    0.201  202.271   60.490
  641.364    4.685    0.377    0.219  202.454   61.268
  641.614    5.087    0.380    0.196  202.533   61.984
  641.864    5.543    0.336    0.147  202.607   62.031
  642.114    5.812    0.316    0.091  202.477   60.185
  642.364    5.940    0.334    0.076  202.144   64.135
  642.614    5.895    0.361    0.110  202.119   67.535
  642.864    5.776    0.380    0.128  202.607   66.788
  643.114    5.680    0.368    0.143  202.995   66.100
  643.364    5.616    0.357    0.151  203.490   67.306
  643.614    5.574    0.354    0.160  203.663   71.621
  643.864    5.655    0.362    0.163  203.847   71.362
  644.114    5.897    0.365    0.156  203.925   65.065
  644.364    6.297    0.353    0.143  203.896   62.306
  644.614    6.787    0.337    0.129  203.981   61.801
  644.864    7.116    0.329    0.111  203.955   61.483
  645.114    7.448    0.331    0.103  204.035   61.407
  645.364    7.668    0.337    0.112  204.215   61.576
  645.614    7.808    0.338    0.133  204.290   61.866
  645.864    7.791    0.340    0.137  204.369   61.424
  646.114    7.732    0.357    0.127  204.447   50.920
  646.364    7.730    0.384    0.081  204.629   43.345
  646.614    7.958    0.382    0.116  205.328   50.647
  646.864    8.345    0.396    0.181  206.642   66.913
  647.114    8.961    0.428    0.174  207.856   74.947
  647.364    9.658    0.400    0.146  208.968   70.541
  647.614   10.837    0.304    0.120  209.770   66.927
  647.864   12.072    0.309    0.119  210.258   70.877
  648.114   13.621    0.327    0.128  210.441   73.849
  648.364   13.946    0.355    0.126  210.208   74.749
  648.614   11.822    0.394    0.114  209.666   78.026
  648.864    9.821    0.416    0.125  209.331   85.085
  649.114    7.836    0.433    0.142  211.577   98.424
  649.364    6.679    0.457    0.159  218.366  104.384
  649.614    5.917    0.514    0.193  220.199  105.955
  649.864    5.348    0.551    0.252  212.740  109.356
  650.114    4.968    0.467    0.207  210.339  106.109
  650.364    4.771    0.448    0.128  211.244  102.008
  650.614    4.840    0.585    0.141  217.309  104.247
  650.864    5.274    0.608    0.194  215.733   98.746
  651.114    5.612    0.582    0.257  210.444   94.157
  651.364    6.309    0.409    0.185  208.044   88.472
  651.614    7.236    0.389    0.125  206.883   77.968
  651.864    7.929    0.492    0.129  206.340   71.368
  652.114    8.963    0.507    0.148  206.522   57.023
  652.364   10.300    0.428    0.208  206.805   42.373
  652.614   12.123    0.240    0.120  207.091   43.333
  652.864   13.703    0.244    0.093  207.787   53.379
  653.114   14.474    0.272    0.080  208.794   66.231
  653.364   14.339    0.301    0.071  210.111   77.009
  653.614   12.334    0.492    0.076  214.217   84.494
  653.864   10.455    0.547    0.088  221.110   91.309
  654.114    8.543    0.510    0.088  207.661   78.915
  654.364    8.294    0.341    0.123  206.291   70.302
  654.614    9.479    0.311    0.170  205.852   53.884
