~VERSION INFORMATION
 VERS.                 2.0:   CWLS LOG ASCII STANDARD -VERSION 2.0
 WRAP.                  NO:   ONE LINE PER DEPTH STEP
~WELL INFORMATION BLOCK
#MNEM.UNIT           DATA                    DESCRIPTION OF MNEMONIC
#---------    -------------------            -------------------------------
# Generated from Intellog Unique Number	CS_71_72/WELL/782
WELL.         AEC IPIATIK KIRBY              : Well_name    - WELL
LOC .         00/06-30-071-06W4/0            : Location     - LOCATION
UWI .         00/06-30-071-06W4/0            : Uwi          - UNIQUE WELL ID
ENTR.         SP                             : Entered      - ENTERED BY
SRVC.         SCHLUMBERGER                   : Scn          - SERVICE COMPANY
STRT.M        300                            : top_depth    - START DEPTH
STOP.M        525                            : bot_depth    - STOP DEPTH
STEP.M        0.25                           : increment    - STEP LENGTH
 NULL. -999.2500:NULL Value
~CURVE INFORMATION BLOCK
#MNEM UNIT       ERCB CURVE CODE    CURVE DESCRIPTION
#-----------   ------------------   ----------------------------------
DEPT.M        00 001 00 00         : DEPTH        - DEPTH
ILD .OHMM     00 120 00 00         : RESD         - DEEP RESISTIVITY (DIL)
DPHI.V/V      00 890 00 00         : PHID         - DENSITY POROSITY (LIMESTONE)
NPHI.V/V      00 330 00 00         : PHIN         - NEUTRON POROSITY (LIMESTONE)
GR  .API      00 310 00 00         : GR           - GAMMA RAY
~PARAMETER INFORMATION
#MNEM.UNIT           DATA             DESCRIPTION OF MNEMONIC
#---------         -----------     ------------------------------
GL  .M        660.1                : gl           - GROUND LEVEL ELEVATION
EREF.M        665.16               : kb           - ELEVATION OF DEPTH REFERENCE
DATM.M        660.1                : datum        - DATUM ELEVATION
TDD .M        548                  : tdd          - TOTAL DEPTH DRILLER
RUN .         ONE                  : Run          - RUN NUMBER
ENG .         BILL                 : Engineer     - RECORDING ENGINEER
WIT .         JIM                  : Witness      - WITNESSED BY
MUD .         GEL                  : Mud_type     - MUD TYPE
MATR.         LIMESTONE            : Logunit      - NEUTRON MATRIX
TMAX.C        19                   : BHT          - MAXIMUM RECORDED TEMPERATURE
BHTD.M        548                  : BHTDEP       - MAXIMUM RECORDED TEMPERATURE
MATR.         1                    : LOGUNIT      - NEUTRON MATRIX
RMT .C        25                   : MDTP         - TEMPERATURE OF MUD
NEUT.         1                    : NEUTRON      - NEUTRON TYPE
RESI.         0                    : RESIST       - RESISTIVITY TYPE
RMC .OHMM     0.25                 : RMC          - RESISTIVITY OF MUD CAKE
RMF .OHMM     0.25                 : RMF          - RESISTIVITY OF MUD FILTRATE
SUFT.C        15                   : SUFT         - SURFACE TEMPERATURE
~A  DEPTH     RESD     PHID     PHIN       GR
# ...
  474.000   15.081    0.213    0.364   76.359
  474.250   13.138    0.207    0.383   79.546
  474.500   12.085    0.206    0.399   80.780
  474.750   11.476    0.213    0.414   74.797
  475.000   11.924    0.215    0.411   76.096
  475.250   12.909    0.224    0.402   75.390
  475.500   14.349    0.235    0.398   67.216
  475.750   15.683    0.244    0.411   59.468
  476.000   16.854    0.255    0.397   54.512
  476.250   17.843    0.252    0.357   55.449
  476.500   18.607    0.168    0.339   60.950
  476.750   18.413    0.167    0.327   63.460
  477.000   17.683    0.188    0.350   63.057
  477.250   16.544    0.219    0.367   57.438
  477.500   16.126    0.247    0.374   58.491
  477.750   16.567    0.264    0.373   63.133
  478.000   17.116    0.257    0.387   65.585
  478.250   17.487    0.252    0.395   57.900
  478.500   17.732    0.268    0.391   51.787
  478.750   17.778    0.281    0.371   51.874
  479.000   16.725    0.287    0.360   60.949
  479.250   14.118    0.272    0.358   69.782
  479.500   12.790    0.256    0.359   78.677
  479.750   11.161    0.242    0.376   84.161
  480.000    9.889    0.232    0.376   92.447
  480.250    8.961    0.221    0.371   98.058
  480.500    8.509    0.225    0.364  105.618
  480.750    8.342    0.218    0.359  109.953
  481.000    8.333    0.210    0.382  113.073
  481.250    8.449    0.209    0.416  102.714
  481.500    8.697    0.225    0.358   93.385
  481.750    8.853    0.206    0.342   87.399
  482.000    8.943    0.182    0.334   87.242
  482.250    8.915    0.171    0.340   80.525
  482.500    8.873    0.189    0.330   76.481
  482.750    8.862    0.197    0.322   81.792
  483.000    8.853    0.178    0.319   86.008
  483.250    8.810    0.157    0.328   89.189
  483.500    8.751    0.155    0.349   86.968
  483.750    8.693    0.160    0.373   83.475
  484.000    8.651    0.165    0.336   82.218
  484.250    8.594    0.164    0.320   82.124
  484.500    8.567    0.170    0.334   82.999
  484.750    8.557    0.176    0.345   84.480
  485.000    8.547    0.182    0.350   87.001
  485.250    8.571    0.175    0.334   90.187
  485.500    8.592    0.162    0.333   91.909
  485.750    8.631    0.155    0.342   91.870
  486.000    8.638    0.152    0.345   89.709
  486.250    8.613    0.147    0.354   90.219
  486.500    8.619    0.155    0.365   91.944
  486.750    8.593    0.163    0.373   89.723
  487.000    8.632    0.167    0.371   86.715
  487.250    8.688    0.166    0.361   85.157
  487.500    8.743    0.164    0.358   83.907
  487.750    8.799    0.167    0.353   83.324
  488.000    8.838    0.170    0.346   84.562
  488.250    8.862    0.169    0.339   88.598
  488.500    8.820    0.159    0.339   92.633
  488.750    8.777    0.153    0.346   95.450
  489.000    8.750    0.167    0.350   94.562
  489.250    8.709    0.179    0.359   87.241
  489.500    8.716    0.174    0.363   87.389
  489.750    8.706    0.156    0.358   90.815
  490.000    9.028    0.141    0.352   93.389
  490.250    9.171    0.134    0.351   96.449
  490.500    9.529    0.134    0.356   96.960
  490.750    9.826    0.136    0.366   91.095
  491.000   10.248    0.142    0.366   85.654
  491.250   10.748    0.156    0.356   84.100
  491.500   11.486    0.176    0.364   85.339
  491.750   12.226    0.205    0.380   83.785
  492.000   13.165    0.220    0.395   74.883
  492.250   13.652    0.246    0.418   63.674
  492.500   12.869    0.291    0.456   53.252
  492.750   10.718    0.311    0.437   60.808
  493.000    9.197    0.250    0.404   70.671
  493.250    7.834    0.214    0.367   77.863
  493.500    6.585    0.243    0.389   58.576
  493.750    5.652    0.285    0.432   41.899
  494.000    4.860    0.326    0.398   35.730
  494.250    4.420    0.315    0.366   52.397
  494.500    4.073    0.264    0.338   61.652
  494.750    3.803    0.264    0.401   60.705
  495.000    3.578    0.323    0.417   44.696
  495.250    3.430    0.335    0.396   33.731
  495.500    3.294    0.339    0.379   27.863
  495.750    3.199    0.342    0.377   23.881
  496.000    3.102    0.342    0.371   21.599
  496.250    3.052    0.338    0.355   25.334
  496.500    3.008    0.336    0.347   27.723
  496.750    2.961    0.335    0.345   29.811
  497.000    2.946    0.335    0.354   31.418
  497.250    2.926    0.328    0.362   31.079
  497.500    3.103    0.332    0.362   28.672
  497.750    3.112    0.343    0.373   25.237
  498.000    3.108    0.340    0.382   24.046
  498.250    3.094    0.333    0.372   25.712
  498.500    3.073    0.329    0.382   24.885
  498.750    3.029    0.333    0.412   23.270
  499.000    2.981    0.343    0.423   22.934
  499.250    2.933    0.345    0.405   23.442
  499.500    2.881    0.343    0.378   22.192
  499.750    2.846    0.343    0.364   27.869
  500.000    2.826    0.335    0.367   32.325
  500.250    2.818    0.328    0.377   34.656
  500.500    2.815    0.325    0.387   32.677
  500.750    2.801    0.334    0.380   27.056
  501.000    2.793    0.340    0.370   25.562
  501.250    2.779    0.336    0.361   26.075
  501.500    2.771    0.334    0.360   25.855
  501.750    2.768    0.338    0.361   24.302
  502.000    2.775    0.334    0.370   22.200
  502.250    2.778    0.330    0.369   20.529
  502.500    2.779    0.330    0.364   20.974
  502.750    2.787    0.325    0.362   28.167
  503.000    2.822    0.325    0.375   34.023
  503.250    2.844    0.331    0.385   36.902
  503.500    2.867    0.325    0.370   35.288
  503.750    2.875    0.322    0.356   32.458
  504.000    2.883    0.321    0.355   29.627
  504.250    2.885    0.324    0.380   27.408
  504.500    2.860    0.331    0.380   25.914
  504.750    2.825    0.338    0.374   24.485
  505.000    2.770    0.343    0.370   23.546
  505.250    2.730    0.341    0.368   23.438
  505.500    2.697    0.335    0.366   23.524
  505.750    2.679    0.334    0.366   25.625
  506.000    2.691    0.337    0.372   26.427
  506.250    2.718    0.323    0.358   29.852
  506.500    2.751    0.314    0.342   33.704
  506.750    2.805    0.319    0.337   35.856
  507.000    2.855    0.327    0.338   34.544
  507.250    2.852    0.324    0.350   31.229
  507.500    2.812    0.318    0.365   30.403
  507.750    2.756    0.315    0.380   31.886
  508.000    2.702    0.322    0.395   32.761
  508.250    2.669    0.329    0.398   29.021
  508.500    2.656    0.334    0.389   26.071
  508.750    2.648    0.336    0.378   24.639
  509.000    2.655    0.334    0.374   24.237
  509.250    2.673    0.331    0.379   24.262
  509.500    2.675    0.328    0.378   24.470
  509.750    2.666    0.325    0.365   24.620
  510.000    2.619    0.323    0.361   24.826
  510.250    2.611    0.328    0.365   24.120
  510.500    2.693    0.350    0.372   23.721
  510.750    2.803    0.353    0.375   28.240
  511.000    2.907    0.322    0.372   35.131
  511.250    2.992    0.308    0.375   38.740
  511.500    3.057    0.298    0.364   40.097
  511.750    3.071    0.281    0.359   38.421
  512.000    3.027    0.279    0.373   31.585
  512.250    2.945    0.296    0.387   26.023
  512.500    2.845    0.321    0.355   25.076
  512.750    2.721    0.332    0.359   24.494
  513.000    2.579    0.341    0.370   22.392
  513.250    2.515    0.353    0.376   22.539
  513.500    2.550    0.368    0.380   23.598
  513.750    2.620    0.370    0.382   23.077
  514.000    2.752    0.340    0.386   22.249
  514.250    2.964    0.346    0.399   24.400
  514.500    3.179    0.354    0.405   29.465
  514.750    3.553    0.355    0.372   34.169
  515.000    4.321    0.265    0.340   39.236
  515.250    4.592    0.104    0.394   44.116
  515.500    4.735    0.089    0.412   50.943
  515.750    4.847    0.116    0.423   61.049
  516.000    4.924    0.177    0.442   75.285
  516.250    5.058    0.215    0.472   73.127
  516.500    5.560    0.265    0.455   64.467
  516.750    6.404    0.288    0.456   54.895
  517.000    7.831    0.308    0.468   35.851
  517.250    9.777    0.319    0.479   29.807
