~VERSION INFORMATION
 VERS.                 2.0:   CWLS LOG ASCII STANDARD -VERSION 2.0
 WRAP.                  NO:   ONE LINE PER DEPTH STEP
~WELL INFORMATION BLOCK
#MNEM.UNIT           DATA                    DESCRIPTION OF MNEMONIC
#---------    -------------------            -------------------------------
# Generated from Intellog Unique Number	CS_71_72/WELL/782
WELL.         AEC IPIATIK KIRBY              : Well_name    - WELL
LOC .         00/06-30-071-06W4/0            : Location     - LOCATION
UWI .         00/06-30-071-06W4/0            : Uwi          - UNIQUE WELL ID
ENTR.         SP                             : Entered      - ENTERED BY
SRVC.         SCHLUMBERGER                   : Scn          - SERVICE COMPANY
STRT.M        300                            : top_depth    - START DEPTH
STOP.M        525                            : bot_depth    - STOP DEPTH
STEP.M        0.25                           : increment    - STEP LENGTH
 NULL. -999.2500:NULL Value
~CURVE INFORMATION BLOCK
#MNEM UNIT       ERCB CURVE CODE    CURVE DESCRIPTION
#-----------   ------------------   ----------------------------------
DEPT.M        00 001 00 00         : DEPTH        - DEPTH
ILD .OHMM     00 120 00 00         : RESD         - DEEP RESISTIVITY (DIL)
DPHI.V/V      00 890 00 00         : PHID         - DENSITY POROSITY (LIMESTONE)
NPHI.V/V      00 330 00 00         : PHIN         - NEUTRON POROSITY (LIMESTONE)
GR  .API      00 310 00 00         : GR           - GAMMA RAY
~PARAMETER INFORMATION
#MNEM.UNIT           DATA             DESCRIPTION OF MNEMONIC
#---------         -----------     ------------------------------
GL  .M        660.1                : gl           - GROUND LEVEL ELEVATION
EREF.M        665.16               : kb           - ELEVATION OF DEPTH REFERENCE
DATM.M        660.1                : datum        - DATUM ELEVATION
TDD .M        548                  : tdd          - TOTAL DEPTH DRILLER
RUN .         ONE                  : Run          - RUN NUMBER
ENG .         BILL                 : Engineer     - RECORDING ENGINEER
WIT .         JIM                  : Witness      - WITNESSED BY
MUD .         GEL                  : Mud_type     - MUD TYPE
MATR.         LIMESTONE            : Logunit      - NEUTRON MATRIX
TMAX.C        19                   : BHT          - MAXIMUM RECORDED TEMPERATURE
BHTD.M        548                  : BHTDEP       - MAXIMUM RECORDED TEMPERATURE
MATR.         1                    : LOGUNIT      - NEUTRON MATRIX
RMT .C        25                   : MDTP         - TEMPERATURE OF MUD
NEUT.         1                    : NEUTRON      - NEUTRON TYPE
RESI.         0                    : RESIST       - RESISTIVITY TYPE
RMC .OHMM     0.25                 : RMC          - RESISTIVITY OF MUD CAKE
RMF .OHMM     0.25                 : RMF          - RESISTIVITY OF MUD FILTRATE
SUFT.C        15                   : SUFT         - SURFACE TEMPERATURE
~A  DEPTH     RESD     PHID     PHIN       GR
# ...
  387.000    5.437    0.277    0.487   81.785
  387.250    5.586    0.285    0.486   87.282
  387.500    5.216    0.279    0.479   89.061
  387.750    4.843    0.271    0.497   90.118
  388.000    4.590    0.269    0.502   85.712
  388.250    4.516    0.280    0.506   81.727
  388.500    4.649    0.285    0.499   79.566
  388.750    4.866    0.288    0.487   77.592
  389.000    5.133    0.295    0.484   77.006
  389.250    5.478    0.299    0.490   76.241
  389.500    5.510    0.301    0.492   76.210
  389.750    5.607    0.308    0.491   76.052
  390.000    5.549    0.314    0.491   76.257
  390.250    5.114    0.284    0.491   77.312
  390.500    4.316    0.252    0.494   88.573
  390.750    3.932    0.248    0.524   97.769
  391.000    3.426    0.259    0.535  101.558
  391.250    3.058    0.272    0.555  101.219
  391.500    2.921    0.282    0.576  100.214
  391.750    2.934    0.288    0.590   99.628
  392.000    2.974    0.242    0.571   98.803
  392.250    3.045    0.240    0.560   96.217
  392.500    3.076    0.258    0.574  100.620
  392.750    2.971    0.266    0.584  105.200
  393.000    2.895    0.276    0.571  107.958
  393.250    2.796    0.284    0.571  107.796
  393.500    2.788    0.262    0.597  100.655
  393.750    3.099    0.247    0.616   93.333
  394.000    3.496    0.272    0.570   87.344
  394.250    4.166    0.274    0.530   81.478
  394.500    4.852    0.262    0.499   78.468
  394.750    5.727    0.256    0.475   84.808
  395.000    6.473    0.250    0.454   88.963
  395.250    6.943    0.251    0.471   88.016
  395.500    6.910    0.257    0.478   83.244
  395.750    6.876    0.274    0.468   80.719
  396.000    6.986    0.279    0.446   76.309
  396.250    7.204    0.285    0.426   76.154
  396.500    7.387    0.288    0.418   80.373
  396.750    7.518    0.284    0.429   81.121
  397.000    7.426    0.290    0.447   77.685
  397.250    7.122    0.296    0.447   78.561
  397.500    7.097    0.299    0.429   79.801
  397.750    7.237    0.279    0.420   80.129
  398.000    7.763    0.118    0.430   76.209
  398.250    8.405    0.061    0.296   69.855
  398.500    8.848    0.037    0.261   58.158
  398.750    9.124    0.126    0.237   61.827
  399.000    9.131    0.202    0.416   75.456
  399.250    8.494    0.230    0.462   88.235
  399.500    7.182    0.235    0.454   90.872
  399.750    6.630    0.238    0.455   89.318
  400.000    6.296    0.236    0.492   87.098
  400.250    6.301    0.234    0.512   88.764
  400.500    6.305    0.234    0.519   90.306
  400.750    6.300    0.221    0.492   90.633
  401.000    6.282    0.211    0.485   87.803
  401.250    6.249    0.204    0.484   94.208
  401.500    6.001    0.210    0.474   98.056
  401.750    5.646    0.205    0.471  100.146
  402.000    5.272    0.207    0.475   99.140
  402.250    4.885    0.225    0.509   95.034
  402.500    4.298    0.239    0.525   90.202
  402.750    4.126    0.250    0.542   89.072
  403.000    3.845    0.252    0.527   96.513
  403.250    3.632    0.233    0.499   99.811
  403.500    3.600    0.224    0.493  101.232
  403.750    3.643    0.237    0.509   98.160
  404.000    3.729    0.243    0.520   96.912
  404.250    3.817    0.239    0.508   96.817
  404.500    3.856    0.236    0.495  100.118
  404.750    3.851    0.234    0.483  104.397
  405.000    3.748    0.243    0.502   99.014
  405.250    3.572    0.262    0.536   91.145
  405.500    3.281    0.278    0.556   87.951
  405.750    3.264    0.297    0.577   89.008
  406.000    3.391    0.279    0.534   89.459
  406.250    3.826    0.250    0.513   86.630
  406.500    4.166    0.231    0.495   85.197
  406.750    4.791    0.220    0.490   86.863
  407.000    4.949    0.221    0.496   85.734
  407.250    5.121    0.235    0.481   83.331
  407.500    5.311    0.239    0.464   82.022
  407.750    5.345    0.243    0.459   81.617
  408.000    5.192    0.273    0.477   82.861
  408.250    4.967    0.299    0.490   84.402
  408.500    4.683    0.322    0.506   86.492
  408.750    4.538    0.319    0.517   87.487
  409.000    4.474    0.298    0.530   79.375
  409.250    4.817    0.287    0.526   70.778
  409.500    5.528    0.286    0.466   65.456
  409.750    6.052    0.282    0.466   60.320
  410.000    6.615    0.172    0.351   58.036
  410.250    7.069    0.097    0.324   60.248
  410.500    7.181    0.171    0.343   65.198
  410.750    7.001    0.209    0.431   69.046
  411.000    6.672    0.246    0.459   73.267
  411.250    5.891    0.297    0.455   74.802
  411.500    5.407    0.309    0.445   76.652
  411.750    5.020    0.304    0.446   74.975
  412.000    4.913    0.309    0.451   71.962
  412.250    4.935    0.310    0.457   75.996
  412.500    5.023    0.305    0.459   77.963
  412.750    5.084    0.308    0.466   74.891
  413.000    5.155    0.314    0.467   74.009
  413.250    5.247    0.314    0.478   75.609
  413.500    5.300    0.307    0.481   76.788
  413.750    5.363    0.303    0.456   74.627
  414.000    5.460    0.295    0.449   73.499
  414.250    5.494    0.286    0.454   73.711
  414.500    5.592    0.277    0.451   72.395
  414.750    5.672    0.273    0.450   76.371
  415.000    5.674    0.275    0.459   80.102
  415.250    5.669    0.260    0.459   82.493
  415.500    5.548    0.247    0.449   84.580
  415.750    5.337    0.237    0.452   85.821
  416.000    5.524    0.279    0.468   86.392
  416.250    5.783    0.330    0.465   87.756
  416.500    6.053    0.291    0.445   88.570
  416.750    6.411    0.261    0.439   88.654
  417.000    6.498    0.239    0.437   87.221
  417.250    6.615    0.235    0.431   86.155
  417.500    6.569    0.233    0.426   85.997
  417.750    6.356    0.243    0.425   84.686
  418.000    6.081    0.260    0.451   83.010
  418.250    5.731    0.257    0.473   82.367
  418.500    5.412    0.265    0.455   79.781
  418.750    5.101    0.302    0.464   76.525
  419.000    4.676    0.359    0.491   74.851
  419.250    4.523    0.341    0.537   78.399
  419.500    4.321    0.306    0.517   81.343
  419.750    4.290    0.289    0.502   81.606
  420.000    4.253    0.293    0.518   80.843
  420.250    4.138    0.277    0.518   82.203
  420.500    3.779    0.266    0.503   85.385
  420.750    3.404    0.310    0.509   89.176
  421.000    2.999    0.323    0.519   91.934
  421.250    2.672    0.300    0.526   94.206
  421.500    2.495    0.284    0.537   96.601
  421.750    2.401    0.276    0.533   98.935
  422.000    2.376    0.272    0.533  100.354
  422.250    2.369    0.278    0.540   94.735
  422.500    2.388    0.284    0.545   89.718
  422.750    2.408    0.287    0.556   87.008
  423.000    2.428    0.282    0.570   85.940
  423.250    2.476    0.272    0.570   92.952
  423.500    2.530    0.267    0.548   97.347
  423.750    2.628    0.260    0.556   97.677
  424.000    2.878    0.258    0.561   95.759
  424.250    3.092    0.261    0.497   92.989
  424.500    3.424    0.268    0.473   89.795
  424.750    3.885    0.291    0.478   87.209
  425.000    4.418    0.317    0.490   86.566
  425.250    4.818    0.275    0.501   83.133
  425.500    5.237    0.248    0.497   78.842
  425.750    5.607    0.224    0.434   75.224
  426.000    5.924    0.207    0.413   75.674
  426.250    6.133    0.201    0.425   80.499
  426.500    6.218    0.216    0.442   84.894
  426.750    6.142    0.226    0.448   88.259
  427.000    5.976    0.207    0.452   90.047
  427.250    5.925    0.209    0.437   90.255
  427.500    5.918    0.226    0.432   90.339
  427.750    6.001    0.235    0.439   90.911
  428.000    6.073    0.217    0.437   92.456
  428.250    5.866    0.208    0.436   93.574
  428.500    5.772    0.212    0.453   88.802
  428.750    5.853    0.216    0.471   85.667
  429.000    6.266    0.072    0.492   80.107
  429.250    6.746    0.046    0.288   71.506
  429.500    7.223    0.020    0.232   57.259
  429.750    7.518    0.087    0.299   66.396
  430.000    7.552    0.169    0.352   75.532
  430.250    7.321    0.205    0.402   83.391
