~VERSION INFORMATION
 VERS.                 2.0:   CWLS LOG ASCII STANDARD -VERSION 2.0
 WRAP.                  NO:   ONE LINE PER DEPTH STEP
~WELL INFORMATION BLOCK
#MNEM.UNIT           DATA                    DESCRIPTION OF MNEMONIC
#---------    -------------------            -------------------------------
# Generated from Intellog Unique Number	CS_69_70/WELL/662
WELL.         HUSKY OIL OPERATIONS           : Well_name    - WELL
LOC .         00/05-14-069-05W4/0            : Location     - LOCATION
UWI .         00/05-14-069-05W4/0            : Uwi          - UNIQUE WELL ID
ENTR.         J                              : Entered      - ENTERED BY
SRVC.         SCHLUMBERGER                   : Scn          - SERVICE COMPANY
STRT.M        300                            : top_depth    - START DEPTH
STOP.M        575                            : bot_depth    - STOP DEPTH
STEP.M        0.25                           : increment    - STEP LENGTH
 NULL. -999.2500:NULL Value
~CURVE INFORMATION BLOCK
#MNEM UNIT       ERCB CURVE CODE    CURVE DESCRIPTION
#-----------   ------------------   ----------------------------------
DEPT.M        00 001 00 00         : DEPTH        - DEPTH
ILD .OHMM     00 120 00 00         : RESD         - DEEP RESISTIVITY (DIL)
DPHI.V/V      00 890 00 00         : PHID         - DENSITY POROSITY (LIMESTONE)
NPHI.V/V      00 330 00 00         : PHIN         - NEUTRON POROSITY (LIMESTONE)
GR  .API      00 310 00 00         : GR           - GAMMA RAY
~PARAMETER INFORMATION
#MNEM.UNIT           DATA             DESCRIPTION OF MNEMONIC
#---------         -----------     ------------------------------
GL  .M        673.9                : gl           - GROUND LEVEL ELEVATION
EREF.M        677.5                : kb           - ELEVATION OF DEPTH REFERENCE
DATM.M        673.9                : datum        - DATUM ELEVATION
TDD .M        581                  : tdd          - TOTAL DEPTH DRILLER
RUN .         ONE                  : Run          - RUN NUMBER
ENG .         BILL                 : Engineer     - RECORDING ENGINEER
WIT .         JIM                  : Witness      - WITNESSED BY
MUD .         GEL                  : Mud_type     - MUD TYPE
MATR.         LIMESTONE            : Logunit      - NEUTRON MATRIX
TMAX.C        25                   : BHT          - MAXIMUM RECORDED TEMPERATURE
BHTD.M        581                  : BHTDEP       - MAXIMUM RECORDED TEMPERATURE
MATR.         1                    : LOGUNIT      - NEUTRON MATRIX
RMT .C        25                   : MDTP         - TEMPERATURE OF MUD
NEUT.         1                    : NEUTRON      - NEUTRON TYPE
RESI.         0                    : RESIST       - RESISTIVITY TYPE
RMC .OHMM     0.25                 : RMC          - RESISTIVITY OF MUD CAKE
RMF .OHMM     0.25                 : RMF          - RESISTIVITY OF MUD FILTRATE
SUFT.C        15                   : SUFT         - SURFACE TEMPERATURE
~A  DEPTH     RESD     PHID     PHIN       GR
# ...
  387.000    9.397    0.301    0.445   55.378
  387.250   10.014    0.255    0.393   50.704
  387.500   10.299    0.221    0.299   48.399
  387.750    9.905    0.211    0.310   50.469
  388.000    9.368    0.262    0.349   52.295
  388.250    8.615    0.330    0.391   54.608
  388.500    8.072    0.357    0.419   56.312
  388.750    7.706    0.362    0.447   57.168
  389.000    7.453    0.364    0.466   57.292
  389.250    7.275    0.363    0.441   54.380
  389.500    7.182    0.362    0.454   48.492
  389.750    7.157    0.360    0.464   45.275
  390.000    7.158    0.359    0.463   43.639
  390.250    7.186    0.360    0.458   43.400
  390.500    7.227    0.367    0.450   44.680
  390.750    7.283    0.372    0.443   45.352
  391.000    7.365    0.370    0.439   45.052
  391.250    7.436    0.360    0.437   44.388
  391.500    7.492    0.353    0.435   44.088
  391.750    7.508    0.355    0.436   45.368
  392.000    7.523    0.357    0.435   46.465
  392.250    7.580    0.359    0.439   47.563
  392.500    7.667    0.361    0.434   48.053
  392.750    7.682    0.364    0.423   48.300
  393.000    7.669    0.365    0.421   47.696
  393.250    7.571    0.365    0.418   45.877
  393.500    7.502    0.363    0.407   43.268
  393.750    7.475    0.363    0.409   41.875
  394.000    7.449    0.364    0.421   42.243
  394.250    7.436    0.367    0.427   43.705
  394.500    7.479    0.372    0.423   44.317
  394.750    7.550    0.375    0.426   44.261
  395.000    7.622    0.373    0.440   44.872
  395.250    7.595    0.369    0.431   45.422
  395.500    7.610    0.365    0.419   46.824
  395.750    7.598    0.369    0.410   48.529
  396.000    7.598    0.375    0.429   49.808
  396.250    7.642    0.372    0.440   51.697
  396.500    7.686    0.369    0.439   53.036
  396.750    7.702    0.368    0.431   54.742
  397.000    7.717    0.367    0.428   56.568
  397.250    7.762    0.367    0.450   58.030
  397.500    7.821    0.366    0.453   56.333
  397.750    7.867    0.365    0.443   53.724
  398.000    7.897    0.364    0.431   54.458
  398.250    7.913    0.365    0.427   53.914
  398.500    7.929    0.366    0.430   52.642
  398.750    7.991    0.365    0.420   54.530
  399.000    7.991    0.363    0.416   57.085
  399.250    8.082    0.358    0.428   58.790
  399.500    8.144    0.354    0.433   61.103
  399.750    8.191    0.351    0.428   63.780
  400.000    8.192    0.348    0.427   65.303
  400.250    8.194    0.348    0.458   64.820
  400.500    8.149    0.351    0.472   62.638
  400.750    7.985    0.351    0.457   65.922
  401.000    7.824    0.348    0.444   70.057
  401.250    7.667    0.344    0.444   73.099
  401.500    7.540    0.338    0.454   70.308
  401.750    6.947    0.328    0.450   69.826
  402.000    6.389    0.315    0.439   72.868
  402.250    5.931    0.309    0.443   75.484
  402.500    5.812    0.326    0.471   77.675
  402.750    6.170    0.315    0.506   78.469
  403.000    6.465    0.298    0.475   71.183
  403.250    6.800    0.304    0.460   62.316
  403.500    7.020    0.315    0.448   54.908
  403.750    7.061    0.329    0.441   51.267
  404.000    7.036    0.337    0.435   53.944
  404.250    6.920    0.336    0.428   58.141
  404.500    6.869    0.328    0.424   61.243
  404.750    6.781    0.317    0.434   63.858
  405.000    6.732    0.310    0.440   63.559
  405.250    6.733    0.307    0.444   59.492
  405.500    6.785    0.313    0.442   55.304
  405.750    6.786    0.323    0.429   54.275
  406.000    6.787    0.328    0.415   59.444
  406.250    6.700    0.328    0.423   62.789
  406.500    6.480    0.324    0.437   65.830
  406.750    6.083    0.320    0.441   69.054
  407.000    5.134    0.313    0.440   72.461
  407.250    4.183    0.308    0.462   75.441
  407.500    3.518    0.310    0.482   80.791
  407.750    3.042    0.301    0.472   85.959
  408.000    2.787    0.291    0.497   91.674
  408.250    2.666    0.291    0.534   95.080
  408.500    2.612    0.290    0.576   95.752
  408.750    2.588    0.291    0.571   96.181
  409.000    2.820    0.293    0.587   96.064
  409.250    3.281    0.291    0.601   89.385
  409.500    3.767    0.280    0.589   83.010
  409.750    4.651    0.281    0.487   77.060
  410.000    5.491    0.292    0.465   72.143
  410.250    6.119    0.300    0.455   69.352
  410.500    6.533    0.304    0.464   70.632
  410.750    6.871    0.306    0.472   73.734
  411.000    6.898    0.306    0.481   75.987
  411.250    6.671    0.302    0.474   77.084
  411.500    6.381    0.301    0.460   77.148
  411.750    6.370    0.304    0.449   76.484
  412.000    6.406    0.309    0.459   74.422
  412.250    6.541    0.313    0.471   72.908
  412.500    6.603    0.307    0.472   73.336
  412.750    6.728    0.300    0.457   75.163
  413.000    6.779    0.292    0.447   76.503
  413.250    6.780    0.287    0.464   76.993
  413.500    6.681    0.290    0.463   79.002
  413.750    6.306    0.291    0.450   81.193
  414.000    5.725    0.288    0.442   83.263
  414.250    5.434    0.270    0.457   82.659
  414.500    5.295    0.256    0.471   83.150
  414.750    5.218    0.254    0.464   84.125
  415.000    5.009    0.255    0.472   85.041
  415.250    4.315    0.258    0.466   85.652
  415.500    3.670    0.255    0.458   84.502
  415.750    3.282    0.251    0.462   83.777
  416.000    3.001    0.250    0.490   85.847
  416.250    2.828    0.246    0.510   87.004
  416.500    3.008    0.249    0.507   88.223
  416.750    3.290    0.258    0.492   88.713
  417.000    3.849    0.257    0.479   88.596
  417.250    4.345    0.252    0.477   88.843
  417.500    4.915    0.248    0.482   88.968
  417.750    5.208    0.253    0.483   88.972
  418.000    5.132    0.261    0.494   87.701
  418.250    4.872    0.263    0.490   86.793
  418.500    4.565    0.266    0.474   86.068
  418.750    4.151    0.270    0.464   88.016
  419.000    3.719    0.275    0.468   94.095
  419.250    3.446    0.279    0.491   98.048
  419.500    3.117    0.281    0.509  100.299
  419.750    2.882    0.243    0.506  103.037
  420.000    2.899    0.234    0.511  105.107
  420.250    3.038    0.241    0.522  104.868
  420.500    3.177    0.248    0.519  100.619
  420.750    3.373    0.251    0.505   96.310
  421.000    3.594    0.258    0.492   93.154
  421.250    3.866    0.267    0.491   90.546
  421.500    4.029    0.272    0.500   88.302
  421.750    4.159    0.275    0.492   88.609
  422.000    4.214    0.259    0.479   92.442
  422.250    4.192    0.248    0.471   94.876
  422.500    4.084    0.240    0.493   96.641
  422.750    3.921    0.253    0.511   97.131
  423.000    3.715    0.256    0.536   96.102
  423.250    3.540    0.257    0.519   96.652
  423.500    3.494    0.259    0.516   97.993
  423.750    3.501    0.264    0.539   94.959
  424.000    3.561    0.275    0.556   91.075
  424.250    3.697    0.289    0.555   87.920
  424.500    3.954    0.308    0.549   86.769
  424.750    4.285    0.310    0.532   87.684
  425.000    4.609    0.307    0.499   86.352
  425.250    4.857    0.305    0.475   84.958
  425.500    5.005    0.302    0.458   84.355
  425.750    4.603    0.299    0.476   83.994
  426.000    4.603    0.308    0.508   80.657
  426.250    5.111    0.321    0.523   74.100
  426.500    5.611    0.328    0.528   67.117
  426.750    6.300    0.140    0.424   55.942
  427.000    6.891    0.092    0.269   46.772
  427.250    7.315    0.083    0.281   54.978
  427.500    7.454    0.178    0.356   62.272
  427.750    6.830    0.309    0.423   67.440
  428.000    6.018    0.329    0.510   68.294
  428.250    5.432    0.339    0.488   67.995
  428.500    5.061    0.346    0.479   68.059
  428.750    4.859    0.351    0.478   68.428
  429.000    4.752    0.353    0.474   68.978
  429.250    4.770    0.346    0.453   66.856
  429.500    4.906    0.343    0.451   67.650
  429.750    5.094    0.344    0.467   69.355
  430.000    5.328    0.350    0.480   69.055
  430.250    5.490    0.338    0.457   67.419
