~VERSION INFORMATION
 VERS.                 2.0:   CWLS LOG ASCII STANDARD -VERSION 2.0
 WRAP.                  NO:   ONE LINE PER DEPTH STEP
~WELL INFORMATION BLOCK
#MNEM.UNIT           DATA                    DESCRIPTION OF MNEMONIC
#---------    -------------------            -------------------------------
# Generated from Intellog Unique Number	CX_WELLS/WELL/3079
WELL.         BOW NEWPORT HOUSE              : Well_name    - WELL
LOC .         00/06-25-082-15W4/0            : Location     - LOCATION
UWI .         00/06-25-082-15W400            : Uwi          - UNIQUE WELL ID
ENTR.         TIM                            : Entered      - ENTERED BY
SRVC.         SCHLUMBERGER                   : Scn          - SERVICE COMPANY
DATE.         03/04/92                       : Date         - LOG DATE
STRT.M        140                            : top_depth    - START DEPTH
STOP.M        325                            : bot_depth    - STOP DEPTH
STEP.M        0.25                           : increment    - STEP LENGTH
 NULL. -999.2500:NULL Value
~CURVE INFORMATION BLOCK
#MNEM UNIT       ERCB CURVE CODE    CURVE DESCRIPTION
#-----------   ------------------   ----------------------------------
DEPT.M        00 001 00 00         : DEPTH        - DEPTH
GR  .API      00 310 00 00         : GR           - GAMMA RAY
NPHI.V/V      00 330 00 00         : PHIN         - NEUTRON POROSITY (SANDSTONE)
DPHI.V/V      00 890 00 00         : PHID         - DENSITY POROSITY (SANDSTONE)
ILD .OHMM     00 120 00 00         : RESD         - DEEP RESISTIVITY (OTHER)
~PARAMETER INFORMATION
#MNEM.UNIT           DATA             DESCRIPTION OF MNEMONIC
#---------         -----------     ------------------------------
GL  .M        566.8                : gl           - GROUND LEVEL ELEVATION
EREF.M        570.6                : kb           - ELEVATION OF DEPTH REFERENCE
DATM.M        570.6                : datum        - DATUM ELEVATION
TDD .M        332.7                : tdd          - TOTAL DEPTH DRILLER
RUN .         ONE                  : Run          - RUN NUMBER
ENG .         JO                   : Engineer     - RECORDING ENGINEER
WIT .         TIM                  : Witness      - WITNESSED BY
MUD .         GEL                  : Mud_type     - MUD TYPE
MATR.         SANDSTONE            : Logunit      - NEUTRON MATRIX
TMAX.C        20                   : BHT          - MAXIMUM RECORDED TEMPERATURE
BHTD.M        332                  : BHTDEP       - MAXIMUM RECORDED TEMPERATURE
RMT .C        19                   : MDTP         - TEMPERATURE OF MUD
MUDD.KG/M     1140                 : MWT          - MUD DENSITY
NEUT.         1                    : NEUTRON      - NEUTRON TYPE
RESI.         2.74                 : RESIST       - RESISTIVITY TYPE
RM  .OHMM     2.74                 : RM           - RESISTIVITY OF MUD
RMC .OHMM     2.74                 : RMC          - RESISTIVITY OF MUD CAKE
RMF .OHMM     2.74                 : RMF          - RESISTIVITY OF MUD FILTRATE
SUFT.C        4                    : SUFT         - SURFACE TEMPERATURE
~A  DEPTH       GR     PHIN     PHID     RESD
# ...
  227.000   82.831    0.481    0.238    5.417
  227.250   82.891    0.488    0.229    5.525
  227.500   82.967    0.493    0.213    5.639
  227.750   83.027    0.480    0.217    5.858
  228.000   83.073    0.468    0.224    6.438
  228.250   83.149    0.463    0.232    6.941
  228.500   80.862    0.461    0.243    8.214
  228.750   78.529    0.462    0.244    9.551
  229.000   75.636    0.462    0.249    9.736
  229.250   72.728    0.457    0.255   10.308
  229.500   70.441    0.453    0.261   10.709
  229.750   69.320    0.447    0.271   10.925
  230.000   69.380    0.439    0.273   11.150
  230.250   70.607    0.437    0.268   11.583
  230.500   70.668    0.438    0.259   11.817
  230.750   70.744    0.440    0.247   12.516
  231.000   68.456    0.439    0.226   13.503
  231.250   66.715    0.435    0.131   14.285
  231.500   61.459    0.430    0.024   15.699
  231.750   55.612    0.228    0.013   16.316
  232.000   58.626    0.276    0.072   14.091
  232.250   64.003    0.303    0.141   11.722
  232.500   64.079    0.324    0.154   10.123
  232.750   62.958    0.345    0.163    9.073
  233.000   64.791    0.369    0.180    8.441
  233.250   67.805    0.397    0.213    8.143
  233.500   70.229    0.428    0.249    7.576
  233.750   72.062    0.452    0.282    7.445
  234.000   73.304    0.452    0.276    7.058
  234.250   74.561    0.449    0.273    6.934
  234.500   75.197    0.453    0.267    6.947
  234.750   77.030    0.479    0.259    6.963
  235.000   77.696    0.471    0.260    6.965
  235.250   76.000    0.464    0.255    6.976
  235.500   75.455    0.457    0.240    6.986
  235.750   74.349    0.449    0.228    6.996
  236.000   77.954    0.440    0.204    6.886
  236.250   79.772    0.440    0.188    6.894
  236.500   82.786    0.450    0.183    6.901
  236.750   85.225    0.463    0.216    7.038
  237.000   85.285    0.468    0.239    7.460
  237.250   85.331    0.471    0.251    7.605
  237.500   85.421    0.471    0.249    7.903
  237.750   85.452    0.471    0.240    7.630
  238.000   83.755    0.470    0.231    7.498
  238.250   82.619    0.463    0.202    7.237
  238.500   81.529    0.458    0.196    7.114
  238.750   82.771    0.455    0.214    6.994
  239.000   84.013    0.458    0.215    6.876
  239.250   84.649    0.459    0.215    6.887
  239.500   84.725    0.457    0.215    6.899
  239.750   84.785    0.454    0.212    6.910
  240.000   85.422    0.458    0.208    6.917
  240.250   86.664    0.461    0.202    7.060
  240.500   87.315    0.457    0.197    7.200
  240.750   86.785    0.454    0.196    7.345
  241.000   87.436    0.462    0.220    7.634
  241.250   88.694    0.467    0.226    7.794
  241.500   88.163    0.477    0.233    7.948
  241.750   87.618    0.470    0.226    7.960
  242.000   85.922    0.463    0.231    7.823
  242.250   85.982    0.459    0.237    7.696
  242.500   87.240    0.460    0.237    7.564
  242.750   88.466    0.460    0.225    7.168
  243.000   89.118    0.461    0.228    6.915
  243.250   89.769    0.465    0.230    6.796
  243.500   89.239    0.468    0.235    6.325
  243.750   88.724    0.472    0.231    6.330
  244.000   88.800    0.475    0.226    6.109
  244.250   89.421    0.487    0.214    6.006
  244.500   89.481    0.495    0.221    5.798
  244.750   88.966    0.494    0.239    5.807
  245.000   88.421    0.496    0.230    6.262
  245.250   86.725    0.499    0.221    6.630
  245.500   86.195    0.504    0.247    6.888
  245.750   87.437    0.509    0.253    7.300
  246.000   88.088    0.512    0.247    7.445
  246.250   87.543    0.505    0.236    7.453
  246.500   85.240    0.481    0.216    7.604
  246.750   84.120    0.461    0.190    7.763
  247.000   84.786    0.456    0.189    7.917
  247.250   86.619    0.465    0.190    8.074
  247.500   87.270    0.474    0.246    8.558
  247.750   86.725    0.470    0.252    8.890
  248.000   85.028    0.467    0.256    9.063
  248.250   83.908    0.463    0.258    9.778
  248.500   82.196    0.461    0.264   10.352
  248.750   81.060    0.457    0.265   10.754
  249.000   78.758    0.453    0.259   10.972
  249.250   77.637    0.451    0.253   11.193
  249.500   77.698    0.434    0.245   11.013
  249.750   77.758    0.411    0.217   10.823
  250.000   77.834    0.369    0.189   10.640
  250.250   78.485    0.356    0.159   10.456
  250.500   79.152    0.313    0.123    9.914
  250.750   80.364    0.374    0.143    9.739
  251.000   84.605    0.427    0.210    9.761
  251.250   85.832    0.447    0.220    9.772
  251.500   86.498    0.451    0.227    9.437
  251.750   86.528    0.454    0.243    9.275
  252.000   85.423    0.448    0.251    8.948
  252.250   85.468    0.443    0.253    8.327
  252.500   84.938    0.438    0.244    8.184
  252.750   84.423    0.433    0.229    7.898
  253.000   85.074    0.432    0.217    7.904
  253.250   85.120    0.434    0.226    7.353
  253.500   85.180    0.438    0.235    6.966
  253.750   84.665    0.441    0.237    6.602
  254.000   84.150    0.446    0.235    6.367
  254.250   84.196    0.451    0.231    5.926
  254.500   85.438    0.456    0.228    5.715
  254.750   86.680    0.460    0.234    5.517
  255.000   88.513    0.470    0.239    5.326
  255.250   90.936    0.492    0.245    5.432
  255.500   92.799    0.498    0.246    5.643
  255.750   92.830    0.500    0.246    6.681
  256.000   92.890    0.490    0.246    7.614
  256.250   90.588    0.469    0.242    8.522
  256.500   87.120    0.461    0.235    8.534
  256.750   83.636    0.451    0.200    8.088
  257.000   81.924    0.445    0.183    7.663
  257.250   84.363    0.436    0.198    7.257
  257.500   87.377    0.436    0.210    6.754
  257.750   88.589    0.444    0.211    6.513
  258.000   92.785    0.456    0.211    6.173
  258.250   96.980    0.466    0.213    5.957
  258.500   99.419    0.466    0.219    5.854
  258.750  103.024    0.465    0.216    5.756
  259.000  103.085    0.463    0.215    5.874
  259.250  100.192    0.463    0.213    5.991
  259.500   97.889    0.463    0.210    6.226
  259.750  100.903    0.463    0.207    6.968
  260.000  103.327    0.469    0.207    7.655
  260.250  106.341    0.472    0.207    8.894
  260.500  107.598    0.477    0.208   10.143
  260.750  106.478    0.476    0.211   10.935
  261.000  104.781    0.472    0.206   12.018
  261.250  104.221    0.454    0.198   12.265
  261.500  102.509    0.429    0.192   12.508
  261.750   99.616    0.407    0.182   12.527
  262.000   96.147    0.402    0.178   12.550
  262.250   96.223    0.404    0.176   12.108
  262.500   97.450    0.405    0.167   11.681
  262.750   98.102    0.405    0.160   11.273
  263.000   98.162    0.409    0.164   10.295
  263.250   97.647    0.415    0.183    9.936
  263.500   97.693    0.422    0.196    9.409
  263.750   97.753    0.429    0.215    9.250
  264.000   97.844    0.434    0.215    9.098
  264.250   98.480    0.436    0.208    9.455
  264.500   98.526    0.439    0.195    9.823
  264.750   99.177    0.437    0.193   10.795
  265.000   98.647    0.430    0.199   11.219
  265.250   96.951    0.419    0.206   11.240
  265.500   94.058    0.400    0.214   11.046
  265.750   91.149    0.399    0.223   10.860
  266.000   89.453    0.402    0.235   10.880
  266.250   89.529    0.405    0.235   10.888
  266.500   88.984    0.411    0.223   11.324
  266.750   89.029    0.420    0.210   11.769
  267.000   87.348    0.423    0.216   12.002
  267.250   86.212    0.423    0.225   12.245
  267.500   84.485    0.419    0.226   12.492
  267.750   82.198    0.413    0.227   12.988
  268.000   79.895    0.404    0.211   13.498
  268.250   78.744    0.368    0.187   13.513
  268.500   76.442    0.306    0.143   13.046
  268.750   72.973    0.292    0.081   12.585
  269.000   71.247    0.319    0.100   11.713
  269.250   68.354    0.308    0.076   11.507
  269.500   67.823    0.297    0.198   11.105
  269.750   71.428    0.332    0.237    9.952
  270.000   79.184    0.367    0.232    9.788
  270.250   82.789    0.405    0.222    9.619
