~VERSION INFORMATION
 VERS.                 2.0:   CWLS LOG ASCII STANDARD -VERSION 2.0
 WRAP.                  NO:   ONE LINE PER DEPTH STEP
~WELL INFORMATION BLOCK
#MNEM.UNIT           DATA                    DESCRIPTION OF MNEMONIC
#---------    -------------------            -------------------------------
# Generated from Intellog Unique Number	CX_WELLS/WELL/3079
WELL.         BOW NEWPORT HOUSE              : Well_name    - WELL
LOC .         00/06-25-082-15W4/0            : Location     - LOCATION
UWI .         00/06-25-082-15W400            : Uwi          - UNIQUE WELL ID
ENTR.         TIM                            : Entered      - ENTERED BY
SRVC.         SCHLUMBERGER                   : Scn          - SERVICE COMPANY
DATE.         03/04/92                       : Date         - LOG DATE
STRT.M        140                            : top_depth    - START DEPTH
STOP.M        325                            : bot_depth    - STOP DEPTH
STEP.M        0.25                           : increment    - STEP LENGTH
 NULL. -999.2500:NULL Value
~CURVE INFORMATION BLOCK
#MNEM UNIT       ERCB CURVE CODE    CURVE DESCRIPTION
#-----------   ------------------   ----------------------------------
DEPT.M        00 001 00 00         : DEPTH        - DEPTH
GR  .API      00 310 00 00         : GR           - GAMMA RAY
NPHI.V/V      00 330 00 00         : PHIN         - NEUTRON POROSITY (SANDSTONE)
DPHI.V/V      00 890 00 00         : PHID         - DENSITY POROSITY (SANDSTONE)
ILD .OHMM     00 120 00 00         : RESD         - DEEP RESISTIVITY (OTHER)
~PARAMETER INFORMATION
#MNEM.UNIT           DATA             DESCRIPTION OF MNEMONIC
#---------         -----------     ------------------------------
GL  .M        566.8                : gl           - GROUND LEVEL ELEVATION
EREF.M        570.6                : kb           - ELEVATION OF DEPTH REFERENCE
DATM.M        570.6                : datum        - DATUM ELEVATION
TDD .M        332.7                : tdd          - TOTAL DEPTH DRILLER
RUN .         ONE                  : Run          - RUN NUMBER
ENG .         JO                   : Engineer     - RECORDING ENGINEER
WIT .         TIM                  : Witness      - WITNESSED BY
MUD .         GEL                  : Mud_type     - MUD TYPE
MATR.         SANDSTONE            : Logunit      - NEUTRON MATRIX
TMAX.C        20                   : BHT          - MAXIMUM RECORDED TEMPERATURE
BHTD.M        332                  : BHTDEP       - MAXIMUM RECORDED TEMPERATURE
RMT .C        19                   : MDTP         - TEMPERATURE OF MUD
MUDD.KG/M     1140                 : MWT          - MUD DENSITY
NEUT.         1                    : NEUTRON      - NEUTRON TYPE
RESI.         2.74                 : RESIST       - RESISTIVITY TYPE
RM  .OHMM     2.74                 : RM           - RESISTIVITY OF MUD
RMC .OHMM     2.74                 : RMC          - RESISTIVITY OF MUD CAKE
RMF .OHMM     2.74                 : RMF          - RESISTIVITY OF MUD FILTRATE
SUFT.C        4                    : SUFT         - SURFACE TEMPERATURE
~A  DEPTH       GR     PHIN     PHID     RESD
  140.000   64.435    0.583    0.216    9.234
  140.250   69.236    0.594    0.167    9.424
  140.500   73.432    0.589    0.163    9.442
  140.750   77.628    0.570    0.169    9.275
  141.000   91.290    0.492    0.173    8.951
  141.250  101.408    0.465    0.202    8.639
  141.500   98.515    0.440    0.220    8.978
  141.750   95.607    0.434    0.231    9.512
  142.000   92.714    0.434    0.238    9.882
  142.250   87.473    0.444    0.244   10.270
  142.500   82.217    0.453    0.252   10.669
  142.750   78.113    0.458    0.259   11.092
  143.000   72.857    0.456    0.271   11.312
  143.250   68.207    0.452    0.288   11.761
  143.500   70.024    0.452    0.290   12.003
  143.750   74.235    0.454    0.274   12.479
  144.000   76.068    0.455    0.264   12.722
  144.250   75.553    0.454    0.258   12.988
  144.500   73.811    0.450    0.265   13.246
  144.750   69.737    0.440    0.270   13.508
  145.000   69.812    0.426    0.276   14.049
  145.250   71.645    0.424    0.282   14.328
  145.500   72.312    0.424    0.284   14.344
  145.750   74.144    0.422    0.289   14.112
  146.000   75.371    0.420    0.291   13.864
  146.250   77.795    0.417    0.291   13.884
  146.500   79.643    0.418    0.296   13.910
  146.750   80.279    0.421    0.301   13.926
  147.000   81.536    0.423    0.300   13.691
  147.250   81.597    0.427    0.292   13.218
  147.500   79.885    0.429    0.274   12.527
  147.750   81.127    0.432    0.267   12.306
  148.000   82.369    0.431    0.258   11.449
  148.250   83.627    0.424    0.248   10.847
  148.500   84.869    0.417    0.240   10.464
  148.750   86.111    0.416    0.227    9.731
  149.000   86.171    0.417    0.217    9.223
  149.250   86.823    0.418    0.208    9.236
  149.500   86.883    0.416    0.197    9.596
  149.750   89.307    0.410    0.205    9.972
  150.000   91.140    0.409    0.210   10.759
  150.250   90.625    0.412    0.209   11.390
  150.500   90.655    0.414    0.211   10.403
  150.750   90.731    0.414    0.211    9.490
  151.000   91.973    0.416    0.206    7.898
  151.250   96.168    0.433    0.190    6.452
  151.500  100.364    0.465    0.154    5.676
  151.750  106.923    0.482    0.131    5.582
  152.000  112.315    0.490    0.136    5.693
  152.250  112.997    0.494    0.139    5.706
  152.500  113.042    0.494    0.165    5.605
  152.750  113.103    0.494    0.165    5.213
  153.000  113.163    0.493    0.152    4.850
  153.250  113.224    0.495    0.139    4.512
  153.500  113.285    0.494    0.124    4.351
  153.750  113.330    0.494    0.123    4.199
  154.000  113.981    0.494    0.151    4.366
  154.250  114.057    0.494    0.164    4.795
  154.500  114.118    0.499    0.170    5.568
  154.750  114.194    0.510    0.201    6.467
  155.000  113.633    0.523    0.213    7.373
  155.250  112.512    0.534    0.230    8.255
  155.500  109.634    0.439    0.251    9.069
  155.750  106.726    0.425    0.266    9.425
  156.000  102.061    0.413    0.283    9.273
  156.250   93.851    0.399    0.289    9.283
  156.500   86.808    0.404    0.261    9.293
  156.750   89.822    0.412    0.234    9.311
  157.000   97.578    0.416    0.214    9.321
  157.250  101.773    0.423    0.191    8.834
  157.500  104.212    0.429    0.196    8.369
  157.750  105.454    0.435    0.205    7.783
  158.000  105.515    0.441    0.210    7.649
  158.250  106.181    0.444    0.209    8.104
  158.500  106.211    0.447    0.208    8.419
  158.750  105.106    0.448    0.222    8.910
  159.000  101.607    0.451    0.229    9.613
  159.250   96.351    0.451    0.253    9.810
  159.500   95.821    0.449    0.264   10.009
  159.750   95.881    0.445    0.275   10.016
  160.000   95.942    0.442    0.271   10.035
  160.250   96.003    0.435    0.265   10.046
  160.500   94.306    0.423    0.254   10.068
  160.750   90.807    0.414    0.249   10.083
  161.000   87.914    0.413    0.251   10.102
  161.250   82.658    0.413    0.255   10.110
  161.500   79.174    0.416    0.257   10.125
  161.750   73.919    0.422    0.259    9.958
  162.000   69.844    0.417    0.259    9.976
  162.250   66.936    0.407    0.259    9.983
  162.500   67.012    0.406    0.264    9.819
  162.750   68.844    0.412    0.276    9.837
  163.000   68.314    0.431    0.271    9.667
  163.250   68.981    0.445    0.265    9.678
  163.500   71.995    0.446    0.251    9.176
  163.750   73.828    0.449    0.233    9.017
  164.000   75.070    0.453    0.238    9.027
  164.250   76.903    0.450    0.245    9.041
  164.500   77.554    0.446    0.254    9.230
  164.750   76.448    0.445    0.253    9.410
  165.000   75.297    0.444    0.253    9.424
  165.250   72.995    0.443    0.253    9.438
  165.500   71.874    0.442    0.254    9.115
  165.750   71.359    0.442    0.254    9.122
  166.000   71.420    0.442    0.253    9.136
  166.250   71.496    0.437    0.252    9.149
  166.500   71.526    0.436    0.254    9.163
  166.750   71.586    0.436    0.257    9.183
  167.000   71.662    0.437    0.258    9.025
  167.250   71.132    0.440    0.262    9.045
  167.500   70.026    0.440    0.262    9.048
  167.750   69.481    0.440    0.265    8.902
  168.000   68.936    0.439    0.270    8.912
  168.250   68.421    0.440    0.273    9.092
  168.500   67.906    0.441    0.279    9.276
  168.750   67.361    0.443    0.282    9.286
  169.000   65.664    0.444    0.274    9.307
  169.250   65.104    0.439    0.264    9.143
  169.500   63.998    0.433    0.252    9.160
  169.750   64.649    0.426    0.240    9.174
  170.000   66.513    0.424    0.235    9.194
  170.250   67.133    0.422    0.241    9.205
  170.500   68.391    0.434    0.269    9.215
  170.750   69.042    0.445    0.272    9.235
  171.000   68.512    0.446    0.281    9.246
  171.250   68.557    0.444    0.278    9.260
  171.500   68.633    0.448    0.279    9.273
  171.750   69.269    0.450    0.282    9.638
  172.000   69.330    0.451    0.283   10.012
  172.250   68.800    0.450    0.287   10.218
  172.500   68.270    0.445    0.291   10.421
  172.750   67.164    0.445    0.292   10.444
  173.000   66.619    0.445    0.292   10.651
  173.250   66.089    0.443    0.291   10.667
  173.500   65.574    0.442    0.288   10.291
  173.750   65.619    0.441    0.284    9.932
  174.000   65.680    0.437    0.285   10.136
  174.250   65.740    0.436    0.288   10.337
  174.500   65.801    0.431    0.285   10.956
  174.750   65.862    0.427    0.279   11.382
  175.000   65.347    0.424    0.276   11.603
  175.250   64.816    0.422    0.288   11.629
  175.500   63.696    0.420    0.294   11.424
  175.750   63.166    0.420    0.291   10.827
  176.000   66.180    0.423    0.283   10.445
  176.250   69.800    0.424    0.276    9.899
  176.500   73.996    0.427    0.272    9.382
  176.750   78.782    0.436    0.262    9.217
  177.000   80.615    0.444    0.261    9.230
  177.250   80.675    0.454    0.264    9.244
  177.500   79.555    0.457    0.274    8.761
  177.750   79.040    0.450    0.280    8.145
  178.000   78.510    0.442    0.286    6.778
  178.250   78.555    0.435    0.282    5.537
  178.500   79.797    0.441    0.260    5.862
  178.750   85.174    0.475    0.248    6.561
  179.000   88.188    0.490    0.251    7.623
  179.250   87.067    0.478    0.260    8.856
  179.500   83.614    0.455    0.269    9.726
  179.750   81.887    0.446    0.274   10.889
  180.000   79.585    0.450    0.279   11.958
  180.250   77.298    0.453    0.275   13.143
  180.500   77.328    0.450    0.272   13.659
  180.750   77.980    0.446    0.272   13.935
  181.000   78.631    0.446    0.276   12.731
  181.250   77.525    0.447    0.277   12.277
  181.500   76.389    0.448    0.276   10.999
  181.750   76.465    0.447    0.268    8.344
  182.000   77.692    0.445    0.256    5.773
  182.250   88.401    0.446    0.230    5.467
  182.500   91.430    0.463    0.224    5.181
  182.750   92.066    0.480    0.215    5.094
  183.000   93.308    0.489    0.217    5.099
  183.250   93.960    0.495    0.212    5.107
