~VERSION INFORMATION
 VERS.                 2.0:   CWLS LOG ASCII STANDARD -VERSION 2.0
 WRAP.                  NO:   ONE LINE PER DEPTH STEP
~WELL INFORMATION BLOCK
#MNEM.UNIT           DATA                    DESCRIPTION OF MNEMONIC
#---------    -------------------            -------------------------------
# Generated from Intellog Unique Number	CW_73_75/WELL/694
WELL.         HB  MARTEN HILLS 07-11         : Well_name    - WELL
LOC .         00/07-11-074-01W5/0            : Location     - LOCATION
UWI .         00/07-11-074-01W5/0            : Uwi          - UNIQUE WELL ID
ENTR.         JAYE                           : Entered      - ENTERED BY
SRVC.         SCHLUMBERGER                   : Scn          - SERVICE COMPANY
DATE.         22 SEPT 73                     : Date         - LOG DATE
STRT.M        435.864                        : top_depth    - START DEPTH
STOP.M        673.614                        : bot_depth    - STOP DEPTH
STEP.M        0.25                           : increment    - STEP LENGTH
 NULL. -999.2500:NULL Value
~CURVE INFORMATION BLOCK
#MNEM UNIT       ERCB CURVE CODE    CURVE DESCRIPTION
#-----------   ------------------   ----------------------------------
DEPT.M        00 001 00 00         : DEPTH        - DEPTH
ILD .OHMM     00 120 00 00         : RESD         - DEEP RESISTIVITY (DIL)
NPHI.V/V      00 330 00 00         : PHIN         - NEUTRON POROSITY (SANDSTONE)
DPHI.V/V      00 890 00 00         : PHID         - DENSITY POROSITY (SANDSTONE)
CALI.MM       00 280 01 00         : CAL          - CALIPER
GR  .API      00 310 00 00         : GR           - GAMMA RAY
~PARAMETER INFORMATION
#MNEM.UNIT           DATA             DESCRIPTION OF MNEMONIC
#---------         -----------     ------------------------------
GL  .M        678.18               : gl           - GROUND LEVEL ELEVATION
EREF.M        681.838              : kb           - ELEVATION OF DEPTH REFERENCE
DATM.M        678.18               : datum        - DATUM ELEVATION
TDD .M        670.56               : tdd          - TOTAL DEPTH DRILLER
RUN .         ONE                  : Run          - RUN NUMBER
BASE.         EDM                  : Branch       - HOME BASE OF LOGGING UNIT
MATR.         SANDSTONE            : Logunit      - NEUTRON MATRIX
TMAX.C        30                   : BHT          - MAXIMUM RECORDED TEMPERATURE
BHTD.M        670.865              : BHTDEP       - MAXIMUM RECORDED TEMPERATURE
RMT .C        -17.7778             : MDTP         - TEMPERATURE OF MUD
MUDD.KG/M     0                    : MWT          - MUD DENSITY
NEUT.         1                    : NEUTRON      - NEUTRON TYPE
RESI.         0                    : RESIST       - RESISTIVITY TYPE
RM  .OHMM     0                    : RM           - RESISTIVITY OF MUD
RMC .OHMM     0                    : RMC          - RESISTIVITY OF MUD CAKE
RMF .OHMM     0                    : RMF          - RESISTIVITY OF MUD FILTRATE
SUFT.C        -17.7778             : SUFT         - SURFACE TEMPERATURE
~A  DEPTH     RESD     PHIN     PHID      CAL       GR
# ...
  545.364    4.163    0.299    0.177  205.631   75.272
  545.614    4.606    0.249    0.112  205.347   72.967
  545.864    5.373    0.196    0.000  205.272   67.850
  546.114    6.588    0.194   -0.008  205.298   66.400
  546.364   11.282    0.192    0.008  205.328   62.811
  546.614   18.589    0.187    0.026  205.660   57.633
  546.864   24.081    0.177    0.017  206.100   55.755
  547.114   24.934    0.213    0.001  206.543   56.076
  547.364   21.291    0.259    0.021  206.982   57.985
  547.614   17.301    0.287    0.073  206.701   59.774
  547.864   13.551    0.333    0.163  206.311   62.478
  548.114   10.460    0.416    0.186  205.199   65.975
  548.364    8.437    0.467    0.212  203.984   71.918
  548.614    6.881    0.498    0.251  203.286   74.317
  548.864    5.301    0.528    0.268  202.485   74.760
  549.114    4.348    0.493    0.280  201.683   73.371
  549.364    4.003    0.487    0.267  201.193   71.614
  549.614    3.705    0.502    0.247  200.910   72.425
  549.864    3.462    0.526    0.254  200.841   72.746
  550.114    3.343    0.532    0.243  200.864   71.296
  550.364    3.270    0.496    0.245  200.993   71.373
  550.614    3.193    0.479    0.259  201.328   72.855
  550.864    3.157    0.474    0.273  201.664   72.930
  551.114    3.140    0.534    0.252  201.899   72.092
  551.364    3.094    0.503    0.258  201.927   73.268
  551.614    3.032    0.487    0.243  202.059   74.994
  551.864    3.004    0.553    0.263  202.185   76.232
  552.114    2.993    0.558    0.273  202.527   78.631
  552.364    2.993    0.543    0.266  202.859   77.364
  552.614    2.998    0.526    0.261  203.096   77.624
  552.864    2.982    0.507    0.265  203.124   75.012
  553.114    2.992    0.553    0.278  203.459   69.713
  553.364    3.009    0.581    0.257  203.486   71.439
  553.614    3.025    0.599    0.256  203.304   68.766
  553.864    3.092    0.594    0.269  203.331   71.778
  554.114    3.167    0.567    0.283  203.251   74.235
  554.364    3.220    0.549    0.270  202.971   73.580
  554.614    3.303    0.553    0.242  202.585   71.030
  554.864    3.364    0.562    0.247  202.506   73.122
  555.114    3.452    0.539    0.256  202.738   76.987
  555.364    3.503    0.503    0.250  203.390   76.270
  555.614    3.561    0.474    0.225  203.826   78.484
  555.864    3.613    0.459    0.192  205.612   83.877
  556.114    3.653    0.459    0.211  207.190   84.626
  556.364    3.700    0.464    0.225  207.217   81.403
  556.614    3.734    0.501    0.213  207.038   83.619
  556.864    3.775    0.535    0.236  206.856   79.847
  557.114    3.789    0.534    0.241  206.678   75.097
  557.364    3.852    0.508    0.235  207.117   71.997
  557.614    3.945    0.476    0.224  207.662   74.578
  557.864    4.018    0.481    0.203  208.312   80.583
  558.114    4.077    0.479    0.207  209.163   83.958
  558.364    4.114    0.482    0.206  210.844   83.180
  558.614    4.152    0.497    0.207  210.457   81.057
  558.864    4.167    0.495    0.203  208.105   79.363
  559.114    4.198    0.476    0.190  205.958   77.911
  559.364    4.260    0.469    0.197  204.848   76.401
  559.614    4.394    0.475    0.204  204.460   77.270
  559.864    4.643    0.471    0.181  204.593   77.899
  560.114    4.924    0.439    0.157  204.824   78.341
  560.364    5.357    0.413    0.151  205.161   79.517
  560.614    5.755    0.375    0.137  207.981   80.757
  560.864    6.182    0.335    0.118  211.216   79.487
  561.114    6.776    0.293    0.110  211.759   76.693
  561.364    7.468    0.266    0.093  209.925   71.883
  561.614    7.978    0.246    0.050  208.087   65.299
  561.864    8.368    0.240    0.048  206.668   62.688
  562.114    8.398    0.244    0.045  205.871   65.271
  562.364    7.977    0.251    0.075  205.583   68.525
  562.614    7.425    0.274    0.086  205.400   71.289
  562.864    6.811    0.311    0.102  205.120   74.605
  563.114    6.089    0.398    0.127  204.833   78.898
  563.364    5.286    0.468    0.158  204.239   81.540
  563.614    4.699    0.451    0.164  203.130   79.907
  563.864    4.597    0.427    0.181  201.607   80.655
  564.114    4.699    0.446    0.198  200.598   80.793
  564.364    4.874    0.463    0.185  200.314   81.847
  564.614    5.113    0.415    0.171  200.649   80.580
  564.864    5.313    0.400    0.156  201.401   77.662
  565.114    5.382    0.408    0.152  201.840   78.657
  565.364    5.245    0.470    0.163  202.078   82.095
  565.614    5.037    0.506    0.195  201.896   86.385
  565.864    4.784    0.515    0.206  201.510   89.701
  566.114    4.528    0.517    0.201  201.533   90.084
  566.364    4.115    0.508    0.219  201.560   88.940
  566.614    4.040    0.503    0.214  201.586   88.832
  566.864    4.085    0.501    0.198  201.407   90.314
  567.114    4.130    0.493    0.178  201.232   91.858
  567.364    4.168    0.464    0.196  201.254   91.874
  567.614    4.221    0.455    0.200  201.176   91.278
  567.864    4.252    0.509    0.191  201.410   93.006
  568.114    4.268    0.509    0.180  201.746   96.503
  568.364    4.283    0.488    0.161  201.363  100.062
  568.614    4.299    0.498    0.188  201.285   99.162
  568.864    4.322    0.510    0.171  201.313   95.879
  569.114    4.354    0.518    0.156  201.236   93.510
  569.364    4.370    0.526    0.173  201.365   95.177
  569.614    4.410    0.526    0.189  201.391   96.599
  569.864    4.426    0.506    0.167  201.523   95.208
  570.114    4.433    0.491    0.166  201.753   92.719
  570.364    4.441    0.478    0.166  202.303   95.791
  570.614    4.449    0.520    0.167  202.331   95.071
  570.864    4.441    0.532    0.194  202.454   91.238
  571.114    4.433    0.486    0.167  203.210   88.749
  571.364    4.449    0.494    0.148  203.957   89.376
  571.614    4.473    0.508    0.173  204.710   93.302
  571.864    4.514    0.519    0.155  205.148   94.601
  572.114    4.572    0.529    0.129  205.277   94.251
  572.364    4.674    0.431    0.157  205.412   93.777
  572.614    4.822    0.413    0.149  205.541   91.776
  572.864    5.067    0.427    0.122  205.980   89.410
  573.114    5.452    0.454    0.122  206.628   85.882
  573.364    5.604    0.477    0.180  207.169   85.469
  573.614    5.645    0.464    0.185  207.612   94.161
  573.864    5.452    0.481    0.174  208.575   95.276
  574.114    5.037    0.513    0.184  208.904   95.964
  574.364    4.672    0.514    0.173  209.450   94.271
  574.614    4.478    0.507    0.180  209.786   93.491
  574.864    4.397    0.527    0.167  210.124   93.690
  575.114    4.348    0.510    0.165  210.569   91.629
  575.364    4.324    0.485    0.177  210.698   91.095
  575.614    4.348    0.502    0.151  210.723   92.638
  575.864    4.469    0.506    0.161  210.437   95.830
  576.114    4.653    0.493    0.181  209.640   97.862
  576.364    4.722    0.524    0.198  208.940   95.863
  576.614    4.593    0.562    0.184  208.863   92.090
  576.864    4.419    0.587    0.162  209.923   93.023
  577.114    4.299    0.608    0.141  217.710   97.192
  577.364    4.395    0.616    0.151  231.082  100.018
  577.614    4.567    0.507    0.168  222.211   98.691
  577.864    4.897    0.515    0.186  208.272   85.937
  578.114    5.671    0.511    0.238  201.988   74.650
  578.364    7.043    0.372    0.222  200.875   66.233
  578.614    8.416    0.334    0.178  201.420   59.345
  578.864    9.946    0.214    0.037  202.586   56.061
  579.114   11.797    0.188    0.014  203.748   53.206
  579.364   13.335    0.181    0.005  204.397   51.388
  579.614   15.523    0.176    0.008  206.993   49.680
  579.864   20.023    0.175   -0.001  206.552   49.971
  580.114   22.510    0.244    0.001  206.634   50.688
  580.364   17.346    0.284    0.012  207.334   55.305
  580.614   13.367    0.387    0.186  207.512   59.621
  580.864   10.983    0.507    0.232  207.176   64.118
  581.114    9.500    0.501    0.278  205.912   66.177
  581.364    8.262    0.479    0.279  203.514   66.650
  581.614    7.159    0.463    0.270  199.458   66.328
