~VERSION INFORMATION
 VERS.                 2.0:   CWLS LOG ASCII STANDARD -VERSION 2.0
 WRAP.                  NO:   ONE LINE PER DEPTH STEP
~WELL INFORMATION BLOCK
#MNEM.UNIT           DATA                    DESCRIPTION OF MNEMONIC
#---------    -------------------            -------------------------------
# Generated from Intellog Unique Number	CW_73_75/WELL/694
WELL.         HB  MARTEN HILLS 07-11         : Well_name    - WELL
LOC .         00/07-11-074-01W5/0            : Location     - LOCATION
UWI .         00/07-11-074-01W5/0            : Uwi          - UNIQUE WELL ID
ENTR.         JAYE                           : Entered      - ENTERED BY
SRVC.         SCHLUMBERGER                   : Scn          - SERVICE COMPANY
DATE.         22 SEPT 73                     : Date         - LOG DATE
STRT.M        435.864                        : top_depth    - START DEPTH
STOP.M        673.614                        : bot_depth    - STOP DEPTH
STEP.M        0.25                           : increment    - STEP LENGTH
 NULL. -999.2500:NULL Value
~CURVE INFORMATION BLOCK
#MNEM UNIT       ERCB CURVE CODE    CURVE DESCRIPTION
#-----------   ------------------   ----------------------------------
DEPT.M        00 001 00 00         : DEPTH        - DEPTH
ILD .OHMM     00 120 00 00         : RESD         - DEEP RESISTIVITY (DIL)
NPHI.V/V      00 330 00 00         : PHIN         - NEUTRON POROSITY (SANDSTONE)
DPHI.V/V      00 890 00 00         : PHID         - DENSITY POROSITY (SANDSTONE)
CALI.MM       00 280 01 00         : CAL          - CALIPER
GR  .API      00 310 00 00         : GR           - GAMMA RAY
~PARAMETER INFORMATION
#MNEM.UNIT           DATA             DESCRIPTION OF MNEMONIC
#---------         -----------     ------------------------------
GL  .M        678.18               : gl           - GROUND LEVEL ELEVATION
EREF.M        681.838              : kb           - ELEVATION OF DEPTH REFERENCE
DATM.M        678.18               : datum        - DATUM ELEVATION
TDD .M        670.56               : tdd          - TOTAL DEPTH DRILLER
RUN .         ONE                  : Run          - RUN NUMBER
BASE.         EDM                  : Branch       - HOME BASE OF LOGGING UNIT
MATR.         SANDSTONE            : Logunit      - NEUTRON MATRIX
TMAX.C        30                   : BHT          - MAXIMUM RECORDED TEMPERATURE
BHTD.M        670.865              : BHTDEP       - MAXIMUM RECORDED TEMPERATURE
RMT .C        -17.7778             : MDTP         - TEMPERATURE OF MUD
MUDD.KG/M     0                    : MWT          - MUD DENSITY
NEUT.         1                    : NEUTRON      - NEUTRON TYPE
RESI.         0                    : RESIST       - RESISTIVITY TYPE
RM  .OHMM     0                    : RM           - RESISTIVITY OF MUD
RMC .OHMM     0                    : RMC          - RESISTIVITY OF MUD CAKE
RMF .OHMM     0                    : RMF          - RESISTIVITY OF MUD FILTRATE
SUFT.C        -17.7778             : SUFT         - SURFACE TEMPERATURE
~A  DEPTH     RESD     PHIN     PHID      CAL       GR
# ...
  508.864    4.666    0.516    0.150  205.355   87.514
  509.114    4.823    0.490    0.165  205.692   87.346
  509.364    4.840    0.479    0.149  206.135   88.766
  509.614    4.813    0.487    0.181  206.157   89.333
  509.864    4.839    0.512    0.176  206.495   89.043
  510.114    4.848    0.535    0.147  206.935   89.120
  510.364    4.848    0.498    0.149  207.273   85.714
  510.614    4.901    0.475    0.139  207.612   86.342
  510.864    4.928    0.460    0.141  207.636   89.044
  511.114    4.919    0.458    0.144  208.081   93.154
  511.364    4.910    0.472    0.141  208.209   92.497
  511.614    4.927    0.466    0.154  208.547   89.458
  511.864    4.927    0.460    0.142  207.951   88.130
  512.114    4.954    0.465    0.166  206.739   87.473
  512.364    5.000    0.473    0.182  206.038   88.222
  512.614    4.972    0.483    0.172  205.237   88.973
  512.864    4.819    0.497    0.172  204.539   89.293
  513.114    4.653    0.505    0.173  204.154   89.797
  513.364    4.444    0.522    0.171  203.869   91.523
  513.614    4.183    0.552    0.186  204.206   90.868
  513.864    3.980    0.569    0.177  204.646   88.928
  514.114    3.901    0.557    0.170  204.881   87.967
  514.364    3.973    0.571    0.164  204.701   87.249
  514.614    4.061    0.555    0.165  203.690   85.799
  514.864    4.113    0.535    0.190  202.581   83.920
  515.114    4.113    0.507    0.211  201.263   79.231
  515.364    4.098    0.485    0.234  200.877   73.381
  515.614    4.023    0.498    0.230  200.487   65.699
  515.864    3.921    0.522    0.231  199.901   63.759
  516.114    3.821    0.531    0.263  199.509   57.115
  516.364    3.710    0.493    0.252  199.327   51.265
  516.614    3.544    0.489    0.261  199.353   50.487
  516.864    3.304    0.494    0.283  199.592   53.375
  517.114    3.185    0.491    0.273  199.613   55.957
  517.364    3.133    0.503    0.265  199.742   58.051
  517.614    3.133    0.524    0.272  199.773   59.043
  517.864    3.179    0.538    0.281  200.006   64.068
  518.114    3.232    0.521    0.277  200.139   63.842
  518.364    3.297    0.514    0.264  200.472   61.962
  518.614    3.365    0.515    0.248  200.812   62.955
  518.864    3.414    0.545    0.274  200.942   67.248
  519.114    3.490    0.577    0.263  201.276   71.173
  519.364    3.587    0.572    0.266  201.508   70.762
  519.614    3.620    0.568    0.252  201.744   68.640
  519.864    3.640    0.553    0.257  201.975   65.539
  520.114    3.640    0.528    0.264  202.211   62.500
  520.364    3.547    0.510    0.271  202.338   60.438
  520.614    3.515    0.497    0.248  202.060   60.395
  520.864    3.527    0.493    0.244  201.567   59.798
  521.114    3.527    0.496    0.258  201.287   59.448
  521.364    3.553    0.474    0.278  201.103   61.601
  521.614    3.645    0.481    0.270  201.025   63.512
  521.864    3.816    0.518    0.268  201.054   65.420
  522.114    4.107    0.543    0.280  201.079   68.063
  522.364    4.404    0.557    0.275  201.211   69.119
  522.614    4.636    0.572    0.267  201.235   69.929
  522.864    4.739    0.583    0.253  201.160   72.266
  523.114    4.791    0.551    0.240  200.980   74.603
  523.364    4.817    0.559    0.224  200.903   70.709
  523.614    4.853    0.563    0.231  200.928   67.059
  523.864    4.924    0.552    0.234  200.648   65.180
  524.114    5.034    0.545    0.256  200.671   66.481
  524.364    5.136    0.553    0.259  200.804   68.633
  524.614    5.183    0.524    0.245  201.039   70.115
  524.864    5.117    0.509    0.253  201.060   71.720
  525.114    5.079    0.506    0.238  201.193   74.363
  525.364    4.815    0.517    0.207  201.427   79.633
  525.614    4.693    0.531    0.184  201.557   84.841
  525.864    4.607    0.520    0.190  202.001   93.106
  526.114    4.667    0.429    0.204  202.125   95.382
  526.364    4.931    0.391    0.174  202.462   91.121
  526.614    5.287    0.395    0.148  202.801   84.599
  526.864    5.355    0.434    0.189  202.724   73.984
  527.114    5.180    0.583    0.222  202.957   72.045
  527.364    4.939    0.503    0.241  202.987   74.871
  527.614    4.674    0.471    0.242  203.010   75.436
  527.864    4.472    0.440    0.187  203.658   74.536
  528.114    4.571    0.352    0.143  204.100   74.002
  528.364    4.804    0.468    0.170  204.538   77.134
  528.614    5.113    0.545    0.201  204.567   80.509
  528.864    5.179    0.577    0.243  204.591   77.899
  529.114    4.992    0.568    0.219  204.620   81.031
  529.364    4.750    0.549    0.208  204.648   84.591
  529.614    4.520    0.527    0.209  204.361   87.538
  529.864    4.277    0.511    0.201  204.391   85.170
  530.114    4.138    0.496    0.213  204.314   81.154
  530.364    4.063    0.481    0.206  204.338   83.370
  530.614    4.077    0.468    0.185  204.367   86.746
  530.864    4.138    0.476    0.178  205.115   91.772
  531.114    4.176    0.477    0.165  207.109   95.943
  531.364    4.229    0.482    0.156  208.275   98.524
  531.614    4.237    0.500    0.166  208.817   97.928
  531.864    4.221    0.509    0.166  209.360   92.934
  532.114    4.175    0.499    0.174  209.700   90.139
  532.364    4.144    0.496    0.191  209.933   90.461
  532.614    4.061    0.511    0.166  209.751   97.258
  532.864    4.001    0.545    0.145  210.195  101.673
  533.114    3.907    0.576    0.146  210.942   96.678
  533.364    3.807    0.591    0.151  211.797   92.906
  533.614    3.684    0.600    0.146  213.066   90.174
  533.864    3.537    0.605    0.162  214.436   88.540
  534.114    3.435    0.614    0.188  219.534   86.906
  534.364    3.360    0.605    0.255  225.458   85.210
  534.614    3.305    0.589    0.250  228.898   84.004
  534.864    3.274    0.558    0.241  216.302   82.615
  535.114    3.226    0.570    0.251  202.983   81.103
  535.364    3.208    0.580    0.244  199.491   81.669
  535.614    3.202    0.530    0.271  198.693   84.311
  535.864    3.173    0.532    0.290  198.614   82.800
  536.114    3.155    0.553    0.283  198.744   79.088
  536.364    3.173    0.536    0.274  198.874   74.216
  536.614    3.213    0.544    0.272  198.701   69.223
  536.864    3.273    0.549    0.273  198.828   67.772
  537.114    3.358    0.513    0.252  199.162   66.383
  537.364    3.561    0.481    0.267  199.706   64.932
  537.614    3.607    0.485    0.277  200.249   63.175
  537.864    3.515    0.500    0.255  200.694   60.991
  538.114    3.432    0.491    0.274  201.034   61.435
  538.364    3.401    0.471    0.270  201.369   59.679
  538.614    3.400    0.428    0.247  201.709   60.673
  538.864    3.425    0.382    0.193  202.141   65.026
  539.114    3.547    0.359    0.163  203.001   64.736
  539.364    3.775    0.404    0.183  203.646   61.698
  539.614    3.838    0.494    0.212  204.290   62.141
  539.864    3.726    0.526    0.278  204.945   63.806
  540.114    3.559    0.533    0.272  205.275   65.778
  540.364    3.443    0.530    0.246  205.514   67.931
  540.614    3.374    0.529    0.224  205.849   71.857
  540.864    3.331    0.529    0.203  206.183   81.038
  541.114    3.337    0.525    0.210  207.042   79.404
  541.364    3.355    0.534    0.224  207.376   76.305
  541.614    3.398    0.526    0.231  207.401   78.460
  541.864    3.448    0.520    0.214  207.437   83.177
  542.114    3.512    0.516    0.194  207.252   88.509
  542.364    3.557    0.529    0.192  207.067   86.997
  542.614    3.570    0.525    0.193  206.373   85.547
  542.864    3.557    0.515    0.183  206.296   86.418
  543.114    3.531    0.540    0.183  206.422   93.705
  543.364    3.531    0.530    0.178  206.449   93.659
  543.614    3.543    0.510    0.170  206.890   91.048
  543.864    3.556    0.520    0.253  206.920   94.791
  544.114    3.595    0.566    0.272  207.151   94.134
  544.364    3.628    0.538    0.255  207.078   86.391
  544.614    3.689    0.459    0.226  206.893   72.965
  544.864    3.778    0.425    0.198  206.507   71.391
  545.114    3.883    0.409    0.190  205.914   74.158
