~VERSION INFORMATION
 VERS.                 2.0:   CWLS LOG ASCII STANDARD -VERSION 2.0
 WRAP.                  NO:   ONE LINE PER DEPTH STEP
~WELL INFORMATION BLOCK
#MNEM.UNIT           DATA                    DESCRIPTION OF MNEMONIC
#---------    -------------------            -------------------------------
# Generated from Intellog Unique Number	CS_71_72/WELL/782
WELL.         AEC IPIATIK KIRBY              : Well_name    - WELL
LOC .         00/06-30-071-06W4/0            : Location     - LOCATION
UWI .         00/06-30-071-06W4/0            : Uwi          - UNIQUE WELL ID
ENTR.         SP                             : Entered      - ENTERED BY
SRVC.         SCHLUMBERGER                   : Scn          - SERVICE COMPANY
STRT.M        300                            : top_depth    - START DEPTH
STOP.M        525                            : bot_depth    - STOP DEPTH
STEP.M        0.25                           : increment    - STEP LENGTH
 NULL. -999.2500:NULL Value
~CURVE INFORMATION BLOCK
#MNEM UNIT       ERCB CURVE CODE    CURVE DESCRIPTION
#-----------   ------------------   ----------------------------------
DEPT.M        00 001 00 00         : DEPTH        - DEPTH
ILD .OHMM     00 120 00 00         : RESD         - DEEP RESISTIVITY (DIL)
DPHI.V/V      00 890 00 00         : PHID         - DENSITY POROSITY (LIMESTONE)
NPHI.V/V      00 330 00 00         : PHIN         - NEUTRON POROSITY (LIMESTONE)
GR  .API      00 310 00 00         : GR           - GAMMA RAY
~PARAMETER INFORMATION
#MNEM.UNIT           DATA             DESCRIPTION OF MNEMONIC
#---------         -----------     ------------------------------
GL  .M        660.1                : gl           - GROUND LEVEL ELEVATION
EREF.M        665.16               : kb           - ELEVATION OF DEPTH REFERENCE
DATM.M        660.1                : datum        - DATUM ELEVATION
TDD .M        548                  : tdd          - TOTAL DEPTH DRILLER
RUN .         ONE                  : Run          - RUN NUMBER
ENG .         BILL                 : Engineer     - RECORDING ENGINEER
WIT .         JIM                  : Witness      - WITNESSED BY
MUD .         GEL                  : Mud_type     - MUD TYPE
MATR.         LIMESTONE            : Logunit      - NEUTRON MATRIX
TMAX.C        19                   : BHT          - MAXIMUM RECORDED TEMPERATURE
BHTD.M        548                  : BHTDEP       - MAXIMUM RECORDED TEMPERATURE
MATR.         1                    : LOGUNIT      - NEUTRON MATRIX
RMT .C        25                   : MDTP         - TEMPERATURE OF MUD
NEUT.         1                    : NEUTRON      - NEUTRON TYPE
RESI.         0                    : RESIST       - RESISTIVITY TYPE
RMC .OHMM     0.25                 : RMC          - RESISTIVITY OF MUD CAKE
RMF .OHMM     0.25                 : RMF          - RESISTIVITY OF MUD FILTRATE
SUFT.C        15                   : SUFT         - SURFACE TEMPERATURE
~A  DEPTH     RESD     PHID     PHIN       GR
# ...
  430.500    6.913    0.235    0.441   89.425
  430.750    6.335    0.229    0.471   92.243
  431.000    5.827    0.216    0.462   91.238
  431.250    5.451    0.220    0.451   95.515
  431.500    5.294    0.253    0.445   95.537
  431.750    5.249    0.273    0.463   88.214
  432.000    5.333    0.276    0.471   82.288
  432.250    5.499    0.102    0.297   78.548
  432.500    5.910    0.076    0.268   74.564
  432.750    6.186    0.194    0.270   74.896
  433.000    6.427    0.231    0.362   78.745
  433.250    6.432    0.251    0.418   81.624
  433.500    5.905    0.258    0.435   82.743
  433.750    5.341    0.256    0.450   83.010
  434.000    4.759    0.260    0.466   82.792
  434.250    4.312    0.269    0.471   80.874
  434.500    3.878    0.258    0.479   80.170
  434.750    3.475    0.259    0.495   80.257
  435.000    3.079    0.303    0.512   75.483
  435.250    2.728    0.342    0.528   70.590
  435.500    2.532    0.373    0.525   72.014
  435.750    2.387    0.364    0.539   74.104
  436.000    2.358    0.366    0.586   74.794
  436.250    2.404    0.343    0.591   78.282
  436.500    2.541    0.325    0.577   80.736
  436.750    2.694    0.333    0.569   81.976
  437.000    2.967    0.254    0.560   78.659
  437.250    3.310    0.193    0.522   73.948
  437.500    3.777    0.177    0.455   75.734
  437.750    4.230    0.194    0.436   78.433
  438.000    4.537    0.216    0.428   79.975
  438.250    4.652    0.235    0.428   81.522
  438.500    4.709    0.254    0.446   82.150
  438.750    4.616    0.269    0.465   73.613
  439.000    4.466    0.282    0.475   75.156
  439.250    4.297    0.265    0.455   78.218
  439.500    4.221    0.243    0.438   80.126
  439.750    4.353    0.235    0.439   76.688
  440.000    4.775    0.238    0.459   70.336
  440.250    6.154    0.232    0.469   51.779
  440.500    8.204    0.166    0.285   43.727
  440.750   10.053    0.129    0.284   45.152
  441.000   11.343    0.224    0.335   49.913
  441.250   12.443    0.263    0.391   54.500
  441.500   12.905    0.282    0.410   56.097
  441.750   13.084    0.295    0.428   57.825
  442.000   12.403    0.304    0.445   57.298
  442.250   11.911    0.310    0.450   55.749
  442.500   11.787    0.313    0.442   55.708
  442.750   11.906    0.313    0.436   56.098
  443.000   12.096    0.304    0.450   57.460
  443.250   12.242    0.299    0.464   58.395
  443.500   12.320    0.306    0.467   58.482
  443.750   12.147    0.309    0.481   58.141
  444.000   11.708    0.310    0.476   58.956
  444.250   10.953    0.316    0.461   60.014
  444.500   10.284    0.321    0.447   60.587
  444.750    9.513    0.321    0.440   59.761
  445.000    8.718    0.316    0.426   59.483
  445.250    8.003    0.310    0.416   60.360
  445.500    7.362    0.305    0.417   61.113
  445.750    6.709    0.303    0.423   62.110
  446.000    6.136    0.309    0.434   61.346
  446.250    5.539    0.313    0.428   58.456
  446.500    4.973    0.289    0.408   63.094
  446.750    4.422    0.268    0.408   72.230
  447.000    4.022    0.271    0.443   80.330
  447.250    3.699    0.282    0.487   88.068
  447.500    3.533    0.287    0.504   89.552
  447.750    3.438    0.264    0.482   90.062
  448.000    3.415    0.246    0.465   91.423
  448.250    3.449    0.231    0.466   92.905
  448.500    3.524    0.230    0.474   93.963
  448.750    3.717    0.227    0.478   90.344
  449.000    4.085    0.222    0.455   77.435
  449.250    4.714    0.235    0.424   71.568
  449.500    5.574    0.248    0.394   67.464
  449.750    6.456    0.239    0.390   66.639
  450.000    7.620    0.129    0.412   65.815
  450.250    8.565    0.122    0.411   64.320
  450.500    9.101    0.152    0.387   65.134
  450.750    9.318    0.194    0.392   69.106
  451.000    9.115    0.222    0.418   75.574
  451.250    7.823    0.236    0.427   80.333
  451.500    6.491    0.222    0.419   86.616
  451.750    5.447    0.215    0.440   88.337
  452.000    4.834    0.208    0.463   81.682
  452.250    4.722    0.207    0.464   76.727
  452.500    4.952    0.223    0.417   71.955
  452.750    5.922    0.238    0.386   68.457
  453.000    6.808    0.248    0.383   66.114
  453.250    7.930    0.259    0.385   64.499
  453.500    8.948    0.257    0.398   61.674
  453.750    9.688    0.249    0.408   59.691
  454.000   10.142    0.249    0.413   60.509
  454.250   10.188    0.248    0.410   62.718
  454.500   10.120    0.230    0.405   64.687
  454.750   10.070    0.223    0.402   66.053
  455.000   10.096    0.209    0.417   66.497
  455.250   10.431    0.067    0.434   62.213
  455.500   11.044    0.030    0.351   57.985
  455.750   11.627    0.031    0.325   60.500
  456.000   12.034    0.102    0.338   66.294
  456.250   12.295    0.162    0.359   71.176
  456.500   12.303    0.197    0.374   74.663
  456.750   12.289    0.221    0.389   74.265
  457.000   12.003    0.249    0.389   72.589
  457.250   12.310    0.283    0.400   75.467
  457.500   12.766    0.303    0.408   79.562
  457.750   13.114    0.291    0.407   83.844
  458.000   13.173    0.261    0.417   86.730
  458.250   12.533    0.243    0.401   87.349
  458.500   11.595    0.226    0.391   88.225
  458.750   11.217    0.215    0.383   88.676
  459.000   10.834    0.212    0.378   88.886
  459.250   10.781    0.216    0.387   87.582
  459.500   10.993    0.222    0.406   84.561
  459.750   11.992    0.222    0.416   78.208
  460.000   15.028    0.221    0.397   66.937
  460.250   20.994    0.241    0.361   43.703
  460.500   33.130    0.256    0.340   28.180
  460.750   55.827    0.269    0.325   14.176
  461.000   74.287    0.283    0.318   15.176
  461.250   86.866    0.294    0.321   19.214
  461.500   88.240    0.281    0.335   21.727
  461.750   70.254    0.271    0.343   24.853
  462.000   45.432    0.265    0.338   27.969
  462.250   34.326    0.284    0.342   32.607
  462.500   28.109    0.278    0.346   39.315
  462.750   22.934    0.269    0.337   45.050
  463.000   20.355    0.280    0.333   49.869
  463.250   17.967    0.290    0.355   56.819
  463.500   16.008    0.278    0.370   61.275
  463.750   14.264    0.274    0.383   64.947
  464.000   13.169    0.256    0.394   66.366
  464.250   12.910    0.234    0.401   66.212
  464.500   12.871    0.245    0.398   64.777
  464.750   13.027    0.268    0.411   67.294
  465.000   13.409    0.255    0.420   70.538
  465.250   13.778    0.252    0.412   72.080
  465.500   13.329    0.259    0.389   64.394
  465.750   12.777    0.258    0.398   66.178
  466.000   12.740    0.264    0.403   65.111
  466.250   12.940    0.269    0.386   59.669
  466.500   13.445    0.260    0.377   55.990
  466.750   14.640    0.256    0.380   52.857
  467.000   16.337    0.276    0.369   52.821
  467.250   17.820    0.291    0.363   55.701
  467.500   19.622    0.256    0.368   56.879
  467.750   21.403    0.244    0.365   51.256
  468.000   23.261    0.260    0.359   44.785
  468.250   23.762    0.274    0.353   43.533
  468.500   20.975    0.263    0.346   66.939
  468.750   17.833    0.229    0.358   82.329
  469.000   15.246    0.206    0.370   85.937
  469.250   12.510    0.194    0.384   78.981
  469.500   11.571    0.182    0.375   77.728
  469.750   11.822    0.205    0.375   73.078
  470.000   12.423    0.244    0.400   66.787
  470.250   12.857    0.296    0.420   66.508
  470.500   13.184    0.244    0.400   69.391
  470.750   12.927    0.224    0.386   71.355
  471.000   12.530    0.231    0.388   73.324
  471.250   12.078    0.242    0.388   74.565
  471.500   11.733    0.229    0.383   74.588
  471.750   11.828    0.213    0.380   73.765
  472.000   12.038    0.208    0.379   73.728
  472.250   12.391    0.221    0.386   75.217
  472.500   12.659    0.155    0.398   76.087
  472.750   13.128    0.116    0.360   74.593
  473.000   13.745    0.100    0.338   70.187
  473.250   14.065    0.139    0.345   68.996
  473.500   14.703    0.187    0.367   71.632
  473.750   14.903    0.222    0.367   74.087
