~VERSION INFORMATION
 VERS.                 2.0:   CWLS LOG ASCII STANDARD -VERSION 2.0
 WRAP.                  NO:   ONE LINE PER DEPTH STEP
~WELL INFORMATION BLOCK
#MNEM.UNIT           DATA                    DESCRIPTION OF MNEMONIC
#---------    -------------------            -------------------------------
# Generated from Intellog Unique Number	CS_69_70/WELL/662
WELL.         HUSKY OIL OPERATIONS           : Well_name    - WELL
LOC .         00/05-14-069-05W4/0            : Location     - LOCATION
UWI .         00/05-14-069-05W4/0            : Uwi          - UNIQUE WELL ID
ENTR.         J                              : Entered      - ENTERED BY
SRVC.         SCHLUMBERGER                   : Scn          - SERVICE COMPANY
STRT.M        300                            : top_depth    - START DEPTH
STOP.M        575                            : bot_depth    - STOP DEPTH
STEP.M        0.25                           : increment    - STEP LENGTH
 NULL. -999.2500:NULL Value
~CURVE INFORMATION BLOCK
#MNEM UNIT       ERCB CURVE CODE    CURVE DESCRIPTION
#-----------   ------------------   ----------------------------------
DEPT.M        00 001 00 00         : DEPTH        - DEPTH
ILD .OHMM     00 120 00 00         : RESD         - DEEP RESISTIVITY (DIL)
DPHI.V/V      00 890 00 00         : PHID         - DENSITY POROSITY (LIMESTONE)
NPHI.V/V      00 330 00 00         : PHIN         - NEUTRON POROSITY (LIMESTONE)
GR  .API      00 310 00 00         : GR           - GAMMA RAY
~PARAMETER INFORMATION
#MNEM.UNIT           DATA             DESCRIPTION OF MNEMONIC
#---------         -----------     ------------------------------
GL  .M        673.9                : gl           - GROUND LEVEL ELEVATION
EREF.M        677.5                : kb           - ELEVATION OF DEPTH REFERENCE
DATM.M        673.9                : datum        - DATUM ELEVATION
TDD .M        581                  : tdd          - TOTAL DEPTH DRILLER
RUN .         ONE                  : Run          - RUN NUMBER
ENG .         BILL                 : Engineer     - RECORDING ENGINEER
WIT .         JIM                  : Witness      - WITNESSED BY
MUD .         GEL                  : Mud_type     - MUD TYPE
MATR.         LIMESTONE            : Logunit      - NEUTRON MATRIX
TMAX.C        25                   : BHT          - MAXIMUM RECORDED TEMPERATURE
BHTD.M        581                  : BHTDEP       - MAXIMUM RECORDED TEMPERATURE
MATR.         1                    : LOGUNIT      - NEUTRON MATRIX
RMT .C        25                   : MDTP         - TEMPERATURE OF MUD
NEUT.         1                    : NEUTRON      - NEUTRON TYPE
RESI.         0                    : RESIST       - RESISTIVITY TYPE
RMC .OHMM     0.25                 : RMC          - RESISTIVITY OF MUD CAKE
RMF .OHMM     0.25                 : RMF          - RESISTIVITY OF MUD FILTRATE
SUFT.C        15                   : SUFT         - SURFACE TEMPERATURE
~A  DEPTH     RESD     PHID     PHIN       GR
# ...
  517.500   10.343    0.267    0.402   75.108
  517.750   10.306    0.275    0.409   76.024
  518.000   10.307    0.277    0.404   74.813
  518.250   10.253    0.273    0.418   70.078
  518.500   10.215    0.276    0.418   70.143
  518.750   10.141    0.287    0.399   72.637
  519.000   10.029    0.283    0.383   75.497
  519.250    9.846    0.269    0.391   70.154
  519.500    9.829    0.257    0.407   61.045
  519.750    9.830    0.241    0.380   52.361
  520.000   12.905    0.061    0.329   74.911
  520.250   12.882    0.123    0.374   77.532
  520.500   12.907    0.209    0.396   77.184
  520.750   12.482    0.246    0.407   73.022
  521.000   12.027    0.277    0.402   69.402
  521.250   11.939    0.292    0.395   74.748
  521.500   11.918    0.291    0.388   79.730
  521.750   11.547    0.275    0.390   78.231
  522.000   11.167    0.268    0.391   79.339
  522.250   10.640    0.266    0.387   83.532
  522.500   10.213    0.250    0.399   84.999
  522.750    9.821    0.250    0.406   81.260
  523.000    9.551    0.267    0.405   73.707
  523.250    9.376    0.269    0.395   70.088
  523.500    9.290    0.253    0.388   79.855
  523.750    9.187    0.243    0.383   85.320
  524.000    9.137    0.241    0.372   83.094
  524.250    9.189    0.234    0.361   84.806
  524.500    9.294    0.226    0.356   86.880
  524.750    9.470    0.223    0.369   83.203
  525.000    9.577    0.233    0.377   79.403
  525.250    9.401    0.237    0.383   73.667
  525.500    9.177    0.247    0.373   67.686
  525.750    8.760    0.268    0.363   60.191
  526.000    8.131    0.290    0.381   56.270
  526.250    7.298    0.325    0.396   51.806
  526.500    6.837    0.352    0.404   41.164
  526.750    6.347    0.363    0.406   32.155
  527.000    5.880    0.369    0.395   24.298
  527.250    5.581    0.368    0.408   21.046
  527.500    5.388    0.366    0.423   19.847
  527.750    5.181    0.368    0.433   20.773
  528.000    5.182    0.347    0.413   24.120
  528.250    5.250    0.320    0.389   36.972
  528.500    5.430    0.292    0.366   49.826
  528.750    5.595    0.261    0.372   56.442
  529.000    5.733    0.249    0.393   60.334
  529.250    5.766    0.277    0.402   51.931
  529.500    5.713    0.301    0.413   35.535
  529.750    5.464    0.335    0.391   24.408
  530.000    5.138    0.357    0.379   21.759
  530.250    4.778    0.370    0.396   22.443
  530.500    4.510    0.376    0.404   24.094
  530.750    4.321    0.375    0.406   25.743
  531.000    4.226    0.366    0.405   26.183
  531.250    4.133    0.362    0.406   25.411
  531.500    4.103    0.366    0.402   24.942
  531.750    4.050    0.369    0.399   23.928
  532.000    4.020    0.366    0.405   21.766
  532.250    3.998    0.355    0.409   20.629
  532.500    4.013    0.356    0.392   21.794
  532.750    4.074    0.359    0.376   25.505
  533.000    4.121    0.344    0.359   29.941
  533.250    4.160    0.337    0.370   34.438
  533.500    4.207    0.335    0.375   32.939
  533.750    4.255    0.347    0.375   28.595
  534.000    4.319    0.349    0.369   25.219
  534.250    4.368    0.348    0.364   23.175
  534.500    4.418    0.356    0.368   22.949
  534.750    4.402    0.360    0.364   23.210
  535.000    4.394    0.362    0.367   23.949
  535.250    4.444    0.356    0.378   29.293
  535.500    4.545    0.322    0.374   36.276
  535.750    4.692    0.292    0.363   38.955
  536.000    4.817    0.299    0.383   35.459
  536.250    4.908    0.321    0.393   31.174
  536.500    4.918    0.343    0.384   27.797
  536.750    4.900    0.363    0.377   24.663
  537.000    4.864    0.378    0.382   22.257
  537.250    4.784    0.359    0.398   20.396
  537.500    4.652    0.346    0.380   19.806
  537.750    4.516    0.340    0.354   20.910
  538.000    4.425    0.339    0.346   22.743
  538.250    4.392    0.342    0.353   23.608
  538.500    4.385    0.343    0.359   21.018
  538.750    4.393    0.342    0.370   16.976
  539.000    4.427    0.338    0.368   14.025
  539.250    4.469    0.331    0.356   14.828
  539.500    4.519    0.321    0.344   17.508
  539.750    4.545    0.315    0.344   20.067
  540.000    4.571    0.311    0.331   21.838
  540.250    4.615    0.304    0.317   24.036
  540.500    4.658    0.311    0.331   24.837
  540.750    4.676    0.321    0.346   23.582
  541.000    4.677    0.329    0.360   21.235
  541.250    4.582    0.340    0.344   21.311
  541.500    4.490    0.348    0.333   31.016
  541.750    4.490    0.320    0.334   42.961
  542.000    4.618    0.302    0.326   54.544
  542.250    4.767    0.293    0.353   53.773
  542.500    4.840    0.319    0.379   43.010
  542.750    4.786    0.333    0.394   32.549
  543.000    4.612    0.343    0.396   26.022
  543.250    4.518    0.340    0.388   23.980
  543.500    4.494    0.313    0.368   29.990
  543.750    4.545    0.278    0.319   34.185
  544.000    4.605    0.258    0.334   36.441
  544.250    4.614    0.293    0.372   33.188
  544.500    4.606    0.324    0.399   29.811
  544.750    4.547    0.348    0.399   27.949
  545.000    4.381    0.366    0.395   28.451
  545.250    4.332    0.353    0.392   30.103
  545.500    4.317    0.351    0.377   46.163
  545.750    4.506    0.311    0.367   57.626
  546.000    4.874    0.289    0.353   64.847
  546.250    5.175    0.261    0.359   70.433
  546.500    5.463    0.238    0.389   69.419
  546.750    5.757    0.261    0.411   73.918
  547.000    5.909    0.249    0.398   79.686
  547.250    5.932    0.262    0.400   72.312
  547.500    5.780    0.292    0.412   60.340
  547.750    5.517    0.323    0.397   54.115
  548.000    5.326    0.330    0.386   51.769
  548.250    5.218    0.276    0.369   62.081
  548.500    5.238    0.258    0.375   60.643
  548.750    5.317    0.280    0.369   49.697
  549.000    5.438    0.292    0.331   37.479
  549.250    5.368    0.299    0.312   38.464
  549.500    5.240    0.305    0.345   45.383
  549.750    5.115    0.318    0.369   48.003
  550.000    4.993    0.318    0.390   51.895
  550.250    4.966    0.314    0.405   59.723
  550.500    5.079    0.292    0.383   66.641
  550.750    5.292    0.255    0.365   73.318
  551.000    5.671    0.250    0.381   65.521
  551.250    5.844    0.278    0.400   49.973
  551.500    5.465    0.307    0.401   39.937
  551.750    4.988    0.340    0.389   43.525
  552.000    4.604    0.338    0.383   50.989
  552.250    4.419    0.317    0.389   47.917
  552.500    4.234    0.308    0.394   40.302
  552.750    4.118    0.333    0.384   33.899
  553.000    4.080    0.342    0.380   31.672
  553.250    4.073    0.344    0.381   30.903
  553.500    4.066    0.339    0.375   30.071
  553.750    4.051    0.333    0.366   29.662
  554.000    4.006    0.335    0.358   30.040
  554.250    3.977    0.345    0.352   31.146
  554.500    3.941    0.344    0.347   32.075
  554.750    3.934    0.339    0.343   32.389
  555.000    3.956    0.336    0.350   32.767
  555.250    3.971    0.333    0.361   33.207
  555.500    4.024    0.329    0.355   34.311
  555.750    4.139    0.325    0.351   34.631
  556.000    4.257    0.323    0.356   32.164
  556.250    4.345    0.330    0.350   28.791
  556.500    4.305    0.339    0.345   27.412
  556.750    4.218    0.345    0.348   27.305
  557.000    4.156    0.333    0.357   29.021
  557.250    4.080    0.327    0.356   29.942
  557.500    4.050    0.329    0.349   30.744
  557.750    4.066    0.331    0.344   31.365
  558.000    4.104    0.325    0.349   31.018
  558.250    4.174    0.320    0.352   29.518
  558.500    4.214    0.318    0.347   26.808
  558.750    4.238    0.318    0.342   23.797
  559.000    4.262    0.318    0.340   24.962
  559.250    4.286    0.318    0.338   28.249
  559.500    4.295    0.314    0.339   31.413
  559.750    4.263    0.320    0.354   33.002
  560.000    4.209    0.317    0.367   31.808
  560.250    4.101    0.310    0.378   27.464
  560.500    3.944    0.331    0.372   22.756
  560.750    3.857    0.340    0.360   20.287
