~VERSION INFORMATION
 VERS.                 2.0:   CWLS LOG ASCII STANDARD -VERSION 2.0
 WRAP.                  NO:   ONE LINE PER DEPTH STEP
~WELL INFORMATION BLOCK
#MNEM.UNIT           DATA                    DESCRIPTION OF MNEMONIC
#---------    -------------------            -------------------------------
# Generated from Intellog Unique Number	CS_69_70/WELL/662
WELL.         HUSKY OIL OPERATIONS           : Well_name    - WELL
LOC .         00/05-14-069-05W4/0            : Location     - LOCATION
UWI .         00/05-14-069-05W4/0            : Uwi          - UNIQUE WELL ID
ENTR.         J                              : Entered      - ENTERED BY
SRVC.         SCHLUMBERGER                   : Scn          - SERVICE COMPANY
STRT.M        300                            : top_depth    - START DEPTH
STOP.M        575                            : bot_depth    - STOP DEPTH
STEP.M        0.25                           : increment    - STEP LENGTH
 NULL. -999.2500:NULL Value
~CURVE INFORMATION BLOCK
#MNEM UNIT       ERCB CURVE CODE    CURVE DESCRIPTION
#-----------   ------------------   ----------------------------------
DEPT.M        00 001 00 00         : DEPTH        - DEPTH
ILD .OHMM     00 120 00 00         : RESD         - DEEP RESISTIVITY (DIL)
DPHI.V/V      00 890 00 00         : PHID         - DENSITY POROSITY (LIMESTONE)
NPHI.V/V      00 330 00 00         : PHIN         - NEUTRON POROSITY (LIMESTONE)
GR  .API      00 310 00 00         : GR           - GAMMA RAY
~PARAMETER INFORMATION
#MNEM.UNIT           DATA             DESCRIPTION OF MNEMONIC
#---------         -----------     ------------------------------
GL  .M        673.9                : gl           - GROUND LEVEL ELEVATION
EREF.M        677.5                : kb           - ELEVATION OF DEPTH REFERENCE
DATM.M        673.9                : datum        - DATUM ELEVATION
TDD .M        581                  : tdd          - TOTAL DEPTH DRILLER
RUN .         ONE                  : Run          - RUN NUMBER
ENG .         BILL                 : Engineer     - RECORDING ENGINEER
WIT .         JIM                  : Witness      - WITNESSED BY
MUD .         GEL                  : Mud_type     - MUD TYPE
MATR.         LIMESTONE            : Logunit      - NEUTRON MATRIX
TMAX.C        25                   : BHT          - MAXIMUM RECORDED TEMPERATURE
BHTD.M        581                  : BHTDEP       - MAXIMUM RECORDED TEMPERATURE
MATR.         1                    : LOGUNIT      - NEUTRON MATRIX
RMT .C        25                   : MDTP         - TEMPERATURE OF MUD
NEUT.         1                    : NEUTRON      - NEUTRON TYPE
RESI.         0                    : RESIST       - RESISTIVITY TYPE
RMC .OHMM     0.25                 : RMC          - RESISTIVITY OF MUD CAKE
RMF .OHMM     0.25                 : RMF          - RESISTIVITY OF MUD FILTRATE
SUFT.C        15                   : SUFT         - SURFACE TEMPERATURE
~A  DEPTH     RESD     PHID     PHIN       GR
# ...
  474.000    4.267    0.225    0.456   84.874
  474.250    4.284    0.229    0.441   86.397
  474.500    4.301    0.230    0.429   88.528
  474.750    4.473    0.230    0.426   89.686
  475.000    4.627    0.232    0.424   88.353
  475.250    4.794    0.230    0.422   85.077
  475.500    5.080    0.224    0.433   82.103
  475.750    5.313    0.219    0.459   76.457
  476.000    6.010    0.239    0.468   65.586
  476.250    7.848    0.273    0.455   51.678
  476.500   10.440    0.283    0.437   50.709
  476.750   12.167    0.225    0.442   54.602
  477.000   14.152    0.104    0.458   57.157
  477.250   15.595    0.066    0.454   51.936
  477.500   17.122    0.050    0.300   53.642
  477.750   18.554    0.232    0.325   56.561
  478.000   20.069    0.280    0.403   57.355
  478.250   21.707    0.304    0.433   55.536
  478.500   23.304    0.318    0.445   53.840
  478.750   24.833    0.317    0.434   53.843
  479.000   26.365    0.313    0.424   55.548
  479.250   27.370    0.318    0.420   55.856
  479.500   29.384    0.327    0.432   44.377
  479.750   32.929    0.321    0.439   35.754
  480.000   38.089    0.313    0.418   30.473
  480.250   41.122    0.314    0.403   26.467
  480.500   40.747    0.326    0.393   29.266
  480.750   38.393    0.340    0.386   32.186
  481.000   34.851    0.328    0.383   34.681
  481.250   31.695    0.320    0.401   36.021
  481.500   29.920    0.320    0.401   35.964
  481.750   30.602    0.325    0.393   32.931
  482.000   32.067    0.329    0.397   31.355
  482.250   34.428    0.339    0.414   28.686
  482.500   37.098    0.346    0.398   25.227
  482.750   40.427    0.335    0.379   22.739
  483.000   42.441    0.326    0.369   23.959
  483.250   43.896    0.323    0.362   28.337
  483.500   44.068    0.323    0.364   31.196
  483.750   42.859    0.324    0.376   33.387
  484.000   37.974    0.325    0.397   35.639
  484.250   33.960    0.325    0.412   38.134
  484.500   28.881    0.325    0.429   42.876
  484.750   24.016    0.326    0.426   55.153
  485.000   18.920    0.327    0.422   64.938
  485.250   12.486    0.311    0.452   71.138
  485.500   10.078    0.299    0.473   75.578
  485.750    9.373    0.278    0.445   78.255
  486.000    9.048    0.264    0.421   80.628
  486.250    9.016    0.256    0.415   81.421
  486.500    9.017    0.255    0.411   77.173
  486.750    8.985    0.258    0.404   73.653
  487.000    8.821    0.264    0.431   76.270
  487.250    8.611    0.293    0.452   78.522
  487.500    8.328    0.302    0.454   79.254
  487.750    8.221    0.289    0.429   77.314
  488.000    8.268    0.244    0.402   72.944
  488.250    8.332    0.232    0.370   68.573
  488.500    8.458    0.230    0.367   73.499
  488.750    8.555    0.228    0.376   80.975
  489.000    8.668    0.226    0.378   85.232
  489.250    8.866    0.221    0.360   88.334
  489.500    9.239    0.212    0.347   84.267
  489.750   10.450    0.227    0.371   65.620
  490.000   12.547    0.262    0.389   60.157
  490.250   18.494    0.279    0.410   54.935
  490.500   22.413    0.142    0.413   53.056
  490.750   21.962    0.095    0.351   59.378
  491.000   19.314    0.133    0.305   68.860
  491.250   16.151    0.179    0.334   76.883
  491.500   14.230    0.218    0.366   74.274
  491.750   14.127    0.255    0.392   64.498
  492.000   16.493    0.283    0.402   59.458
  492.250   22.820    0.305    0.407   54.541
  492.500   25.239    0.314    0.418   52.358
  492.750   29.966    0.321    0.434   51.390
  493.000   32.533    0.333    0.447   51.820
  493.250   33.586    0.343    0.437   53.767
  493.500   33.280    0.350    0.430   59.118
  493.750   31.888    0.353    0.422   64.164
  494.000   29.108    0.346    0.424   66.841
  494.250   25.080    0.340    0.441   66.055
  494.500   22.979    0.335    0.452   69.887
  494.750   19.909    0.330    0.454   71.956
  495.000   15.980    0.327    0.449   71.778
  495.250   13.538    0.330    0.435   73.909
  495.500   11.133    0.317    0.409   76.707
  495.750    9.121    0.294    0.382   80.539
  496.000    8.203    0.270    0.376   83.033
  496.250    7.758    0.254    0.381   86.379
  496.500    8.775    0.247    0.389   87.354
  496.750   11.849    0.253    0.401   81.526
  497.000   17.368    0.276    0.397   51.943
  497.250   21.605    0.300    0.400   41.801
  497.500   24.301    0.315    0.376   34.089
  497.750   25.992    0.317    0.351   25.891
  498.000   25.948    0.310    0.347   32.214
  498.250   25.003    0.300    0.362   38.840
  498.500   23.912    0.282    0.375   45.527
  498.750   22.197    0.268    0.386   50.573
  499.000   20.606    0.257    0.389   53.554
  499.250   19.235    0.246    0.383   55.077
  499.500   17.690    0.234    0.370   57.754
  499.750   16.360    0.225    0.353   61.342
  500.000   15.158    0.213    0.335   67.300
  500.250   13.889    0.159    0.326   74.837
  500.500   12.678    0.180    0.347   82.861
  500.750   11.487    0.216    0.366   88.089
  501.000   10.864    0.219    0.384   91.496
  501.250   10.429    0.221    0.399   87.793
  501.500   10.908    0.227    0.407   81.358
  501.750   11.388    0.246    0.405   75.469
  502.000   12.113    0.260    0.395   71.949
  502.250   12.621    0.284    0.388   69.158
  502.500   12.981    0.290    0.384   67.582
  502.750   13.253    0.291    0.393   66.371
  503.000   13.280    0.291    0.402   65.282
  503.250   13.356    0.290    0.392   66.075
  503.500   13.234    0.288    0.384   70.575
  503.750   12.896    0.279    0.380   75.621
  504.000   12.589    0.270    0.384   79.879
  504.250   12.520    0.264    0.384   81.522
  504.500   12.853    0.261    0.377   77.334
  504.750   13.344    0.265    0.372   69.015
  505.000   13.674    0.278    0.386   64.645
  505.250   13.778    0.289    0.398   62.218
  505.500   13.601    0.275    0.387   74.677
  505.750   13.352    0.265    0.368   78.204
  506.000   13.206    0.262    0.378   77.176
  506.250   13.406    0.267    0.400   76.876
  506.500   13.763    0.272    0.393   77.852
  506.750   14.182    0.276    0.379   74.150
  507.000   14.668    0.279    0.388   66.073
  507.250   15.059    0.288    0.394   65.409
  507.500   14.921    0.296    0.389   70.638
  507.750   13.520    0.285    0.384   75.684
  508.000   12.159    0.267    0.380   80.488
  508.250   11.329    0.259    0.377   83.165
  508.500   10.714    0.257    0.396   83.776
  508.750   10.499    0.252    0.411   82.565
  509.000   10.559    0.249    0.405   79.228
  509.250   10.739    0.254    0.402   79.171
  509.500   10.923    0.257    0.403   80.815
  509.750   10.945    0.257    0.393   82.278
  510.000   10.866    0.254    0.382   83.496
  510.250   10.687    0.250    0.377   85.019
  510.500   10.374    0.248    0.385   86.177
  510.750   10.146    0.254    0.389   80.835
  511.000    9.904    0.257    0.382   82.904
  511.250    9.980    0.247    0.377   84.488
  511.500   10.113    0.244    0.378   84.492
  511.750   10.267    0.249    0.375   85.043
  512.000   10.442    0.252    0.384   83.953
  512.250   10.621    0.249    0.393   78.307
  512.500   10.761    0.246    0.390   77.825
  512.750   11.048    0.254    0.386   79.104
  513.000   11.342    0.262    0.398   77.164
  513.250   11.731    0.261    0.400   66.172
  513.500   12.385    0.268    0.363   64.839
  513.750   12.929    0.271    0.347   68.792
  514.000   13.323    0.265    0.353   73.535
  514.250   13.176    0.270    0.379   78.520
  514.500   12.626    0.279    0.382   79.922
  514.750   11.896    0.282    0.389   72.696
  515.000   11.043    0.257    0.402   75.798
  515.250   10.780    0.249    0.408   80.906
  515.500   10.702    0.264    0.401   83.461
  515.750   10.824    0.277    0.396   85.349
  516.000   10.927    0.277    0.394   85.535
  516.250   10.929    0.270    0.389   84.931
  516.500   10.729    0.263    0.390   82.444
  516.750   10.591    0.255    0.395   77.527
  517.000   10.436    0.246    0.395   75.769
  517.250   10.342    0.257    0.392   74.679
