~VERSION INFORMATION
 VERS.                 2.0:   CWLS LOG ASCII STANDARD -VERSION 2.0
 WRAP.                  NO:   ONE LINE PER DEPTH STEP
~WELL INFORMATION BLOCK
#MNEM.UNIT           DATA                    DESCRIPTION OF MNEMONIC
#---------    -------------------            -------------------------------
# Generated from Intellog Unique Number	CS_73_76/WELL/2183
WELL.         AMOCO KIRBY 10-2               : Well_name    - WELL
LOC .         00/10-02-074-05W4/0            : Location     - LOCATION
UWI .         00/10-02-074-05W4/0            : Uwi          - UNIQUE WELL ID
ENTR.         SP                             : Entered      - ENTERED BY
SRVC.         SCHLUMBERGER                   : Scn          - SERVICE COMPANY
STRT.M        240                            : top_depth    - START DEPTH
STOP.M        465                            : bot_depth    - STOP DEPTH
STEP.M        0.25                           : increment    - STEP LENGTH
 NULL. -999.2500:NULL Value
~CURVE INFORMATION BLOCK
#MNEM UNIT       ERCB CURVE CODE    CURVE DESCRIPTION
#-----------   ------------------   ----------------------------------
DEPT.M        00 001 00 00         : DEPTH        - DEPTH
ILD .OHMM     00 120 00 00         : RESD         - DEEP RESISTIVITY (DIL)
DPHI.V/V      00 890 00 00         : PHID         - DENSITY POROSITY (LIMESTONE)
NPHI.V/V      00 330 00 00         : PHIN         - NEUTRON POROSITY (LIMESTONE)
GR  .API      00 310 00 00         : GR           - GAMMA RAY
~PARAMETER INFORMATION
#MNEM.UNIT           DATA             DESCRIPTION OF MNEMONIC
#---------         -----------     ------------------------------
GL  .M        631.5                : gl           - GROUND LEVEL ELEVATION
EREF.M        635                  : kb           - ELEVATION OF DEPTH REFERENCE
DATM.M        631.5                : datum        - DATUM ELEVATION
TDD .M        472                  : tdd          - TOTAL DEPTH DRILLER
RUN .         ONE                  : Run          - RUN NUMBER
ENG .         BILL                 : Engineer     - RECORDING ENGINEER
WIT .         JIM                  : Witness      - WITNESSED BY
MUD .         GEL                  : Mud_type     - MUD TYPE
MATR.         LIMESTONE            : Logunit      - NEUTRON MATRIX
TMAX.C        34                   : BHT          - MAXIMUM RECORDED TEMPERATURE
BHTD.M        472                  : BHTDEP       - MAXIMUM RECORDED TEMPERATURE
MATR.         1                    : LOGUNIT      - NEUTRON MATRIX
RMT .C        25                   : MDTP         - TEMPERATURE OF MUD
NEUT.         1                    : NEUTRON      - NEUTRON TYPE
RESI.         0                    : RESIST       - RESISTIVITY TYPE
RMC .OHMM     0.25                 : RMC          - RESISTIVITY OF MUD CAKE
RMF .OHMM     0.25                 : RMF          - RESISTIVITY OF MUD FILTRATE
SUFT.C        15                   : SUFT         - SURFACE TEMPERATURE
~A  DEPTH     RESD     PHID     PHIN       GR
# ...
  414.000    5.688    0.283    0.353   76.572
  414.250    5.080    0.292    0.358   83.371
  414.500    4.624    0.279    0.360   94.490
  414.750    4.289    0.256    0.369   97.585
  415.000    4.054    0.246    0.380   95.124
  415.250    3.831    0.225    0.408   90.198
  415.500    3.761    0.201    0.395   88.355
  415.750    3.762    0.192    0.377   87.128
  416.000    3.762    0.199    0.360   85.287
  416.250    3.835    0.217    0.349   82.205
  416.500    4.059    0.237    0.344   72.956
  416.750    4.463    0.246    0.370   69.261
  417.000    4.635    0.248    0.376   71.124
  417.250    4.815    0.245    0.389   73.601
  417.500    4.816    0.252    0.379   72.374
  417.750    4.909    0.249    0.356   73.618
  418.000    4.819    0.243    0.373   75.481
  418.250    4.911    0.249    0.390   75.487
  418.500    5.006    0.245    0.369   74.879
  418.750    5.503    0.244    0.353   71.800
  419.000    6.049    0.253    0.344   67.491
  419.250    6.649    0.259    0.348   67.499
  419.500    7.449    0.269    0.370   65.656
  419.750    8.344    0.285    0.383   61.960
  420.000    9.172    0.307    0.375   55.797
  420.250    9.708    0.309    0.373   58.894
  420.500   10.084    0.296    0.386   60.753
  420.750    9.898    0.283    0.386   64.469
  421.000    9.901    0.283    0.363   64.474
  421.250   10.092    0.298    0.355   60.163
  421.500   10.482    0.308    0.375   59.553
  421.750   11.523    0.295    0.393   61.413
  422.000   12.667    0.287    0.397   60.805
  422.250   13.664    0.290    0.413   55.258
  422.500   14.462    0.304    0.424   47.244
  422.750   15.897    0.315    0.392   48.489
  423.000   17.148    0.325    0.368   49.730
  423.250   18.151    0.330    0.363   50.977
  423.500   21.518    0.327    0.365   50.985
  423.750   24.563    0.332    0.381   50.374
  424.000   27.000    0.336    0.384   47.916
  424.250   28.046    0.337    0.387   45.456
  424.500   29.134    0.335    0.400   46.082
  424.750   29.139    0.333    0.418   47.323
  425.000   27.542    0.333    0.393   49.805
  425.250   24.140    0.332    0.392   51.663
  425.500   21.560    0.331    0.394   54.140
  425.750   18.543    0.327    0.380   58.471
  426.000   15.070    0.322    0.372   60.330
  426.250   12.248    0.311    0.378   62.808
  426.500    9.955    0.297    0.426   67.757
  426.750    9.409    0.306    0.397   64.680
  427.000    9.236    0.319    0.392   65.923
  427.250    9.237    0.282    0.381   72.722
  427.500    9.241    0.293    0.387   65.324
  427.750    9.419    0.306    0.418   61.013
  428.000    9.420    0.317    0.385   67.197
  428.250    9.423    0.283    0.345   69.670
  428.500    8.416    0.246    0.361   72.765
  428.750    6.586    0.262    0.371   78.332
  429.000    4.517    0.232    0.345   84.511
  429.250    4.965    0.212    0.326   91.930
  429.500    5.775    0.228    0.350   94.407
  429.750    7.110    0.262    0.375   97.504
  430.000    9.263    0.282    0.382   97.510
  430.250   12.067    0.301    0.362   91.347
  430.500   15.137    0.317    0.355   80.863
  430.750   18.635    0.324    0.348   82.723
  431.000   22.940    0.294    0.368   81.496
  431.250   29.328    0.332    0.407   60.518
  431.500   36.103    0.356    0.395   50.650
  431.750   44.442    0.361    0.382   48.190
  432.000   60.127    0.364    0.389   46.348
  432.250   78.330    0.370    0.416   45.740
  432.500  114.278    0.373    0.394   45.132
  432.750  146.092    0.373    0.370   44.524
  433.000  169.948    0.376    0.381   43.297
  433.250  190.373    0.379    0.403   42.074
  433.500  209.271    0.378    0.371   43.319
  433.750  213.315    0.376    0.392   43.943
  434.000  213.354    0.374    0.411   44.567
  434.250  234.535    0.371    0.382   45.817
  434.500  257.797    0.369    0.375   47.056
  434.750  283.388    0.365    0.377   48.298
  435.000  272.963    0.361    0.379   48.306
  435.250  248.451    0.358    0.385   45.230
  435.500  217.747    0.357    0.391   41.536
  435.750  190.842    0.359    0.395   40.309
  436.000  146.560    0.357    0.372   44.021
  436.250  108.389    0.354    0.364   47.733
  436.500   94.997    0.349    0.375   50.828
  436.750   86.469    0.347    0.438   47.752
  437.000   83.284    0.347    0.439   45.290
  437.250   81.746    0.346    0.410   47.152
  437.500   78.748    0.345    0.372   49.013
  437.750   75.846    0.348    0.329   47.170
  438.000   74.440    0.350    0.347   48.415
  438.250   69.044    0.350    0.379   50.274
  438.500   51.059    0.352    0.395   52.134
  438.750   28.992    0.356    0.393   48.440
  439.000   17.753    0.352    0.379   54.623
  439.250   11.289    0.329    0.373   63.889
  439.500    7.179    0.312    0.382   79.949
  439.750    6.174    0.279    0.389   89.215
  440.000    5.836    0.213    0.368   99.718
  440.250    6.789    0.234    0.378   76.271
  440.500    9.185    0.277    0.371   55.909
  440.750   10.887    0.314    0.360   44.808
  441.000   19.183    0.348    0.369   44.199
  441.250   29.064    0.358    0.368   46.680
  441.500   33.176    0.366    0.369   46.685
  441.750   31.956    0.360    0.385   44.225
  442.000   40.089    0.358    0.396   39.295
  442.250   48.431    0.355    0.376   36.835
  442.500   52.242    0.354    0.364   39.317
  442.750   54.264    0.349    0.345   40.557
  443.000   55.312    0.345    0.338   41.183
  443.250   54.291    0.356    0.334   33.168
  443.500   53.287    0.358    0.344   30.707
  443.750   49.426    0.346    0.349   30.098
  444.000   45.843    0.334    0.330   29.493
  444.250   40.181    0.319    0.319   29.500
  444.500   37.975    0.311    0.307   29.513
  444.750   33.286    0.302    0.310   30.136
  445.000   30.296    0.288    0.296   31.998
  445.250   27.574    0.271    0.278   32.621
  445.500   24.627    0.260    0.259   35.101
  445.750   21.995    0.248    0.254   36.960
  446.000   15.371    0.245    0.265   40.057
  446.250   11.155    0.263    0.284   39.447
  446.500    8.249    0.266    0.282   33.901
  446.750    5.148    0.235    0.285   43.169
  447.000    4.184    0.173    0.296   66.635
  447.250    3.737    0.143    0.324   73.434
  447.500    3.668    0.182    0.332   73.443
  447.750    3.669    0.210    0.318   72.219
  448.000    3.740    0.218    0.314   72.227
  448.250    3.741    0.225    0.325   71.622
  448.500    3.741    0.229    0.340   71.008
  448.750    3.814    0.224    0.335   67.931
  449.000    3.887    0.230    0.324   66.090
  449.250    3.888    0.242    0.346   64.246
  449.500    3.889    0.258    0.376   62.402
  449.750    3.890    0.251    0.372   65.499
  450.000    3.952    0.233    0.366   69.828
  450.250    3.957    0.231    0.370   74.157
  450.500    3.885    0.226    0.345   72.314
  450.750    3.962    0.223    0.330   70.472
  451.000    4.119    0.222    0.330   70.483
  451.250    4.200    0.236    0.319   69.873
  451.500    4.285    0.263    0.369   66.794
  451.750    4.369    0.248    0.361   68.041
  452.000    4.544    0.216    0.343   69.898
  452.250    4.633    0.216    0.368   68.056
  452.500    4.637    0.222    0.388   68.064
  452.750    4.471    0.214    0.364   72.396
  453.000    4.309    0.207    0.353   73.021
  453.250    4.232    0.198    0.349   73.033
  453.500    4.079    0.193    0.348   73.039
  453.750    4.007    0.203    0.326   71.814
  454.000    4.011    0.202    0.332   68.737
  454.250    4.247    0.210    0.349   63.807
  454.500    4.672    0.205    0.353   63.818
  454.750    5.137    0.225    0.375   63.824
  455.000    6.327    0.242    0.356   60.747
  455.250    6.825    0.251    0.346   59.520
  455.500    8.893    0.266    0.349   53.359
  455.750   10.742    0.274    0.380   47.812
  456.000   16.891    0.284    0.392   42.880
  456.250   22.854    0.325    0.377   33.013
  456.500   25.127    0.344    0.381   20.059
  456.750   27.636    0.345    0.378   18.835
  457.000   33.382    0.349    0.377   16.994
  457.250   32.183    0.352    0.370   16.383
