~VERSION INFORMATION
 VERS.                 2.0:   CWLS LOG ASCII STANDARD -VERSION 2.0
 WRAP.                  NO:   ONE LINE PER DEPTH STEP
~WELL INFORMATION BLOCK
#MNEM.UNIT           DATA                    DESCRIPTION OF MNEMONIC
#---------    -------------------            -------------------------------
# Generated from Intellog Unique Number	CS_73_76/WELL/2183
WELL.         AMOCO KIRBY 10-2               : Well_name    - WELL
LOC .         00/10-02-074-05W4/0            : Location     - LOCATION
UWI .         00/10-02-074-05W4/0            : Uwi          - UNIQUE WELL ID
ENTR.         SP                             : Entered      - ENTERED BY
SRVC.         SCHLUMBERGER                   : Scn          - SERVICE COMPANY
STRT.M        240                            : top_depth    - START DEPTH
STOP.M        465                            : bot_depth    - STOP DEPTH
STEP.M        0.25                           : increment    - STEP LENGTH
 NULL. -999.2500:NULL Value
~CURVE INFORMATION BLOCK
#MNEM UNIT       ERCB CURVE CODE    CURVE DESCRIPTION
#-----------   ------------------   ----------------------------------
DEPT.M        00 001 00 00         : DEPTH        - DEPTH
ILD .OHMM     00 120 00 00         : RESD         - DEEP RESISTIVITY (DIL)
DPHI.V/V      00 890 00 00         : PHID         - DENSITY POROSITY (LIMESTONE)
NPHI.V/V      00 330 00 00         : PHIN         - NEUTRON POROSITY (LIMESTONE)
GR  .API      00 310 00 00         : GR           - GAMMA RAY
~PARAMETER INFORMATION
#MNEM.UNIT           DATA             DESCRIPTION OF MNEMONIC
#---------         -----------     ------------------------------
GL  .M        631.5                : gl           - GROUND LEVEL ELEVATION
EREF.M        635                  : kb           - ELEVATION OF DEPTH REFERENCE
DATM.M        631.5                : datum        - DATUM ELEVATION
TDD .M        472                  : tdd          - TOTAL DEPTH DRILLER
RUN .         ONE                  : Run          - RUN NUMBER
ENG .         BILL                 : Engineer     - RECORDING ENGINEER
WIT .         JIM                  : Witness      - WITNESSED BY
MUD .         GEL                  : Mud_type     - MUD TYPE
MATR.         LIMESTONE            : Logunit      - NEUTRON MATRIX
TMAX.C        34                   : BHT          - MAXIMUM RECORDED TEMPERATURE
BHTD.M        472                  : BHTDEP       - MAXIMUM RECORDED TEMPERATURE
MATR.         1                    : LOGUNIT      - NEUTRON MATRIX
RMT .C        25                   : MDTP         - TEMPERATURE OF MUD
NEUT.         1                    : NEUTRON      - NEUTRON TYPE
RESI.         0                    : RESIST       - RESISTIVITY TYPE
RMC .OHMM     0.25                 : RMC          - RESISTIVITY OF MUD CAKE
RMF .OHMM     0.25                 : RMF          - RESISTIVITY OF MUD FILTRATE
SUFT.C        15                   : SUFT         - SURFACE TEMPERATURE
~A  DEPTH     RESD     PHID     PHIN       GR
# ...
  370.500    2.042    0.286    0.490   79.962
  370.750    2.043    0.284    0.493   85.526
  371.000    2.043    0.286    0.483   88.002
  371.250    2.083    0.290    0.493   88.010
  371.500    2.123    0.282    0.489   88.019
  371.750    2.247    0.270    0.478   83.091
  372.000    2.714    0.264    0.414   82.483
  372.250    3.405    0.256    0.376   81.255
  372.500    4.113    0.259    0.357   72.007
  372.750    5.064    0.266    0.318   63.373
  373.000    7.250    0.277    0.229   53.505
  373.250    9.995    0.337    0.179   49.192
  373.500   13.779    0.464    0.157   49.819
  373.750   20.486    0.464    0.172   51.683
  374.000   25.699    0.460    0.180   52.924
  374.250   28.250    0.460    0.188   52.314
  374.500   29.903    0.465    0.186   48.002
  374.750   30.481    0.468    0.179   46.161
  375.000   31.068    0.473    0.168   48.020
  375.250   31.669    0.482    0.160   50.498
  375.500   32.896    0.492    0.154   51.742
  375.750   34.821    0.492    0.143   51.134
  376.000   36.168    0.484    0.150   51.761
  376.250   35.501    0.482    0.146   52.385
  376.500   34.194    0.483    0.144   49.926
  376.750   27.271    0.464    0.146   52.407
  377.000   20.944    0.456    0.195   53.030
  377.250   17.021    0.460    0.197   51.804
  377.500   24.370    0.499    0.166   51.815
  377.750   28.349    0.425    0.139   51.206
  378.000   31.755    0.403    0.119   51.213
  378.250   35.571    0.411    0.142   53.074
  378.500   37.657    0.471    0.136   54.936
  378.750   37.661    0.519    0.129   53.092
  379.000   36.968    0.528    0.115   50.632
  379.250   39.132    0.529    0.101   48.790
  379.500   42.208    0.528    0.095   47.562
  379.750   52.953    0.531    0.094   46.338
  380.000   59.314    0.539    0.087   46.347
  380.250   61.614    0.519    0.074   47.590
  380.500   61.633    0.508    0.066   48.217
  380.750   62.818    0.501    0.079   48.227
  381.000   62.831    0.501    0.088   50.087
  381.250   62.850    0.505    0.103   52.564
  381.500   61.693    0.506    0.103   51.338
  381.750   60.552    0.499    0.103   50.731
  382.000   55.111    0.495    0.111   51.974
  382.250   47.399    0.506    0.127   50.132
  382.500   40.006    0.505    0.143   48.289
  382.750   35.731    0.474    0.162   48.913
  383.000   30.733    0.481    0.218   51.395
  383.250   29.046    0.487    0.192   50.166
  383.500   25.457    0.475    0.172   48.940
  383.750   23.611    0.440    0.221   50.185
  384.000   22.320    0.410    0.221   51.429
  384.250   21.908    0.429    0.202   52.058
  384.500   21.910    0.450    0.177   52.680
  384.750   21.507    0.466    0.165   52.073
  385.000   22.340    0.461    0.201   50.845
  385.250   22.346    0.394    0.336   49.003
  385.500   21.934    0.336    0.396   47.159
  385.750   21.528    0.303    0.374   44.699
  386.000   21.131    0.300    0.354   47.178
  386.250   20.353    0.329    0.378   47.805
  386.500   19.604    0.345    0.386   46.579
  386.750   18.882    0.348    0.400   46.589
  387.000   17.515    0.340    0.422   47.831
  387.250   16.245    0.333    0.452   48.458
  387.500   14.786    0.353    0.421   47.232
  387.750   13.457    0.362    0.391   46.005
  388.000   11.795    0.349    0.387   47.251
  388.250    9.769    0.340    0.413   49.109
  388.500    8.562    0.325    0.428   48.502
  388.750    7.792    0.345    0.407   49.127
  389.000    6.453    0.354    0.393   51.605
  389.250    5.764    0.349    0.406   52.850
  389.500    6.457    0.350    0.413   51.624
  389.750    7.800    0.352    0.423   49.781
  390.000    9.603    0.325    0.418   48.554
  390.250   10.357    0.259    0.372   46.712
  390.500   12.512    0.235    0.331   47.956
  390.750   14.016    0.279    0.318   49.819
  391.000   14.836    0.335    0.400   50.442
  391.250   14.564    0.368    0.410   51.686
  391.500   14.293    0.359    0.424   52.311
  391.750   13.511    0.355    0.420   50.469
  392.000   12.770    0.355    0.399   48.008
  392.250   11.624    0.357    0.389   48.638
  392.500   11.195    0.343    0.399   51.115
  392.750   10.783    0.339    0.397   54.210
  393.000   10.385    0.348    0.385   56.070
  393.250    9.817    0.351    0.390   54.227
  393.500    9.278    0.350    0.399   51.148
  393.750    8.606    0.337    0.411   51.159
  394.000    7.402    0.333    0.377   51.787
  394.250    6.488    0.333    0.364   51.794
  394.500    5.905    0.338    0.356   51.183
  394.750    5.374    0.340    0.397   49.961
  395.000    5.079    0.347    0.422   49.351
  395.250    4.986    0.347    0.404   52.448
  395.500    5.277    0.339    0.388   53.690
  395.750    5.801    0.337    0.403   51.846
  396.000    6.026    0.345    0.408   49.386
  396.250    6.028    0.346    0.398   50.013
  396.500    5.806    0.352    0.386   51.255
  396.750    5.284    0.356    0.402   48.178
  397.000    4.994    0.341    0.412   46.953
  397.250    4.461    0.338    0.397   50.049
  397.500    3.984    0.345    0.407   52.528
  397.750    3.695    0.349    0.389   52.534
  398.000    3.364    0.353    0.410   48.840
  398.250    3.239    0.358    0.408   48.848
  398.500    3.062    0.360    0.399   51.326
  398.750    2.950    0.352    0.415   53.805
  399.000    2.895    0.354    0.398   51.961
  399.250    2.737    0.358    0.368   50.736
  399.500    2.686    0.358    0.357   48.895
  399.750    2.539    0.349    0.368   47.670
  400.000    2.445    0.352    0.386   49.531
  400.250    2.400    0.354    0.395   50.771
  400.500    2.356    0.330    0.395   50.780
  400.750    2.401    0.317    0.400   50.793
  401.000    2.402    0.334    0.407   50.799
  401.250    2.448    0.351    0.398   50.809
  401.500    2.449    0.352    0.395   50.201
  401.750    2.449    0.346    0.393   48.976
  402.000    2.404    0.346    0.412   47.751
  402.250    2.360    0.350    0.401   46.523
  402.500    2.273    0.354    0.371   46.534
  402.750    2.406    0.337    0.355   45.927
  403.000    2.499    0.319    0.366   46.552
  403.250    2.696    0.321    0.374   46.560
  403.500    2.748    0.329    0.377   47.184
  403.750    2.647    0.325    0.379   48.431
  404.000    2.549    0.332    0.384   49.053
  404.250    2.364    0.340    0.357   51.535
  404.500    2.277    0.343    0.368   52.775
  404.750    2.235    0.341    0.424   55.870
  405.000    2.278    0.343    0.444   53.410
  405.250    2.505    0.346    0.410   49.714
  405.500    2.753    0.343    0.400   52.813
  405.750    3.084    0.347    0.391   54.054
  406.000    3.327    0.324    0.350   55.297
  406.250    3.870    0.257    0.327   53.455
  406.500    4.174    0.202    0.301   52.845
  406.750    4.336    0.194    0.366   55.944
  407.000    4.176    0.285    0.382   57.187
  407.250    3.801    0.327    0.399   57.195
  407.500    3.208    0.339    0.413   55.968
  407.750    2.865    0.338    0.411   54.129
  408.000    2.464    0.343    0.401   53.517
  408.250    2.243    0.345    0.421   54.147
  408.500    2.244    0.339    0.434   56.005
  408.750    2.375    0.328    0.402   59.718
  409.000    2.562    0.325    0.393   62.815
  409.250    2.661    0.324    0.403   64.055
  409.500    2.871    0.331    0.422   65.300
  409.750    2.981    0.331    0.410   71.482
  410.000    3.156    0.305    0.403   78.899
  410.250    3.217    0.281    0.405   85.078
  410.500    3.157    0.285    0.381   90.025
  410.750    3.218    0.280    0.390   81.394
  411.000    3.472    0.252    0.369   71.526
  411.250    3.816    0.269    0.354   61.657
  411.500    4.524    0.292    0.343   49.320
  411.750    5.363    0.270    0.352   53.033
  412.000    5.677    0.253    0.347   62.302
  412.250    5.897    0.244    0.363   70.334
  412.500    5.898    0.266    0.375   66.640
  412.750    5.900    0.275    0.364   68.503
  413.000    6.013    0.283    0.395   69.131
  413.250    6.015    0.287    0.399   68.519
  413.500    6.131    0.278    0.380   66.058
  413.750    6.132    0.272    0.360   70.391
