~VERSION INFORMATION
 VERS.                 2.0:   CWLS LOG ASCII STANDARD -VERSION 2.0
 WRAP.                  NO:   ONE LINE PER DEPTH STEP
~WELL INFORMATION BLOCK
#MNEM.UNIT           DATA                    DESCRIPTION OF MNEMONIC
#---------    -------------------            -------------------------------
# Generated from Intellog Unique Number	CS_73_76/WELL/2183
WELL.         AMOCO KIRBY 10-2               : Well_name    - WELL
LOC .         00/10-02-074-05W4/0            : Location     - LOCATION
UWI .         00/10-02-074-05W4/0            : Uwi          - UNIQUE WELL ID
ENTR.         SP                             : Entered      - ENTERED BY
SRVC.         SCHLUMBERGER                   : Scn          - SERVICE COMPANY
STRT.M        240                            : top_depth    - START DEPTH
STOP.M        465                            : bot_depth    - STOP DEPTH
STEP.M        0.25                           : increment    - STEP LENGTH
 NULL. -999.2500:NULL Value
~CURVE INFORMATION BLOCK
#MNEM UNIT       ERCB CURVE CODE    CURVE DESCRIPTION
#-----------   ------------------   ----------------------------------
DEPT.M        00 001 00 00         : DEPTH        - DEPTH
ILD .OHMM     00 120 00 00         : RESD         - DEEP RESISTIVITY (DIL)
DPHI.V/V      00 890 00 00         : PHID         - DENSITY POROSITY (LIMESTONE)
NPHI.V/V      00 330 00 00         : PHIN         - NEUTRON POROSITY (LIMESTONE)
GR  .API      00 310 00 00         : GR           - GAMMA RAY
~PARAMETER INFORMATION
#MNEM.UNIT           DATA             DESCRIPTION OF MNEMONIC
#---------         -----------     ------------------------------
GL  .M        631.5                : gl           - GROUND LEVEL ELEVATION
EREF.M        635                  : kb           - ELEVATION OF DEPTH REFERENCE
DATM.M        631.5                : datum        - DATUM ELEVATION
TDD .M        472                  : tdd          - TOTAL DEPTH DRILLER
RUN .         ONE                  : Run          - RUN NUMBER
ENG .         BILL                 : Engineer     - RECORDING ENGINEER
WIT .         JIM                  : Witness      - WITNESSED BY
MUD .         GEL                  : Mud_type     - MUD TYPE
MATR.         LIMESTONE            : Logunit      - NEUTRON MATRIX
TMAX.C        34                   : BHT          - MAXIMUM RECORDED TEMPERATURE
BHTD.M        472                  : BHTDEP       - MAXIMUM RECORDED TEMPERATURE
MATR.         1                    : LOGUNIT      - NEUTRON MATRIX
RMT .C        25                   : MDTP         - TEMPERATURE OF MUD
NEUT.         1                    : NEUTRON      - NEUTRON TYPE
RESI.         0                    : RESIST       - RESISTIVITY TYPE
RMC .OHMM     0.25                 : RMC          - RESISTIVITY OF MUD CAKE
RMF .OHMM     0.25                 : RMF          - RESISTIVITY OF MUD FILTRATE
SUFT.C        15                   : SUFT         - SURFACE TEMPERATURE
~A  DEPTH     RESD     PHID     PHIN       GR
# ...
  283.500    3.987    0.216    0.479  102.169
  283.750    3.913    0.213    0.495  104.029
  284.000    3.914    0.211    0.513  103.420
  284.250    3.916    0.215    0.485  100.342
  284.500    3.843    0.221    0.469   97.885
  284.750    3.844    0.226    0.477   99.128
  285.000    3.845    0.216    0.465   99.136
  285.250    3.846    0.215    0.438   98.526
  285.500    3.847    0.225    0.424  100.389
  285.750    3.848    0.206    0.458  101.013
  286.000    3.922    0.194    0.474  100.405
  286.250    3.923    0.197    0.444   99.180
  286.500    3.924    0.206    0.449   99.188
  286.750    3.925    0.213    0.480   98.579
  287.000    3.927    0.207    0.511   95.502
  287.250    3.927    0.206    0.460   94.276
  287.500    4.003    0.212    0.428  101.078
  287.750    4.004    0.212    0.459  104.789
  288.000    4.081    0.216    0.436  100.477
  288.250    4.082    0.218    0.429   94.930
  288.500    4.083    0.203    0.437   90.617
  288.750    4.084    0.192    0.389   96.185
  289.000    4.009    0.188    0.393   96.192
  289.250    3.935    0.198    0.425   90.646
  289.500    3.862    0.203    0.443   92.505
  289.750    3.720    0.202    0.452  101.774
  290.000    3.651    0.199    0.443  106.721
  290.250    3.722    0.218    0.375   95.002
  290.500    3.866    0.230    0.345   86.368
  290.750    3.941    0.256    0.325   72.796
  291.000    4.017    0.273    0.348   74.042
  291.250    4.173    0.287    0.359   76.521
  291.500    4.253    0.292    0.360   78.380
  291.750    4.502    0.284    0.356   80.856
  292.000    4.589    0.279    0.362   83.951
  292.250    4.677    0.278    0.398   81.494
  292.500    4.678    0.273    0.429   80.269
  292.750    4.769    0.268    0.442   80.277
  293.000    4.770    0.264    0.437   80.284
  293.250    4.771    0.262    0.435   77.206
  293.500    4.683    0.264    0.429   72.277
  293.750    4.684    0.287    0.387   69.818
  294.000    4.685    0.286    0.367   66.739
  294.250    4.867    0.283    0.360   61.194
  294.500    4.960    0.284    0.369   57.500
  294.750    5.056    0.271    0.397   59.358
  295.000    4.963    0.257    0.415   65.544
  295.250    4.964    0.254    0.397   66.169
  295.500    4.781    0.278    0.398   66.178
  295.750    4.605    0.302    0.413   66.802
  296.000    4.521    0.312    0.411   68.045
  296.250    4.522    0.311    0.377   69.909
  296.500    4.523    0.302    0.374   71.151
  296.750    4.439    0.296    0.401   71.776
  297.000    4.440    0.300    0.381   71.168
  297.250    4.442    0.296    0.376   73.030
  297.500    4.527    0.280    0.421   74.273
  297.750    4.528    0.272    0.449   73.663
  298.000    4.529    0.291    0.401   70.586
  298.250    4.123    0.307    0.384   68.127
  298.500    3.824    0.319    0.392   65.666
  298.750    3.683    0.324    0.411   62.587
  299.000    3.615    0.326    0.436   63.214
  299.250    3.616    0.328    0.424   64.457
  299.500    3.686    0.324    0.450   63.231
  299.750    3.757    0.321    0.478   60.774
  300.000    3.758    0.323    0.458   60.165
  300.250    3.830    0.330    0.411   59.558
  300.500    3.831    0.331    0.376   59.563
  300.750    3.905    0.331    0.361   60.192
  301.000    3.906    0.331    0.387   61.434
  301.250    3.907    0.322    0.407   62.677
  301.500    3.693    0.317    0.361   61.451
  301.750    3.557    0.317    0.346   64.546
  302.000    3.426    0.317    0.373   68.260
  302.250    3.363    0.306    0.423   71.975
  302.500    3.364    0.290    0.418   74.453
  302.750    3.364    0.275    0.393   76.929
  303.000    3.430    0.260    0.411   78.174
  303.250    3.563    0.248    0.395   78.181
  303.500    3.631    0.241    0.370   80.044
  303.750    3.701    0.249    0.362   80.049
  304.000    3.918    0.256    0.355   73.271
  304.250    3.994    0.265    0.363   69.573
  304.500    3.994    0.271    0.384   68.351
  304.750    3.920    0.266    0.437   68.974
  305.000    3.776    0.267    0.448   72.073
  305.250    3.570    0.281    0.449   73.930
  305.500    3.504    0.258    0.413   81.348
  305.750    3.375    0.253    0.400   79.503
  306.000    3.312    0.262    0.400   68.401
  306.250    3.131    0.281    0.393   59.769
  306.500    3.073    0.292    0.373   57.310
  306.750    3.074    0.300    0.402   63.492
  307.000    3.133    0.292    0.416   70.906
  307.250    3.254    0.277    0.375   77.705
  307.500    3.380    0.288    0.379   76.480
  307.750    3.511    0.285    0.425   78.342
  308.000    3.647    0.276    0.423   79.587
  308.250    3.789    0.260    0.405   80.210
  308.500    3.862    0.248    0.393   82.688
  308.750    3.936    0.243    0.383   83.315
  309.000    3.937    0.244    0.377   85.177
  309.250    3.792    0.247    0.440   88.889
  309.500    3.585    0.243    0.431   91.367
  309.750    3.518    0.235    0.401   92.612
  310.000    3.326    0.230    0.417   95.091
  310.250    3.203    0.219    0.460   95.715
  310.500    3.085    0.218    0.452   95.724
  310.750    3.086    0.219    0.494   95.115
  311.000    3.087    0.231    0.427   93.270
  311.250    3.147    0.240    0.459   90.194
  311.500    3.147    0.231    0.498   88.968
  311.750    3.148    0.235    0.515   88.362
  312.000    3.149    0.246    0.500   85.900
  312.250    3.091    0.250    0.449   83.439
  312.500    3.033    0.255    0.402   80.364
  312.750    2.813    0.267    0.374   78.518
  313.000    2.561    0.292    0.424   70.504
  313.250    2.375    0.307    0.448   64.956
  313.500    2.245    0.318    0.404   61.880
  313.750    2.082    0.289    0.438   61.270
  314.000    2.044    0.270    0.440   61.280
  314.250    2.006    0.282    0.391   60.053
  314.500    2.045    0.298    0.387   63.766
  314.750    2.124    0.299    0.407   69.948
  315.000    2.206    0.291    0.430   73.662
  315.250    2.207    0.286    0.456   74.904
  315.500    2.249    0.323    0.434   68.125
  315.750    2.293    0.327    0.456   64.428
  316.000    2.250    0.316    0.470   61.967
  316.250    2.209    0.318    0.482   60.125
  316.500    2.128    0.310    0.447   57.666
  316.750    2.089    0.281    0.368   60.146
  317.000    2.050    0.271    0.386   63.238
  317.250    2.012    0.292    0.417   66.955
  317.500    2.013    0.306    0.402   68.195
  317.750    2.013    0.318    0.388   69.439
  318.000    1.976    0.304    0.390   68.211
  318.250    1.976    0.297    0.412   66.987
  318.500    1.940    0.296    0.411   65.143
  318.750    1.940    0.287    0.416   71.942
  319.000    1.941    0.273    0.432   79.358
  319.250    1.941    0.263    0.442   71.961
  319.500    1.942    0.278    0.401   69.501
  319.750    1.942    0.292    0.437   71.361
  320.000    1.943    0.293    0.454   78.161
  320.250    1.980    0.297    0.413   76.316
  320.500    2.057    0.295    0.406   74.475
  320.750    2.177    0.282    0.425   72.633
  321.000    2.305    0.287    0.410   70.788
  321.250    2.394    0.291    0.391   70.797
  321.500    2.534    0.275    0.409   78.830
  321.750    2.583    0.258    0.475   86.864
  322.000    2.584    0.244    0.518   92.429
  322.250    2.584    0.239    0.535   96.760
  322.500    2.489    0.234    0.534   99.238
  322.750    2.490    0.235    0.555  100.479
  323.000    2.444    0.240    0.527  101.105
  323.250    2.444    0.244    0.467   99.264
  323.500    2.445    0.246    0.456   96.187
  323.750    2.446    0.266    0.445   90.023
  324.000    2.446    0.279    0.448   85.710
  324.250    2.447    0.266    0.455   81.399
  324.500    2.542    0.262    0.467   76.472
  324.750    2.640    0.268    0.438   74.007
  325.000    2.691    0.271    0.412   71.548
  325.250    2.795    0.261    0.400   74.643
  325.500    2.796    0.252    0.381   75.889
  325.750    2.797    0.255    0.395   78.366
  326.000    2.851    0.262    0.447   80.844
  326.250    2.851    0.274    0.424   84.556
  326.500    2.852    0.277    0.412   83.947
  326.750    2.853    0.272    0.429   80.868
