~VERSION INFORMATION
 VERS.                 2.0:   CWLS LOG ASCII STANDARD -VERSION 2.0
 WRAP.                  NO:   ONE LINE PER DEPTH STEP
~WELL INFORMATION BLOCK
#MNEM.UNIT           DATA                    DESCRIPTION OF MNEMONIC
#---------    -------------------            -------------------------------
# Generated from Intellog Unique Number	CS_73_76/WELL/853
WELL.         DOME ET AL KIRBY               : Well_name    - WELL
LOC .         00/11-32-073-06W4/0            : Location     - LOCATION
UWI .         00/11-32-073-06W4/0            : Uwi          - UNIQUE WELL ID
ENTR.         SP                             : Entered      - ENTERED BY
SRVC.         SCHLUMBERGER                   : Scn          - SERVICE COMPANY
STRT.M        255                            : top_depth    - START DEPTH
STOP.M        475                            : bot_depth    - STOP DEPTH
STEP.M        0.25                           : increment    - STEP LENGTH
 NULL. -999.2500:NULL Value
~CURVE INFORMATION BLOCK
#MNEM UNIT       ERCB CURVE CODE    CURVE DESCRIPTION
#-----------   ------------------   ----------------------------------
DEPT.M        00 001 00 00         : DEPTH        - DEPTH
ILD .OHMM     00 120 00 00         : RESD         - DEEP RESISTIVITY (DIL)
DPHI.V/V      00 890 00 00         : PHID         - DENSITY POROSITY (LIMESTONE)
NPHI.V/V      00 330 00 00         : PHIN         - NEUTRON POROSITY (LIMESTONE)
GR  .API      00 310 00 00         : GR           - GAMMA RAY
~PARAMETER INFORMATION
#MNEM.UNIT           DATA             DESCRIPTION OF MNEMONIC
#---------         -----------     ------------------------------
GL  .M        647.41               : gl           - GROUND LEVEL ELEVATION
EREF.M        650.91               : kb           - ELEVATION OF DEPTH REFERENCE
DATM.M        647.41               : datum        - DATUM ELEVATION
TDD .M        484.5                : tdd          - TOTAL DEPTH DRILLER
RUN .         ONE                  : Run          - RUN NUMBER
ENG .         BILL                 : Engineer     - RECORDING ENGINEER
WIT .         JIM                  : Witness      - WITNESSED BY
MUD .         GEL                  : Mud_type     - MUD TYPE
MATR.         LIMESTONE            : Logunit      - NEUTRON MATRIX
TMAX.C        23                   : BHT          - MAXIMUM RECORDED TEMPERATURE
BHTD.M        484.5                : BHTDEP       - MAXIMUM RECORDED TEMPERATURE
MATR.         1                    : LOGUNIT      - NEUTRON MATRIX
RMT .C        25                   : MDTP         - TEMPERATURE OF MUD
NEUT.         1                    : NEUTRON      - NEUTRON TYPE
RESI.         0                    : RESIST       - RESISTIVITY TYPE
RMC .OHMM     0.25                 : RMC          - RESISTIVITY OF MUD CAKE
RMF .OHMM     0.25                 : RMF          - RESISTIVITY OF MUD FILTRATE
SUFT.C        15                   : SUFT         - SURFACE TEMPERATURE
~A  DEPTH     RESD     PHID     PHIN       GR
# ...
  429.000   27.198    0.299    0.448   51.172
  429.250   27.185    0.303    0.438   52.381
  429.500   25.687    0.293    0.428   56.022
  429.750   22.110    0.278    0.416   63.304
  430.000   19.756    0.264    0.411   65.729
  430.250   17.322    0.256    0.388   65.725
  430.500   16.681    0.247    0.365   65.114
  430.750   14.907    0.242    0.357   66.324
  431.000   13.570    0.244    0.349   66.927
  431.250   12.822    0.247    0.344   64.494
  431.500   12.811    0.250    0.341   62.062
  431.750   13.035    0.247    0.341   65.094
  432.000   13.522    0.249    0.340   68.733
  432.250   14.284    0.251    0.337   69.943
  432.500   14.544    0.255    0.331   69.332
  432.750   14.808    0.244    0.326   66.898
  433.000   15.354    0.246    0.334   65.073
  433.250   15.631    0.247    0.340   62.032
  433.500   16.509    0.234    0.340   60.206
  433.750   16.804    0.227    0.340   59.594
  434.000   17.105    0.221    0.330   58.983
  434.250   17.411    0.238    0.335   58.370
  434.500   17.725    0.247    0.345   58.368
  434.750   18.046    0.256    0.351   59.579
  435.000   18.714    0.245    0.345   63.824
  435.250   19.051    0.235    0.334   70.500
  435.500   19.391    0.230    0.335   74.140
  435.750   19.377    0.218    0.341   72.921
  436.000   19.001    0.206    0.345   67.451
  436.250   18.639    0.201    0.335   61.374
  436.500   17.940    0.217    0.329   57.728
  436.750   17.921    0.223    0.320   62.581
  437.000   17.582    0.226    0.312   71.078
  437.250   16.923    0.211    0.322   77.754
  437.500   15.994    0.205    0.347   77.143
  437.750   14.833    0.226    0.363   68.636
  438.000   13.758    0.246    0.363   62.560
  438.250   14.807    0.269    0.353   57.699
  438.500   19.198    0.290    0.359   62.553
  438.750   25.839    0.299    0.371   68.014
  439.000   35.433    0.306    0.381   66.796
  439.250   48.581    0.306    0.368   56.467
  439.500   64.158    0.303    0.347   47.962
  439.750   73.037    0.299    0.336   47.350
  440.000   77.169    0.297    0.342   50.988
  440.250   78.531    0.293    0.345   52.200
  440.500   78.491    0.289    0.355   50.981
  440.750   74.145    0.300    0.358   47.941
  441.000   67.507    0.296    0.357   56.437
  441.250   59.220    0.288    0.369   60.078
  441.500   47.324    0.293    0.401   63.717
  441.750   39.989    0.305    0.413   61.891
  442.000   41.465    0.299    0.419   60.066
  442.250   46.315    0.283    0.393   56.418
  442.500   48.950    0.278    0.362   60.663
  442.750   55.717    0.279    0.361   66.731
  443.000   59.974    0.290    0.376   69.765
  443.250   63.364    0.291    0.390   69.760
  443.500   55.572    0.307    0.392   67.328
  443.750   45.241    0.311    0.367   63.680
  444.000   41.954    0.311    0.362   63.676
  444.250   42.714    0.305    0.375   70.352
  444.500   43.481    0.289    0.378   73.992
  444.750   40.324    0.272    0.377   73.988
  445.000   33.450    0.268    0.374   70.340
  445.250   27.748    0.268    0.377   71.550
  445.500   20.963    0.265    0.378   78.832
  445.750   18.389    0.260    0.368   84.901
  446.000   15.537    0.247    0.367   92.183
  446.250   13.377    0.219    0.378   95.825
  446.500   12.180    0.191    0.372  101.286
  446.750   10.486    0.185    0.367  104.925
  447.000    8.860    0.197    0.366  109.172
  447.250    7.769    0.202    0.369  112.811
  447.500    7.623    0.207    0.385  109.164
  447.750    7.336    0.216    0.383   83.654
  448.000    7.332    0.231    0.358   74.541
  448.250    7.189    0.233    0.343   67.856
  448.500    7.184    0.233    0.360   64.817
  448.750    7.449    0.233    0.367   64.205
  449.000    8.017    0.248    0.362   72.096
  449.250    8.317    0.259    0.386   89.095
  449.500    8.624    0.204    0.412  101.843
  449.750    8.779    0.171    0.431  110.341
  450.000    8.294    0.182    0.436  107.907
  450.250    7.985    0.202    0.442  101.223
  450.500    7.403    0.213    0.433   95.754
  450.750    7.263    0.233    0.428   87.249
  451.000    7.256    0.233    0.427   82.992
  451.250    7.526    0.198    0.407   80.559
  451.500    8.254    0.181    0.373   70.233
  451.750    9.748    0.213    0.355   57.476
  452.000   11.097    0.257    0.376   50.183
  452.250   12.870    0.294    0.391   45.321
  452.500   17.318    0.294    0.377   42.281
  452.750   23.304    0.299    0.366   40.455
  453.000   28.056    0.303    0.356   43.488
  453.250   31.931    0.264    0.320   58.058
  453.500   28.535    0.229    0.321   75.058
  453.750   20.776    0.236    0.345   81.125
  454.000   15.996    0.181    0.382   84.766
  454.250   12.087    0.151    0.339  110.874
  454.500   10.601    0.147    0.340  116.943
  454.750    9.651    0.158    0.371  115.722
  455.000    8.951    0.168    0.390  113.898
  455.250    8.301    0.167    0.409  114.500
  455.500    7.991    0.156    0.402  113.890
  455.750    7.839    0.152    0.385  107.812
  456.000    7.832    0.164    0.393   98.092
  456.250    7.971    0.189    0.392   88.372
  456.500    8.422    0.226    0.377   75.616
  456.750    9.236    0.265    0.382   62.859
  457.000   10.710    0.311    0.381   51.316
  457.250   12.891    0.326    0.390   50.705
  457.500   16.099    0.311    0.405   52.522
  457.750   17.660    0.304    0.422   53.125
  458.000   20.101    0.311    0.423   48.263
  458.250   24.190    0.320    0.395   42.793
  458.500   29.665    0.316    0.380   39.145
  458.750   37.058    0.319    0.387   36.106
  459.000   43.783    0.332    0.380   32.458
  459.250   51.728    0.335    0.375   31.239
  459.500   57.795    0.325    0.378   34.271
  459.750   57.715    0.324    0.381   37.304
  460.000   57.687    0.329    0.380   37.300
  460.250   54.507    0.331    0.388   36.687
  460.500   50.547    0.336    0.399   37.291
  460.750   46.890    0.341    0.395   36.680
  461.000   43.476    0.335    0.395   36.675
  461.250   41.867    0.324    0.391   43.351
  461.500   36.046    0.307    0.381   65.209
  461.750   24.360    0.224    0.375   75.529
  462.000   19.468    0.207    0.381   76.132
  462.250   16.451    0.217    0.393   79.771
  462.500   13.147    0.206    0.395   88.876
  462.750   11.747    0.160    0.335   98.588
  463.000   10.691    0.149    0.366  106.478
  463.250   10.103    0.143    0.381  108.296
  463.500   10.096    0.153    0.364   97.361
  463.750    9.901    0.212    0.342   88.855
  464.000   10.268    0.202    0.324   82.171
  464.250   11.051    0.223    0.360   78.524
  464.500   12.580    0.274    0.381   53.013
  464.750   14.587    0.315    0.399   48.152
  465.000   17.887    0.336    0.391   31.144
  465.250   24.985    0.337    0.385   23.853
  465.500   42.835    0.331    0.391   24.456
  465.750   70.744    0.331    0.388   29.310
  466.000   77.573    0.325    0.390   31.128
  466.250   78.974    0.314    0.407   32.946
  466.500   73.243    0.309    0.399   34.156
  466.750   70.504    0.326    0.388   30.508
  467.000   73.127    0.336    0.397   33.540
  467.250   77.254    0.340    0.403   38.395
  467.500   78.632    0.343    0.415   42.033
  467.750   58.333    0.346    0.484   43.243
  468.000   52.122    0.346    0.496   43.847
  468.250   49.254    0.329    0.455   34.734
  468.500   47.404    0.326    0.388   34.123
  468.750   47.365    0.334    0.392   39.583
  469.000   47.320    0.330    0.439   44.437
  469.250   49.994    0.317    0.443   46.863
  469.500   51.866    0.300    0.420   52.324
  469.750   57.945    0.299    0.396   57.178
  470.000   75.117    0.301    0.381   59.603
  470.250   85.519    0.303    0.382   58.992
  470.500  101.037    0.300    0.390   55.952
  470.750  112.864    0.301    0.382   54.733
  471.000  110.699    0.303    0.368   59.586
  471.250  102.675    0.297    0.376   58.368
  471.500   83.564    0.252    0.389   51.684
  471.750   76.099    0.045    0.256   35.891
  472.000   63.119    0.000    0.169   31.029
  472.250   53.322    0.000    0.148   30.417
