~VERSION INFORMATION
 VERS.                 2.0:   CWLS LOG ASCII STANDARD -VERSION 2.0
 WRAP.                  NO:   ONE LINE PER DEPTH STEP
~WELL INFORMATION BLOCK
#MNEM.UNIT           DATA                    DESCRIPTION OF MNEMONIC
#---------    -------------------            -------------------------------
# Generated from Intellog Unique Number	CS_73_76/WELL/2183
WELL.         AMOCO KIRBY 10-2               : Well_name    - WELL
LOC .         00/10-02-074-05W4/0            : Location     - LOCATION
UWI .         00/10-02-074-05W4/0            : Uwi          - UNIQUE WELL ID
ENTR.         SP                             : Entered      - ENTERED BY
SRVC.         SCHLUMBERGER                   : Scn          - SERVICE COMPANY
STRT.M        240                            : top_depth    - START DEPTH
STOP.M        465                            : bot_depth    - STOP DEPTH
STEP.M        0.25                           : increment    - STEP LENGTH
 NULL. -999.2500:NULL Value
~CURVE INFORMATION BLOCK
#MNEM UNIT       ERCB CURVE CODE    CURVE DESCRIPTION
#-----------   ------------------   ----------------------------------
DEPT.M        00 001 00 00         : DEPTH        - DEPTH
ILD .OHMM     00 120 00 00         : RESD         - DEEP RESISTIVITY (DIL)
DPHI.V/V      00 890 00 00         : PHID         - DENSITY POROSITY (LIMESTONE)
NPHI.V/V      00 330 00 00         : PHIN         - NEUTRON POROSITY (LIMESTONE)
GR  .API      00 310 00 00         : GR           - GAMMA RAY
~PARAMETER INFORMATION
#MNEM.UNIT           DATA             DESCRIPTION OF MNEMONIC
#---------         -----------     ------------------------------
GL  .M        631.5                : gl           - GROUND LEVEL ELEVATION
EREF.M        635                  : kb           - ELEVATION OF DEPTH REFERENCE
DATM.M        631.5                : datum        - DATUM ELEVATION
TDD .M        472                  : tdd          - TOTAL DEPTH DRILLER
RUN .         ONE                  : Run          - RUN NUMBER
ENG .         BILL                 : Engineer     - RECORDING ENGINEER
WIT .         JIM                  : Witness      - WITNESSED BY
MUD .         GEL                  : Mud_type     - MUD TYPE
MATR.         LIMESTONE            : Logunit      - NEUTRON MATRIX
TMAX.C        34                   : BHT          - MAXIMUM RECORDED TEMPERATURE
BHTD.M        472                  : BHTDEP       - MAXIMUM RECORDED TEMPERATURE
MATR.         1                    : LOGUNIT      - NEUTRON MATRIX
RMT .C        25                   : MDTP         - TEMPERATURE OF MUD
NEUT.         1                    : NEUTRON      - NEUTRON TYPE
RESI.         0                    : RESIST       - RESISTIVITY TYPE
RMC .OHMM     0.25                 : RMC          - RESISTIVITY OF MUD CAKE
RMF .OHMM     0.25                 : RMF          - RESISTIVITY OF MUD FILTRATE
SUFT.C        15                   : SUFT         - SURFACE TEMPERATURE
~A  DEPTH     RESD     PHID     PHIN       GR
  240.000    2.933    0.224    0.444   94.445
  240.250    2.989    0.228    0.460   96.924
  240.500    3.047    0.234    0.475  103.723
  240.750    3.106    0.240    0.493  106.200
  241.000    3.107    0.244    0.503  103.741
  241.250    3.167    0.248    0.523  101.898
  241.500    3.167    0.250    0.559  101.289
  241.750    3.229    0.249    0.497   99.446
  242.000    3.230    0.244    0.467  103.777
  242.250    3.230    0.221    0.450  103.167
  242.500    3.231    0.219    0.515   97.621
  242.750    3.171    0.226    0.453   96.395
  243.000    3.172    0.230    0.426   93.936
  243.250    3.113    0.235    0.458   95.796
  243.500    3.056    0.237    0.492   98.891
  243.750    3.057    0.241    0.459  101.370
  244.000    3.057    0.240    0.468   97.057
  244.250    3.001    0.234    0.446   98.919
  244.500    2.836    0.231    0.454   95.223
  244.750    2.732    0.225    0.470   91.529
  245.000    2.631    0.230    0.455   94.624
  245.250    2.785    0.235    0.473   94.634
  245.500    3.180    0.239    0.513   90.937
  245.750    3.366    0.223    0.449   81.689
  246.000    3.631    0.191    0.414   73.054
  246.250    3.843    0.078    0.388   76.152
  246.500    3.917    0.136    0.366   85.420
  246.750    3.918    0.228    0.402   89.747
  247.000    3.846    0.257    0.382   86.672
  247.250    3.775    0.253    0.367   79.892
  247.500    3.568    0.254    0.388   76.196
  247.750    3.310    0.266    0.393   72.501
  248.000    3.070    0.286    0.396   71.273
  248.250    2.901    0.317    0.431   75.604
  248.500    2.742    0.303    0.414   84.872
  248.750    2.641    0.308    0.381   86.117
  249.000    2.544    0.327    0.376   83.039
  249.250    2.497    0.334    0.378   79.962
  249.500    2.594    0.334    0.363   81.822
  249.750    2.798    0.321    0.406   87.386
  250.000    2.906    0.311    0.461   89.248
  250.250    3.195    0.299    0.432   91.725
  250.500    3.382    0.277    0.406   86.796
  250.750    3.447    0.265    0.395   80.632
  251.000    3.448    0.255    0.407   73.233
  251.250    3.259    0.252    0.391   78.796
  251.500    2.966    0.256    0.365   69.550
  251.750    2.700    0.271    0.359   65.234
  252.000    2.504    0.294    0.372   59.070
  252.250    2.458    0.304    0.367   60.932
  252.500    2.323    0.301    0.363   65.879
  252.750    2.280    0.294    0.356   64.653
  253.000    2.281    0.274    0.379   67.751
  253.250    2.325    0.267    0.391   72.079
  253.500    2.370    0.269    0.352   79.495
  253.750    2.461    0.259    0.353   81.972
  254.000    2.605    0.260    0.361   84.450
  254.250    2.758    0.254    0.366   83.843
  254.500    2.811    0.253    0.383   83.233
  254.750    2.865    0.264    0.409   83.242
  255.000    2.921    0.282    0.409   83.868
  255.250    3.034    0.276    0.365   85.114
  255.500    3.092    0.269    0.349   87.590
  255.750    3.152    0.262    0.381   87.600
  256.000    3.153    0.257    0.405   82.672
  256.250    3.037    0.261    0.416   81.444
  256.500    2.981    0.281    0.409   79.600
  256.750    2.982    0.297    0.392   86.400
  257.000    2.926    0.273    0.412   99.372
  257.250    2.819    0.240    0.427  104.319
  257.500    2.715    0.251    0.405   97.540
  257.750    2.518    0.276    0.411   91.373
  258.000    2.425    0.294    0.431   79.654
  258.250    2.250    0.319    0.371   72.256
  258.500    2.126    0.323    0.351   72.267
  258.750    2.048    0.308    0.372   70.422
  259.000    2.209    0.299    0.377   73.517
  259.250    2.619    0.292    0.356   88.959
  259.500    3.224    0.232    0.340   98.844
  259.750    3.611    0.198    0.340  101.939
  260.000    4.201    0.175    0.365   96.394
  260.250    4.618    0.156    0.382   92.082
  260.500    4.707    0.139    0.357   95.797
  260.750    4.620    0.156    0.361   99.507
  261.000    4.450    0.180    0.367   93.960
  261.250    4.051    0.181    0.358   79.153
  261.500    3.550    0.170    0.341   59.410
  261.750    3.231    0.224    0.353   51.394
  262.000    2.997    0.248    0.384   52.638
  262.250    2.886    0.261    0.370   58.821
  262.500    2.729    0.267    0.355   61.913
  262.750    2.628    0.243    0.368   68.713
  263.000    2.629    0.210    0.370   73.660
  263.250    2.679    0.220    0.387   80.461
  263.500    2.890    0.233    0.397   90.344
  263.750    3.059    0.213    0.412  100.229
  264.000    3.178    0.159    0.417  102.707
  264.250    3.301    0.101    0.386  108.891
  264.500    3.365    0.148    0.417  115.073
  264.750    3.365    0.167    0.439  116.932
  265.000    3.366    0.175    0.467  116.323
  265.250    3.305    0.180    0.471  116.336
  265.500    3.305    0.171    0.484  115.108
  265.750    3.183    0.168    0.449  113.264
  266.000    3.009    0.170    0.464  114.507
  266.250    2.844    0.181    0.481  120.072
  266.500    2.739    0.200    0.469  120.082
  266.750    2.541    0.220    0.458  118.856
  267.000    2.541    0.228    0.466  117.011
  267.250    2.494    0.237    0.479  117.022
  267.500    2.742    0.247    0.477  114.560
  267.750    3.375    0.243    0.468  105.930
  268.000    4.234    0.233    0.467   99.764
  268.250    4.926    0.225    0.382   90.516
  268.500    5.415    0.254    0.415   84.351
  268.750    5.624    0.289    0.460   77.569
  269.000    5.625    0.282    0.401   75.108
  269.250    5.418    0.306    0.383   73.882
  269.500    5.026    0.307    0.385   75.127
  269.750    4.575    0.307    0.384   75.754
  270.000    4.324    0.309    0.371   73.910
  270.250    4.164    0.311    0.428   70.215
  270.500    4.011    0.313    0.394   66.520
  270.750    3.937    0.318    0.392   65.293
  271.000    3.938    0.320    0.425   65.921
  271.250    3.939    0.310    0.474   66.548
  271.500    3.940    0.304    0.429   69.024
  271.750    4.016    0.304    0.413   69.651
  272.000    4.093    0.293    0.419   69.659
  272.250    4.252    0.259    0.424   71.521
  272.500    4.417    0.232    0.404   70.294
  272.750    4.588    0.268    0.388   70.305
  273.000    4.676    0.305    0.373   74.017
  273.250    4.767    0.301    0.382   76.494
  273.500    4.768    0.294    0.398   77.120
  273.750    4.769    0.295    0.367   77.129
  274.000    4.681    0.300    0.369   79.607
  274.250    4.683    0.293    0.371   82.085
  274.500    4.596    0.295    0.388   79.010
  274.750    4.511    0.299    0.404   72.227
  275.000    4.512    0.306    0.399   63.593
  275.250    4.513    0.302    0.382   67.307
  275.500    4.514    0.287    0.378   68.549
  275.750    4.516    0.290    0.370   67.941
  276.000    4.517    0.297    0.367   65.482
  276.250    4.518    0.291    0.363   74.132
  276.500    4.605    0.286    0.347   87.722
  276.750    4.606    0.278    0.357   95.756
  277.000    4.607    0.265    0.391   98.850
  277.250    4.608    0.242    0.397   97.624
  277.500    4.609    0.224    0.402  103.806
  277.750    4.611    0.209    0.405  100.113
  278.000    4.612    0.210    0.420   96.417
  278.250    4.613    0.222    0.438   93.956
  278.500    4.614    0.227    0.444   93.966
  278.750    4.615    0.219    0.464  100.150
  279.000    4.616    0.217    0.455  103.242
  279.250    4.618    0.221    0.450   98.314
  279.500    4.619    0.228    0.470   94.618
  279.750    4.620    0.233    0.434   95.864
  280.000    4.621    0.238    0.430   97.105
  280.250    4.536    0.237    0.458   98.348
  280.500    4.537    0.233    0.482   95.890
  280.750    4.538    0.224    0.505   95.280
  281.000    4.539    0.219    0.421   97.143
  281.250    4.540    0.224    0.395   99.003
  281.500    4.541    0.216    0.418   98.394
  281.750    4.543    0.207    0.430   95.316
  282.000    4.544    0.206    0.378   95.943
  282.250    4.545    0.208    0.362   95.334
  282.500    4.136    0.215    0.380   96.576
  282.750    4.138    0.220    0.396   94.735
  283.000    4.061    0.228    0.405   97.215
  283.250    3.986    0.225    0.458   99.072
