~VERSION INFORMATION
 VERS.                 2.0:   CWLS LOG ASCII STANDARD -VERSION 2.0
 WRAP.                  NO:   ONE LINE PER DEPTH STEP
~WELL INFORMATION BLOCK
#MNEM.UNIT           DATA                    DESCRIPTION OF MNEMONIC
#---------    -------------------            -------------------------------
# Generated from Intellog Unique Number	CS_73_76/WELL/853
WELL.         DOME ET AL KIRBY               : Well_name    - WELL
LOC .         00/11-32-073-06W4/0            : Location     - LOCATION
UWI .         00/11-32-073-06W4/0            : Uwi          - UNIQUE WELL ID
ENTR.         SP                             : Entered      - ENTERED BY
SRVC.         SCHLUMBERGER                   : Scn          - SERVICE COMPANY
STRT.M        255                            : top_depth    - START DEPTH
STOP.M        475                            : bot_depth    - STOP DEPTH
STEP.M        0.25                           : increment    - STEP LENGTH
 NULL. -999.2500:NULL Value
~CURVE INFORMATION BLOCK
#MNEM UNIT       ERCB CURVE CODE    CURVE DESCRIPTION
#-----------   ------------------   ----------------------------------
DEPT.M        00 001 00 00         : DEPTH        - DEPTH
ILD .OHMM     00 120 00 00         : RESD         - DEEP RESISTIVITY (DIL)
DPHI.V/V      00 890 00 00         : PHID         - DENSITY POROSITY (LIMESTONE)
NPHI.V/V      00 330 00 00         : PHIN         - NEUTRON POROSITY (LIMESTONE)
GR  .API      00 310 00 00         : GR           - GAMMA RAY
~PARAMETER INFORMATION
#MNEM.UNIT           DATA             DESCRIPTION OF MNEMONIC
#---------         -----------     ------------------------------
GL  .M        647.41               : gl           - GROUND LEVEL ELEVATION
EREF.M        650.91               : kb           - ELEVATION OF DEPTH REFERENCE
DATM.M        647.41               : datum        - DATUM ELEVATION
TDD .M        484.5                : tdd          - TOTAL DEPTH DRILLER
RUN .         ONE                  : Run          - RUN NUMBER
ENG .         BILL                 : Engineer     - RECORDING ENGINEER
WIT .         JIM                  : Witness      - WITNESSED BY
MUD .         GEL                  : Mud_type     - MUD TYPE
MATR.         LIMESTONE            : Logunit      - NEUTRON MATRIX
TMAX.C        23                   : BHT          - MAXIMUM RECORDED TEMPERATURE
BHTD.M        484.5                : BHTDEP       - MAXIMUM RECORDED TEMPERATURE
MATR.         1                    : LOGUNIT      - NEUTRON MATRIX
RMT .C        25                   : MDTP         - TEMPERATURE OF MUD
NEUT.         1                    : NEUTRON      - NEUTRON TYPE
RESI.         0                    : RESIST       - RESISTIVITY TYPE
RMC .OHMM     0.25                 : RMC          - RESISTIVITY OF MUD CAKE
RMF .OHMM     0.25                 : RMF          - RESISTIVITY OF MUD FILTRATE
SUFT.C        15                   : SUFT         - SURFACE TEMPERATURE
~A  DEPTH     RESD     PHID     PHIN       GR
# ...
  385.500    6.123    0.326    0.454   64.643
  385.750    6.231    0.327    0.441   63.424
  386.000    6.345    0.324    0.434   62.813
  386.250    6.340    0.317    0.435   64.023
  386.500    6.952    0.282    0.465   60.983
  386.750    9.015    0.227    0.459   53.692
  387.000   10.845    0.142    0.282   46.399
  387.250   11.463    0.035    0.174   41.537
  387.500   12.111    0.191    0.225   45.785
  387.750   11.441    0.265    0.305   59.747
  388.000   10.221    0.291    0.383   61.565
  388.250    9.308    0.299    0.412   59.133
  388.500    7.573    0.300    0.456   60.949
  388.750    6.895    0.304    0.459   62.767
  389.000    6.396    0.306    0.456   62.155
  389.250    6.045    0.303    0.469   61.544
  389.500    5.820    0.309    0.479   62.147
  389.750    5.708    0.312    0.463   60.321
  390.000    5.811    0.309    0.446   59.711
  390.250    6.025    0.283    0.399   65.171
  390.500    6.246    0.237    0.412   69.418
  390.750    6.358    0.207    0.433   73.058
  391.000    6.354    0.235    0.446   77.305
  391.250    6.350    0.243    0.449   78.515
  391.500    5.997    0.257    0.443   81.546
  391.750    5.884    0.265    0.445   85.187
  392.000    5.990    0.251    0.456   88.219
  392.250    6.097    0.238    0.447   84.570
  392.500    6.323    0.235    0.433   82.745
  392.750    6.202    0.239    0.461   83.347
  393.000    5.750    0.239    0.474   82.737
  393.250    5.433    0.242    0.484   76.053
  393.500    5.231    0.253    0.477   75.440
  393.750    4.944    0.253    0.449   76.043
  394.000    4.255    0.249    0.432   76.039
  394.250    3.802    0.264    0.463   74.822
  394.500    3.593    0.281    0.522   74.817
  394.750    3.211    0.298    0.554   75.420
  395.000    2.713    0.292    0.526   74.202
  395.250    2.517    0.290    0.539   71.162
  395.500    2.377    0.286    0.545   70.551
  395.750    2.376    0.278    0.554   77.225
  396.000    2.372    0.271    0.551   79.651
  396.250    2.371    0.271    0.534   83.290
  396.500    2.369    0.276    0.539   84.501
  396.750    2.323    0.287    0.558   83.889
  397.000    2.322    0.287    0.510   81.457
  397.250    2.319    0.281    0.459   77.201
  397.500    2.318    0.275    0.442   73.553
  397.750    2.449    0.291    0.467   68.083
  398.000    2.736    0.306    0.476   62.007
  398.250    3.114    0.316    0.444   56.537
  398.500    3.748    0.329    0.335   52.283
  398.750    4.267    0.341    0.290   49.850
  399.000    5.431    0.352    0.272   50.453
  399.250    7.174    0.352    0.280   52.877
  399.500   12.530    0.342    0.304   53.481
  399.750   25.873    0.340    0.323   52.870
  400.000   31.727    0.342    0.338   51.651
  400.250   35.448    0.337    0.327   51.645
  400.500   36.080    0.338    0.319   51.641
  400.750   34.092    0.348    0.313   51.639
  401.000   31.027    0.349    0.303   51.027
  401.250   29.878    0.335    0.300   50.415
  401.500   27.191    0.331    0.309   51.019
  401.750   25.700    0.328    0.313   52.836
  402.000   22.962    0.331    0.314   53.440
  402.250   20.138    0.328    0.331   53.436
  402.500   17.667    0.317    0.366   52.217
  402.750   13.854    0.313    0.391   52.820
  403.000   11.928    0.313    0.420   54.030
  403.250    9.894    0.314    0.433   55.848
  403.500    8.056    0.318    0.425   54.629
  403.750    6.681    0.324    0.408   50.981
  404.000    5.971    0.329    0.414   49.156
  404.250    5.336    0.328    0.424   50.973
  404.500    4.857    0.319    0.408   53.397
  404.750    4.589    0.316    0.413   55.216
  405.000    4.500    0.319    0.430   55.818
  405.250    4.497    0.325    0.444   55.815
  405.500    4.662    0.322    0.432   56.418
  405.750    4.748    0.308    0.414   57.627
  406.000    5.014    0.300    0.401   58.231
  406.250    5.299    0.316    0.408   57.619
  406.500    5.496    0.329    0.419   56.401
  406.750    6.137    0.324    0.426   54.576
  407.000    6.485    0.313    0.433   53.963
  407.250    7.381    0.303    0.453   53.960
  407.500    7.948    0.316    0.472   53.348
  407.750    9.389    0.327    0.481   53.345
  408.000   11.092    0.341    0.453   53.340
  408.250   12.864    0.340    0.432   55.158
  408.500   16.070    0.329    0.427   53.332
  408.750   19.342    0.322    0.421   52.114
  409.000   20.816    0.325    0.430   55.145
  409.250   21.193    0.330    0.436   58.176
  409.500   20.774    0.333    0.436   58.781
  409.750   20.381    0.328    0.446   57.563
  410.000   19.256    0.321    0.441   55.129
  410.250   18.536    0.317    0.419   53.911
  410.500   18.872    0.313    0.426   54.513
  410.750   18.855    0.315    0.440   54.509
  411.000   19.195    0.324    0.448   53.291
  411.250   19.906    0.328    0.443   52.072
  411.500   20.263    0.330    0.449   53.282
  411.750   21.407    0.321    0.470   53.885
  412.000   22.203    0.295    0.472   53.882
  412.250   23.893    0.274    0.459   52.661
  412.500   25.247    0.276    0.443   52.052
  412.750   26.678    0.292    0.434   50.226
  413.000   27.660    0.310    0.434   51.436
  413.250   27.636    0.319    0.440   55.075
  413.500   27.614    0.329    0.451   57.499
  413.750   26.090    0.332    0.457   58.103
  414.000   23.303    0.334    0.462   57.492
  414.250   21.614    0.338    0.442   53.844
  414.500   20.810    0.343    0.448   53.840
  414.750   20.041    0.346    0.456   53.835
  415.000   18.938    0.339    0.456   52.617
  415.250   17.894    0.329    0.465   51.399
  415.500   17.869    0.324    0.476   53.823
  415.750   18.197    0.316    0.486   55.640
  416.000   18.867    0.310    0.458   56.245
  416.250   19.206    0.312    0.446   51.989
  416.500   19.197    0.322    0.442   55.628
  416.750   19.538    0.322    0.431   59.267
  417.000   21.026    0.321    0.428   59.871
  417.250   21.809    0.329    0.458   56.830
  417.500   23.043    0.328    0.484   56.827
  417.750   24.349    0.323    0.504   57.430
  418.000   26.201    0.311    0.514   56.818
  418.250   27.692    0.159    0.422   51.955
  418.500   30.933    0.151    0.325   48.916
  418.750   33.919    0.187    0.399   48.304
  419.000   35.184    0.229    0.435   47.692
  419.250   32.633    0.283    0.473   48.296
  419.500   31.413    0.333    0.448   49.507
  419.750   31.372    0.316    0.436   51.323
  420.000   31.927    0.316    0.435   52.535
  420.250   31.902    0.315    0.423   53.745
  420.500   32.483    0.312    0.410   55.562
  420.750   33.065    0.310    0.412   56.165
  421.000   33.047    0.303    0.417   56.768
  421.250   33.022    0.305    0.416   57.373
  421.500   32.992    0.311    0.415   57.975
  421.750   32.960    0.313    0.418   57.972
  422.000   32.332    0.304    0.421   56.753
  422.250   31.122    0.283    0.422   52.496
  422.500   31.085    0.272    0.424   50.671
  422.750   31.650    0.286    0.429   48.845
  423.000   32.215    0.303    0.430   48.234
  423.250   32.793    0.316    0.428   47.623
  423.500   32.759    0.298    0.426   47.012
  423.750   32.139    0.287    0.430   49.436
  424.000   31.511    0.302    0.426   50.038
  424.250   30.335    0.308    0.419   50.035
  424.500   30.317    0.309    0.413   48.817
  424.750   30.855    0.302    0.429   48.205
  425.000   31.416    0.287    0.440   48.807
  425.250   30.238    0.281    0.432   48.805
  425.500   28.572    0.282    0.424   48.800
  425.750   28.010    0.287    0.432   48.794
  426.000   27.997    0.303    0.435   48.183
  426.250   29.562    0.303    0.413   48.180
  426.500   30.095    0.299    0.399   47.569
  426.750   31.215    0.301    0.407   46.350
  427.000   31.781    0.301    0.410   48.168
  427.250   32.352    0.301    0.420   48.770
  427.500   32.327    0.287    0.424   48.160
  427.750   31.709    0.282    0.426   48.156
  428.000   28.331    0.281    0.427   49.365
  428.250   27.275    0.284    0.428   49.969
  428.500   26.750    0.286    0.437   51.179
  428.750   27.214    0.291    0.443   51.175
