~VERSION INFORMATION
 VERS.                 2.0:   CWLS LOG ASCII STANDARD -VERSION 2.0
 WRAP.                  NO:   ONE LINE PER DEPTH STEP
~WELL INFORMATION BLOCK
#MNEM.UNIT           DATA                    DESCRIPTION OF MNEMONIC
#---------    -------------------            -------------------------------
# Generated from Intellog Unique Number	CS_73_76/WELL/853
WELL.         DOME ET AL KIRBY               : Well_name    - WELL
LOC .         00/11-32-073-06W4/0            : Location     - LOCATION
UWI .         00/11-32-073-06W4/0            : Uwi          - UNIQUE WELL ID
ENTR.         SP                             : Entered      - ENTERED BY
SRVC.         SCHLUMBERGER                   : Scn          - SERVICE COMPANY
STRT.M        255                            : top_depth    - START DEPTH
STOP.M        475                            : bot_depth    - STOP DEPTH
STEP.M        0.25                           : increment    - STEP LENGTH
 NULL. -999.2500:NULL Value
~CURVE INFORMATION BLOCK
#MNEM UNIT       ERCB CURVE CODE    CURVE DESCRIPTION
#-----------   ------------------   ----------------------------------
DEPT.M        00 001 00 00         : DEPTH        - DEPTH
ILD .OHMM     00 120 00 00         : RESD         - DEEP RESISTIVITY (DIL)
DPHI.V/V      00 890 00 00         : PHID         - DENSITY POROSITY (LIMESTONE)
NPHI.V/V      00 330 00 00         : PHIN         - NEUTRON POROSITY (LIMESTONE)
GR  .API      00 310 00 00         : GR           - GAMMA RAY
~PARAMETER INFORMATION
#MNEM.UNIT           DATA             DESCRIPTION OF MNEMONIC
#---------         -----------     ------------------------------
GL  .M        647.41               : gl           - GROUND LEVEL ELEVATION
EREF.M        650.91               : kb           - ELEVATION OF DEPTH REFERENCE
DATM.M        647.41               : datum        - DATUM ELEVATION
TDD .M        484.5                : tdd          - TOTAL DEPTH DRILLER
RUN .         ONE                  : Run          - RUN NUMBER
ENG .         BILL                 : Engineer     - RECORDING ENGINEER
WIT .         JIM                  : Witness      - WITNESSED BY
MUD .         GEL                  : Mud_type     - MUD TYPE
MATR.         LIMESTONE            : Logunit      - NEUTRON MATRIX
TMAX.C        23                   : BHT          - MAXIMUM RECORDED TEMPERATURE
BHTD.M        484.5                : BHTDEP       - MAXIMUM RECORDED TEMPERATURE
MATR.         1                    : LOGUNIT      - NEUTRON MATRIX
RMT .C        25                   : MDTP         - TEMPERATURE OF MUD
NEUT.         1                    : NEUTRON      - NEUTRON TYPE
RESI.         0                    : RESIST       - RESISTIVITY TYPE
RMC .OHMM     0.25                 : RMC          - RESISTIVITY OF MUD CAKE
RMF .OHMM     0.25                 : RMF          - RESISTIVITY OF MUD FILTRATE
SUFT.C        15                   : SUFT         - SURFACE TEMPERATURE
~A  DEPTH     RESD     PHID     PHIN       GR
# ...
  298.500   11.697    0.336    0.377   34.502
  298.750   10.648    0.268    0.360   39.356
  299.000    9.512    0.234    0.337   48.461
  299.250    8.659    0.223    0.372   73.963
  299.500    7.738    0.218    0.413   95.213
  299.750    7.044    0.236    0.435  103.710
  300.000    6.534    0.236    0.433  108.565
  300.250    6.291    0.230    0.428  107.346
  300.500    6.056    0.243    0.437  102.484
  300.750    6.050    0.311    0.465   98.836
  301.000    6.158    0.328    0.482   95.795
  301.250    6.387    0.344    0.490   92.148
  301.500    6.501    0.364    0.499   84.249
  301.750    6.740    0.349    0.494   87.281
  302.000    6.991    0.322    0.494   94.564
  302.250    7.252    0.315    0.479   98.204
  302.500    7.661    0.280    0.461   97.591
  302.750    8.092    0.262    0.434   95.158
  303.000    8.393    0.267    0.423   92.725
  303.250    8.702    0.262    0.420   92.113
  303.500    8.860    0.258    0.420   93.324
  303.750    8.854    0.263    0.423   93.928
  304.000    9.010    0.268    0.422   95.746
  304.250    9.173    0.255    0.417   99.385
  304.500    9.168    0.252    0.436  100.595
  304.750    9.158    0.240    0.473   99.377
  305.000    9.152    0.225    0.477   97.551
  305.250    8.975    0.233    0.476   96.939
  305.500    8.479    0.236    0.473   93.899
  305.750    8.163    0.232    0.466   90.252
  306.000    7.712    0.228    0.464   95.106
  306.250    7.427    0.238    0.467   92.671
  306.500    7.015    0.240    0.468   89.025
  306.750    6.879    0.247    0.468   85.983
  307.000    7.004    0.264    0.465   89.016
  307.250    6.998    0.263    0.455   92.655
  307.500    7.125    0.272    0.449   87.185
  307.750    7.387    0.281    0.451   82.324
  308.000    7.521    0.272    0.459   77.462
  308.250    7.943    0.272    0.467   74.421
  308.500    8.087    0.278    0.444   73.809
  308.750    8.232    0.283    0.425   72.591
  309.000    8.227    0.292    0.407   72.587
  309.250    8.220    0.285    0.396   76.834
  309.500    8.061    0.277    0.397   79.259
  309.750    7.757    0.257    0.415   79.255
  310.000    7.609    0.246    0.444   81.679
  310.250    7.325    0.240    0.461   84.105
  310.500    7.185    0.241    0.470   83.492
  310.750    6.660    0.244    0.459   82.274
  311.000    6.413    0.237    0.444   79.841
  311.250    6.291    0.233    0.439   77.407
  311.500    6.056    0.231    0.439   77.404
  311.750    5.829    0.235    0.459   84.687
  312.000    5.717    0.285    0.476   82.861
  312.250    5.608    0.334    0.469   79.821
  312.500    5.396    0.325    0.446   76.780
  312.750    5.393    0.311    0.422   76.776
  313.000    5.288    0.299    0.410   74.343
  313.250    5.186    0.306    0.410   71.302
  313.500    5.086    0.313    0.421   68.261
  313.750    5.083    0.314    0.418   67.042
  314.000    4.891    0.308    0.413   67.646
  314.250    4.889    0.305    0.409   71.893
  314.500    4.885    0.301    0.391   77.354
  314.750    4.792    0.296    0.389   84.029
  315.000    4.612    0.325    0.415   87.062
  315.250    4.439    0.335    0.438   88.272
  315.500    4.273    0.307    0.432   79.765
  315.750    3.890    0.289    0.423   74.297
  316.000    3.608    0.329    0.421   63.970
  316.250    3.408    0.344    0.420   58.498
  316.500    3.282    0.324    0.418   59.711
  316.750    3.101    0.316    0.425   58.492
  317.000    3.041    0.315    0.443   61.524
  317.250    2.983    0.318    0.458   63.949
  317.500    2.925    0.324    0.474   63.337
  317.750    2.922    0.328    0.481   60.904
  318.000    2.920    0.335    0.453   59.685
  318.250    2.971    0.345    0.434   59.074
  318.500    3.026    0.347    0.431   59.069
  318.750    3.024    0.352    0.448   57.851
  319.000    2.964    0.353    0.439   56.633
  319.250    2.962    0.347    0.437   57.843
  319.500    2.960    0.344    0.448   58.446
  319.750    2.903    0.341    0.453   56.013
  320.000    2.901    0.338    0.437   53.580
  320.250    2.791    0.339    0.436   54.183
  320.500    2.790    0.339    0.445   56.000
  320.750    2.684    0.338    0.453   55.997
  321.000    2.633    0.341    0.446   55.385
  321.250    2.631    0.338    0.425   55.988
  321.500    2.580    0.349    0.428   55.377
  321.750    2.531    0.354    0.431   54.159
  322.000    2.529    0.358    0.435   59.619
  322.250    2.480    0.357    0.452   58.400
  322.500    2.478    0.350    0.469   56.575
  322.750    2.431    0.345    0.474   57.177
  323.000    2.339    0.337    0.448   57.172
  323.250    2.337    0.329    0.424   55.347
  323.500    2.292    0.333    0.419   54.736
  323.750    2.291    0.338    0.429   57.160
  324.000    2.247    0.342    0.434   57.157
  324.250    2.244    0.345    0.430   55.938
  324.500    2.200    0.351    0.436   54.719
  324.750    2.199    0.355    0.438   55.323
  325.000    2.156    0.350    0.445   57.748
  325.250    2.154    0.348    0.457   57.744
  325.500    2.320    0.346    0.456   57.133
  325.750    2.275    0.342    0.436   55.913
  326.000    2.273    0.340    0.440   55.303
  326.250    2.230    0.340    0.441   54.691
  326.500    2.187    0.345    0.424   55.293
  326.750    2.144    0.350    0.425   55.897
  327.000    2.103    0.356    0.438   57.108
  327.250    2.063    0.361    0.457   58.316
  327.500    2.022    0.354    0.462   59.529
  327.750    1.984    0.345    0.444   60.132
  328.000    1.982    0.336    0.446   58.913
  328.250    1.980    0.339    0.456   56.480
  328.500    1.942    0.344    0.466   54.045
  328.750    1.941    0.347    0.452   54.042
  329.000    1.939    0.347    0.446   58.288
  329.250    1.938    0.348    0.455   59.499
  329.500    1.900    0.350    0.463   57.673
  329.750    1.899    0.354    0.467   57.062
  330.000    1.862    0.350    0.457   56.450
  330.250    1.826    0.348    0.451   57.661
  330.500    1.825    0.348    0.464   57.049
  330.750    1.790    0.342    0.462   54.009
  331.000    1.788    0.337    0.456   52.183
  331.250    1.754    0.339    0.444   52.178
  331.500    1.719    0.345    0.433   53.388
  331.750    1.718    0.353    0.428   55.206
  332.000    1.685    0.360    0.429   58.238
  332.250    1.684    0.350    0.431   59.450
  332.500    1.682    0.346    0.440   60.660
  332.750    1.680    0.346    0.450   60.656
  333.000    1.679    0.346    0.449   61.260
  333.250    1.678    0.343    0.445   63.683
  333.500    1.676    0.343    0.441   63.681
  333.750    1.675    0.343    0.432   61.855
  334.000    1.673    0.344    0.427   62.458
  334.250    1.673    0.347    0.438   60.025
  334.500    1.702    0.348    0.450   57.590
  334.750    1.700    0.340    0.434   56.373
  335.000    1.731    0.332    0.422   58.191
  335.250    1.763    0.319    0.432   50.289
  335.500    1.827    0.308    0.421   48.466
  335.750    1.860    0.299    0.403   44.211
  336.000    1.893    0.292    0.402   41.170
  336.250    1.892    0.314    0.410   42.380
  336.500    1.926    0.331    0.427   44.806
  336.750    1.889    0.343    0.442   47.838
  337.000    1.853    0.353    0.438   48.441
  337.250    1.783    0.347    0.427   47.828
  337.500    1.717    0.335    0.439   47.218
  337.750    1.653    0.330    0.423   47.820
  338.000    1.591    0.330    0.428   48.423
  338.250    1.560    0.334    0.442   49.028
  338.500    1.530    0.335    0.448   50.238
  338.750    1.500    0.340    0.482   50.841
  339.000    1.499    0.335    0.495   50.836
  339.250    1.526    0.329    0.496   53.261
  339.500    1.554    0.326    0.462   55.079
  339.750    1.582    0.331    0.465   56.897
  340.000    1.610    0.336    0.473   58.714
  340.250    1.639    0.340    0.451   60.532
  340.500    1.669    0.337    0.434   62.957
  340.750    1.730    0.356    0.456   63.561
  341.000    1.827    0.368    0.476   63.556
  341.250    1.861    0.352    0.482   64.767
  341.500    1.929    0.342    0.475   67.192
  341.750    2.001    0.336    0.488   67.795
