~VERSION INFORMATION
 VERS.                 2.0:   CWLS LOG ASCII STANDARD -VERSION 2.0
 WRAP.                  NO:   ONE LINE PER DEPTH STEP
~WELL INFORMATION BLOCK
#MNEM.UNIT           DATA                    DESCRIPTION OF MNEMONIC
#---------    -------------------            -------------------------------
# Generated from Intellog Unique Number	CS_73_76/WELL/853
WELL.         DOME ET AL KIRBY               : Well_name    - WELL
LOC .         00/11-32-073-06W4/0            : Location     - LOCATION
UWI .         00/11-32-073-06W4/0            : Uwi          - UNIQUE WELL ID
ENTR.         SP                             : Entered      - ENTERED BY
SRVC.         SCHLUMBERGER                   : Scn          - SERVICE COMPANY
STRT.M        255                            : top_depth    - START DEPTH
STOP.M        475                            : bot_depth    - STOP DEPTH
STEP.M        0.25                           : increment    - STEP LENGTH
 NULL. -999.2500:NULL Value
~CURVE INFORMATION BLOCK
#MNEM UNIT       ERCB CURVE CODE    CURVE DESCRIPTION
#-----------   ------------------   ----------------------------------
DEPT.M        00 001 00 00         : DEPTH        - DEPTH
ILD .OHMM     00 120 00 00         : RESD         - DEEP RESISTIVITY (DIL)
DPHI.V/V      00 890 00 00         : PHID         - DENSITY POROSITY (LIMESTONE)
NPHI.V/V      00 330 00 00         : PHIN         - NEUTRON POROSITY (LIMESTONE)
GR  .API      00 310 00 00         : GR           - GAMMA RAY
~PARAMETER INFORMATION
#MNEM.UNIT           DATA             DESCRIPTION OF MNEMONIC
#---------         -----------     ------------------------------
GL  .M        647.41               : gl           - GROUND LEVEL ELEVATION
EREF.M        650.91               : kb           - ELEVATION OF DEPTH REFERENCE
DATM.M        647.41               : datum        - DATUM ELEVATION
TDD .M        484.5                : tdd          - TOTAL DEPTH DRILLER
RUN .         ONE                  : Run          - RUN NUMBER
ENG .         BILL                 : Engineer     - RECORDING ENGINEER
WIT .         JIM                  : Witness      - WITNESSED BY
MUD .         GEL                  : Mud_type     - MUD TYPE
MATR.         LIMESTONE            : Logunit      - NEUTRON MATRIX
TMAX.C        23                   : BHT          - MAXIMUM RECORDED TEMPERATURE
BHTD.M        484.5                : BHTDEP       - MAXIMUM RECORDED TEMPERATURE
MATR.         1                    : LOGUNIT      - NEUTRON MATRIX
RMT .C        25                   : MDTP         - TEMPERATURE OF MUD
NEUT.         1                    : NEUTRON      - NEUTRON TYPE
RESI.         0                    : RESIST       - RESISTIVITY TYPE
RMC .OHMM     0.25                 : RMC          - RESISTIVITY OF MUD CAKE
RMF .OHMM     0.25                 : RMF          - RESISTIVITY OF MUD FILTRATE
SUFT.C        15                   : SUFT         - SURFACE TEMPERATURE
~A  DEPTH     RESD     PHID     PHIN       GR
  255.000    2.732    0.305    0.602   91.090
  255.250    2.780    0.302    0.483   89.871
  255.500    2.779    0.281    0.514   88.044
  255.750    2.990    0.242    0.539   85.610
  256.000    3.101    0.228    0.530   85.000
  256.250    3.158    0.233    0.500   85.604
  256.500    3.213    0.259    0.482   88.029
  256.750    3.210    0.273    0.482   94.097
  257.000    3.208    0.264    0.490   95.915
  257.250    3.146    0.250    0.498   96.517
  257.500    3.145    0.269    0.514   97.729
  257.750    3.141    0.276    0.522   98.939
  258.000    3.139    0.261    0.520   97.719
  258.250    3.135    0.253    0.525   98.323
  258.500    3.192    0.253    0.543  100.141
  258.750    3.310    0.256    0.543  102.565
  259.000    3.433    0.256    0.530  104.991
  259.250    3.626    0.256    0.525  104.379
  259.500    3.691    0.264    0.519  101.946
  259.750    3.758    0.255    0.514  100.728
  260.000    3.827    0.254    0.505   97.079
  260.250    3.824    0.252    0.504   95.254
  260.500    3.891    0.253    0.531   94.035
  260.750    3.962    0.258    0.529  100.103
  261.000    4.033    0.253    0.508  101.315
  261.250    4.180    0.249    0.489   95.237
  261.500    4.335    0.231    0.475   90.982
  261.750    4.412    0.229    0.474   90.979
  262.000    4.492    0.191    0.492   91.581
  262.250    4.574    0.135    0.422   81.861
  262.500    4.570    0.202    0.421   78.214
  262.750    4.653    0.221    0.455   82.460
  263.000    5.007    0.187    0.510   89.136
  263.250    5.491    0.175    0.463   92.168
  263.500    6.023    0.234    0.428   90.342
  263.750    7.385    0.263    0.406   88.514
  264.000    9.398    0.274    0.399   87.297
  264.250   12.187    0.281    0.401   85.470
  264.500   14.397    0.291    0.376   86.075
  264.750   14.929    0.279    0.357   95.786
  265.000   14.642    0.255    0.394   98.819
  265.250   14.361    0.249    0.422   94.564
  265.500   15.173    0.260    0.433   87.880
  265.750   20.040    0.292    0.390   73.909
  266.000   26.472    0.325    0.334   59.938
  266.250   34.320    0.348    0.265   50.824
  266.500   39.073    0.337    0.268   53.856
  266.750   44.478    0.325    0.275   56.889
  267.000   47.878    0.239    0.291   55.670
  267.250   48.734    0.189    0.275   49.593
  267.500   40.409    0.281    0.251   44.731
  267.750   36.122    0.308    0.246   38.654
  268.000   24.871    0.302    0.305   46.545
  268.250   16.500    0.268    0.342   65.366
  268.500   13.431    0.263    0.404   79.936
  268.750   12.227    0.267    0.417   87.826
  269.000   11.772    0.263    0.406   90.858
  269.250   11.760    0.265    0.395   92.068
  269.500   11.973    0.260    0.409   92.065
  269.750   12.186    0.253    0.432   89.024
  270.000   12.407    0.259    0.421   85.376
  270.250   13.105    0.269    0.406   82.336
  270.500   13.343    0.270    0.401   86.582
  270.750   13.583    0.268    0.401   89.008
  271.000   13.823    0.267    0.406   91.433
  271.250   14.070    0.271    0.408   91.429
  271.500   14.058    0.296    0.408   88.995
  271.750   13.785    0.324    0.405   84.740
  272.000   13.273    0.352    0.395   80.485
  272.250   12.310    0.395    0.429   82.303
  272.500   11.209    0.200    0.556   92.014
  272.750    9.472    0.176    0.442   99.905
  273.000    9.462    0.208    0.427  105.974
  273.250   10.768    0.244    0.437   93.824
  273.500   11.811    0.265    0.398   85.319
  273.750   12.714    0.272    0.383   75.598
  274.000   13.940    0.280    0.385   62.842
  274.250   14.729    0.291    0.370   57.980
  274.500   12.917    0.250    0.355   61.011
  274.750   11.545    0.222    0.371   65.257
  275.000    9.575    0.225    0.403   71.934
  275.250    8.244    0.211    0.423   85.897
  275.500    7.232    0.194    0.445   98.039
  275.750    6.110    0.171    0.471  106.536
  276.000    5.667    0.157    0.468  107.746
  276.250    5.257    0.188    0.461  109.564
  276.500    4.785    0.215    0.475  111.989
  276.750    4.274    0.215    0.499  113.807
  277.000    4.039    0.211    0.510  116.232
  277.250    3.818    0.199    0.511  116.227
  277.500    3.475    0.192    0.523  115.009
  277.750    3.345    0.190    0.533  111.969
  278.000    3.220    0.210    0.527  116.822
  278.250    3.042    0.222    0.518  121.676
  278.500    3.040    0.233    0.540  120.458
  278.750    3.095    0.252    0.554  114.380
  279.000    3.588    0.267    0.569  107.695
  279.250    4.240    0.278    0.527  100.405
  279.500    7.544    0.285    0.478   87.649
  279.750   10.539    0.252    0.422   75.499
  280.000   13.164    0.223    0.370   70.637
  280.250   15.552    0.190    0.393   73.061
  280.500   17.056    0.150    0.335   62.734
  280.750   18.357    0.189    0.289   54.834
  281.000   19.396    0.249    0.303   56.046
  281.250   19.380    0.282    0.328   66.972
  281.500   19.358    0.311    0.339   73.041
  281.750   18.640    0.318    0.347   79.716
  282.000   18.282    0.313    0.345   82.749
  282.250   18.261    0.318    0.340   83.352
  282.500   18.590    0.322    0.345   81.526
  282.750   18.926    0.321    0.342   76.664
  283.000   19.262    0.325    0.330   70.587
  283.250   19.244    0.331    0.314   68.761
  283.500   18.869    0.331    0.308   71.792
  283.750   18.858    0.328    0.316   73.612
  284.000   18.490    0.323    0.330   74.821
  284.250   18.480    0.319    0.335   72.389
  284.500   18.469    0.334    0.336   68.740
  284.750   18.108    0.332    0.344   68.736
  285.000   17.433    0.325    0.353   68.732
  285.250   16.777    0.323    0.364   68.121
  285.500   16.153    0.327    0.368   68.117
  285.750   15.554    0.319    0.368   69.933
  286.000   14.424    0.313    0.379   72.358
  286.250   13.377    0.298    0.428   75.391
  286.500   12.879    0.293    0.452   79.639
  286.750   12.169    0.287    0.460   85.707
  287.000   11.710    0.289    0.442   89.346
  287.250   11.487    0.304    0.432   87.521
  287.500   11.267    0.311    0.453   88.124
  287.750   11.050    0.306    0.464   87.512
  288.000   11.246    0.296    0.443   77.185
  288.250   11.449    0.296    0.407   61.392
  288.500   11.873    0.306    0.374   50.457
  288.750   12.087    0.303    0.380   44.987
  289.000   12.764    0.305    0.397   42.554
  289.250   12.998    0.311    0.403   44.371
  289.500   13.479    0.306    0.384   46.797
  289.750   13.982    0.309    0.365   49.221
  290.000   14.494    0.309    0.362   47.395
  290.250   14.760    0.306    0.367   44.355
  290.500   15.306    0.304    0.369   40.100
  290.750   15.577    0.315    0.375   38.882
  291.000   15.861    0.309    0.385   38.268
  291.250   15.847    0.303    0.397   37.050
  291.500   15.540    0.299    0.391   37.655
  291.750   15.243    0.294    0.380   39.472
  292.000   14.664    0.287    0.389   38.861
  292.250   14.380    0.297    0.379   36.426
  292.500   14.104    0.310    0.379   34.600
  292.750   14.093    0.314    0.384   33.990
  293.000   14.082    0.314    0.386   33.984
  293.250   14.337    0.320    0.382   33.981
  293.500   14.327    0.322    0.373   34.583
  293.750   14.317    0.314    0.382   35.188
  294.000   14.300    0.303    0.391   35.792
  294.250   14.293    0.304    0.383   37.609
  294.500   14.278    0.309    0.366   36.996
  294.750   14.270    0.314    0.359   36.993
  295.000   13.990    0.317    0.362   36.989
  295.250   13.724    0.321    0.371   38.199
  295.500   13.709    0.313    0.381   38.195
  295.750   13.701    0.309    0.387   37.584
  296.000   13.941    0.317    0.395   35.151
  296.250   13.933    0.325    0.402   30.895
  296.500   13.924    0.321    0.398   27.856
  296.750   13.905    0.319    0.378   30.281
  297.000   13.897    0.319    0.365   28.455
  297.250   13.632    0.321    0.356   26.021
  297.500   13.620    0.324    0.375   26.624
  297.750   13.609    0.326    0.387   32.084
  298.000   13.348    0.330    0.379   35.724
  298.250   12.377    0.333    0.385   35.721
