~VERSION INFORMATION
 VERS.                 2.0:   CWLS LOG ASCII STANDARD -VERSION 2.0
 WRAP.                  NO:   ONE LINE PER DEPTH STEP
~WELL INFORMATION BLOCK
#MNEM.UNIT           DATA                    DESCRIPTION OF MNEMONIC
#---------    -------------------            -------------------------------
# Generated from Intellog Unique Number	CS_73_76/WELL/853
WELL.         DOME ET AL KIRBY               : Well_name    - WELL
LOC .         00/11-32-073-06W4/0            : Location     - LOCATION
UWI .         00/11-32-073-06W4/0            : Uwi          - UNIQUE WELL ID
ENTR.         SP                             : Entered      - ENTERED BY
SRVC.         SCHLUMBERGER                   : Scn          - SERVICE COMPANY
STRT.M        255                            : top_depth    - START DEPTH
STOP.M        475                            : bot_depth    - STOP DEPTH
STEP.M        0.25                           : increment    - STEP LENGTH
 NULL. -999.2500:NULL Value
~CURVE INFORMATION BLOCK
#MNEM UNIT       ERCB CURVE CODE    CURVE DESCRIPTION
#-----------   ------------------   ----------------------------------
DEPT.M        00 001 00 00         : DEPTH        - DEPTH
ILD .OHMM     00 120 00 00         : RESD         - DEEP RESISTIVITY (DIL)
DPHI.V/V      00 890 00 00         : PHID         - DENSITY POROSITY (LIMESTONE)
NPHI.V/V      00 330 00 00         : PHIN         - NEUTRON POROSITY (LIMESTONE)
GR  .API      00 310 00 00         : GR           - GAMMA RAY
~PARAMETER INFORMATION
#MNEM.UNIT           DATA             DESCRIPTION OF MNEMONIC
#---------         -----------     ------------------------------
GL  .M        647.41               : gl           - GROUND LEVEL ELEVATION
EREF.M        650.91               : kb           - ELEVATION OF DEPTH REFERENCE
DATM.M        647.41               : datum        - DATUM ELEVATION
TDD .M        484.5                : tdd          - TOTAL DEPTH DRILLER
RUN .         ONE                  : Run          - RUN NUMBER
ENG .         BILL                 : Engineer     - RECORDING ENGINEER
WIT .         JIM                  : Witness      - WITNESSED BY
MUD .         GEL                  : Mud_type     - MUD TYPE
MATR.         LIMESTONE            : Logunit      - NEUTRON MATRIX
TMAX.C        23                   : BHT          - MAXIMUM RECORDED TEMPERATURE
BHTD.M        484.5                : BHTDEP       - MAXIMUM RECORDED TEMPERATURE
MATR.         1                    : LOGUNIT      - NEUTRON MATRIX
RMT .C        25                   : MDTP         - TEMPERATURE OF MUD
NEUT.         1                    : NEUTRON      - NEUTRON TYPE
RESI.         0                    : RESIST       - RESISTIVITY TYPE
RMC .OHMM     0.25                 : RMC          - RESISTIVITY OF MUD CAKE
RMF .OHMM     0.25                 : RMF          - RESISTIVITY OF MUD FILTRATE
SUFT.C        15                   : SUFT         - SURFACE TEMPERATURE
~A  DEPTH     RESD     PHID     PHIN       GR
# ...
  342.000    2.000    0.335    0.507   67.791
  342.250    2.073    0.350    0.496   68.394
  342.500    2.072    0.353    0.496   67.175
  342.750    2.070    0.358    0.504   62.312
  343.000    2.030    0.350    0.484   58.664
  343.250    1.991    0.343    0.464   59.269
  343.500    1.990    0.333    0.441   68.373
  343.750    2.025    0.314    0.463   74.441
  344.000    2.099    0.303    0.486   76.867
  344.250    2.219    0.297    0.501   78.684
  344.500    2.301    0.284    0.467   80.501
  344.750    2.522    0.273    0.426   82.320
  345.000    2.665    0.271    0.402   84.138
  345.250    2.714    0.269    0.424   83.526
  345.500    2.762    0.267    0.463   78.663
  345.750    2.659    0.273    0.491   73.800
  346.000    2.608    0.293    0.483   71.369
  346.250    2.558    0.313    0.458   68.328
  346.500    2.462    0.310    0.446   67.106
  346.750    2.414    0.296    0.435   67.104
  347.000    2.368    0.280    0.417   76.817
  347.250    2.366    0.266    0.480   88.958
  347.500    2.453    0.280    0.576   90.776
  347.750    2.498    0.293    0.555   85.307
  348.000    2.591    0.294    0.515   76.193
  348.250    2.735    0.294    0.485   68.902
  348.500    2.837    0.295    0.464   65.861
  348.750    2.835    0.300    0.452   67.680
  349.000    2.886    0.312    0.447   70.711
  349.250    2.938    0.330    0.451   71.922
  349.500    2.991    0.340    0.466   74.953
  349.750    2.988    0.333    0.486   77.379
  350.000    2.986    0.324    0.486   82.839
  350.250    2.928    0.302    0.497   84.658
  350.500    2.873    0.287    0.483   87.690
  350.750    2.765    0.284    0.491   89.508
  351.000    2.868    0.281    0.510   90.111
  351.250    2.761    0.255    0.510   89.499
  351.500    2.657    0.267    0.530   90.103
  351.750    2.655    0.299    0.524   90.706
  352.000    2.753    0.299    0.504   85.844
  352.250    2.908    0.300    0.498   73.694
  352.500    2.961    0.310    0.480   67.618
  352.750    2.959    0.326    0.448   73.078
  353.000    2.901    0.309    0.420   83.397
  353.250    2.846    0.297    0.541   87.645
  353.500    2.688    0.272    0.541   92.499
  353.750    2.687    0.248    0.539   90.673
  354.000    2.685    0.305    0.538   88.846
  354.250    2.733    0.320    0.586   88.843
  354.500    2.940    0.326    0.597   89.446
  354.750    3.051    0.342    0.566   87.013
  355.000    3.472    0.316    0.516   83.972
  355.250    4.178    0.261    0.476   84.575
  355.500    4.499    0.243    0.447   83.357
  355.750    5.216    0.244    0.441   80.316
  356.000    5.720    0.246    0.451   77.275
  356.250    5.931    0.240    0.452   81.522
  356.500    6.038    0.231    0.461   84.554
  356.750    6.147    0.227    0.474   85.766
  357.000    6.141    0.221    0.469   85.761
  357.250    6.252    0.219    0.450   86.364
  357.500    6.018    0.225    0.438   85.752
  357.750    5.793    0.242    0.439   85.748
  358.000    5.373    0.257    0.475   85.137
  358.250    5.269    0.274    0.502   84.526
  358.500    5.265    0.294    0.524   84.521
  358.750    5.360    0.275    0.479   85.125
  359.000    5.555    0.265    0.451   85.728
  359.250    5.657    0.270    0.462   85.117
  359.500    5.549    0.265    0.473   82.076
  359.750    5.442    0.243    0.475   83.286
  360.000    5.338    0.242    0.486   86.319
  360.250    5.235    0.211    0.477   87.529
  360.500    4.854    0.202    0.469   85.096
  360.750    4.502    0.246    0.495   84.484
  361.000    3.947    0.282    0.520   85.694
  361.250    3.731    0.293    0.537   86.906
  361.500    3.397    0.296    0.537   88.722
  361.750    3.092    0.281    0.548   89.934
  362.000    2.977    0.259    0.546   88.714
  362.250    2.974    0.235    0.549   86.889
  362.500    2.971    0.259    0.541   85.063
  362.750    3.025    0.243    0.532   85.665
  363.000    3.137    0.253    0.537   85.662
  363.250    3.135    0.304    0.540   88.693
  363.500    3.191    0.335    0.548   90.511
  363.750    3.248    0.356    0.562   90.508
  364.000    3.431    0.338    0.553   88.074
  364.250    3.693    0.308    0.500   85.034
  364.500    4.125    0.327    0.508   84.422
  364.750    4.280    0.304    0.517   84.418
  365.000    4.606    0.291    0.508   81.984
  365.250    5.145    0.286    0.496   78.945
  365.500    5.437    0.281    0.500   74.689
  365.750    5.961    0.288    0.488   73.471
  366.000    6.183    0.280    0.476   73.467
  366.250    6.410    0.263    0.468   80.142
  366.500    6.528    0.255    0.466   84.387
  366.750    6.521    0.255    0.467   85.600
  367.000    6.518    0.258    0.479   85.596
  367.250    6.158    0.272    0.502   78.911
  367.500    6.153    0.281    0.514   75.263
  367.750    6.148    0.287    0.507   72.223
  368.000    6.617    0.295    0.491   68.576
  368.250    6.992    0.291    0.488   64.928
  368.500    7.958    0.205    0.499   62.495
  368.750    8.252    0.171    0.318   59.455
  369.000    8.399    0.191    0.352   64.914
  369.250    8.235    0.241    0.409   71.591
  369.500    8.078    0.253    0.426   80.696
  369.750    7.924    0.279    0.430   78.262
  370.000    7.771    0.292    0.439   75.830
  370.250    7.763    0.297    0.437   74.610
  370.500    7.903    0.297    0.444   74.607
  370.750    8.045    0.298    0.454   75.210
  371.000    8.188    0.307    0.464   71.562
  371.250    8.181    0.311    0.456   69.737
  371.500    8.329    0.306    0.468   72.160
  371.750    8.324    0.303    0.475   73.979
  372.000    8.008    0.302    0.462   76.404
  372.250    7.856    0.286    0.451   78.829
  372.500    7.705    0.264    0.445   80.646
  372.750    7.557    0.252    0.452   82.464
  373.000    7.412    0.243    0.460   81.852
  373.250    7.268    0.235    0.465   81.240
  373.500    7.128    0.233    0.476   80.630
  373.750    6.989    0.230    0.471   83.055
  374.000    6.985    0.237    0.448   86.087
  374.250    7.108    0.233    0.435   87.298
  374.500    7.237    0.241    0.442   84.864
  374.750    7.369    0.246    0.454   89.111
  375.000    7.639    0.244    0.413   92.751
  375.250    7.779    0.244    0.409   92.747
  375.500    7.918    0.246    0.414   88.491
  375.750    7.912    0.249    0.418   86.058
  376.000    7.337    0.257    0.437   86.661
  376.250    6.435    0.273    0.452   83.620
  376.500    5.859    0.273    0.463   81.794
  376.750    5.534    0.245    0.481   83.006
  377.000    5.427    0.238    0.486   87.252
  377.250    5.323    0.233    0.471   89.070
  377.500    5.030    0.262    0.477   88.458
  377.750    4.412    0.311    0.529   85.418
  378.000    4.092    0.376    0.570   86.022
  378.250    4.013    0.427    0.600   84.802
  378.500    4.163    0.348    0.476   79.940
  378.750    4.826    0.299    0.444   75.077
  379.000    5.392    0.280    0.418   71.430
  379.250    6.024    0.277    0.423   70.819
  379.500    6.731    0.281    0.432   74.458
  379.750    7.113    0.284    0.425   78.705
  380.000    6.597    0.284    0.432   81.129
  380.250    4.295    0.306    0.482   82.340
  380.500    2.849    0.333    0.517   82.944
  380.750    2.408    0.338    0.568   82.940
  381.000    2.318    0.346    0.570   82.935
  381.250    2.316    0.373    0.560   82.324
  381.500    2.446    0.383    0.573   81.105
  381.750    2.682    0.355    0.559   78.065
  382.000    3.053    0.341    0.505   73.810
  382.250    3.412    0.307    0.480   72.591
  382.500    3.957    0.282    0.469   68.943
  382.750    4.762    0.311    0.456   65.295
  383.000    5.730    0.328    0.441   62.255
  383.250    6.169    0.338    0.441   58.608
  383.500    6.396    0.329    0.441   56.782
  383.750    6.511    0.323    0.437   56.170
  384.000    6.507    0.320    0.433   61.023
  384.250    6.381    0.318    0.450   60.413
  384.500    6.258    0.320    0.462   60.408
  384.750    6.137    0.321    0.454   64.048
  385.000    6.131    0.323    0.450   67.080
  385.250    6.127    0.324    0.457   67.683
