~VERSION INFORMATION
 VERS.                 2.0:   CWLS LOG ASCII STANDARD -VERSION 2.0
 WRAP.                  NO:   ONE LINE PER DEPTH STEP
~WELL INFORMATION BLOCK
#MNEM.UNIT           DATA                    DESCRIPTION OF MNEMONIC
#---------    -------------------            -------------------------------
# Generated from Intellog Unique Number	CS_73_76/WELL/2183
WELL.         AMOCO KIRBY 10-2               : Well_name    - WELL
LOC .         00/10-02-074-05W4/0            : Location     - LOCATION
UWI .         00/10-02-074-05W4/0            : Uwi          - UNIQUE WELL ID
ENTR.         SP                             : Entered      - ENTERED BY
SRVC.         SCHLUMBERGER                   : Scn          - SERVICE COMPANY
STRT.M        240                            : top_depth    - START DEPTH
STOP.M        465                            : bot_depth    - STOP DEPTH
STEP.M        0.25                           : increment    - STEP LENGTH
 NULL. -999.2500:NULL Value
~CURVE INFORMATION BLOCK
#MNEM UNIT       ERCB CURVE CODE    CURVE DESCRIPTION
#-----------   ------------------   ----------------------------------
DEPT.M        00 001 00 00         : DEPTH        - DEPTH
ILD .OHMM     00 120 00 00         : RESD         - DEEP RESISTIVITY (DIL)
DPHI.V/V      00 890 00 00         : PHID         - DENSITY POROSITY (LIMESTONE)
NPHI.V/V      00 330 00 00         : PHIN         - NEUTRON POROSITY (LIMESTONE)
GR  .API      00 310 00 00         : GR           - GAMMA RAY
~PARAMETER INFORMATION
#MNEM.UNIT           DATA             DESCRIPTION OF MNEMONIC
#---------         -----------     ------------------------------
GL  .M        631.5                : gl           - GROUND LEVEL ELEVATION
EREF.M        635                  : kb           - ELEVATION OF DEPTH REFERENCE
DATM.M        631.5                : datum        - DATUM ELEVATION
TDD .M        472                  : tdd          - TOTAL DEPTH DRILLER
RUN .         ONE                  : Run          - RUN NUMBER
ENG .         BILL                 : Engineer     - RECORDING ENGINEER
WIT .         JIM                  : Witness      - WITNESSED BY
MUD .         GEL                  : Mud_type     - MUD TYPE
MATR.         LIMESTONE            : Logunit      - NEUTRON MATRIX
TMAX.C        34                   : BHT          - MAXIMUM RECORDED TEMPERATURE
BHTD.M        472                  : BHTDEP       - MAXIMUM RECORDED TEMPERATURE
MATR.         1                    : LOGUNIT      - NEUTRON MATRIX
RMT .C        25                   : MDTP         - TEMPERATURE OF MUD
NEUT.         1                    : NEUTRON      - NEUTRON TYPE
RESI.         0                    : RESIST       - RESISTIVITY TYPE
RMC .OHMM     0.25                 : RMC          - RESISTIVITY OF MUD CAKE
RMF .OHMM     0.25                 : RMF          - RESISTIVITY OF MUD FILTRATE
SUFT.C        15                   : SUFT         - SURFACE TEMPERATURE
~A  DEPTH     RESD     PHID     PHIN       GR
# ...
  327.000    2.963    0.264    0.434   77.795
  327.250    2.964    0.256    0.404   77.800
  327.500    3.021    0.251    0.418   78.427
  327.750    3.080    0.248    0.425   75.967
  328.000    3.080    0.249    0.396   75.978
  328.250    3.140    0.257    0.384   78.458
  328.500    3.140    0.267    0.413   80.316
  328.750    3.083    0.267    0.438   82.175
  329.000    3.083    0.258    0.462   84.036
  329.250    3.084    0.250    0.414   82.193
  329.500    3.143    0.248    0.460   85.290
  329.750    3.144    0.253    0.507   89.619
  330.000    3.145    0.253    0.446   94.565
  330.250    3.146    0.244    0.416   92.723
  330.500    3.147    0.235    0.414   90.881
  330.750    3.089    0.231    0.416   92.122
  331.000    3.089    0.250    0.443   92.748
  331.250    3.209    0.254    0.543   88.438
  331.500    3.333    0.230    0.477   83.507
  331.750    3.528    0.219    0.456   83.517
  332.000    3.735    0.216    0.472   87.231
  332.250    3.807    0.220    0.420   89.709
  332.500    3.880    0.225    0.431   89.715
  332.750    3.955    0.230    0.444   87.256
  333.000    3.956    0.227    0.419   88.501
  333.250    3.957    0.216    0.416   89.746
  333.500    3.958    0.210    0.362   90.368
  333.750    3.959    0.211    0.406   92.850
  334.000    3.960    0.210    0.427   94.708
  334.250    3.887    0.208    0.443   94.718
  334.500    3.815    0.212    0.463   91.639
  334.750    3.675    0.218    0.480   92.885
  335.000    3.539    0.224    0.441   94.747
  335.250    3.346    0.234    0.455   95.369
  335.500    3.284    0.243    0.471   98.465
  335.750    3.163    0.249    0.444   98.473
  336.000    3.047    0.252    0.451   97.868
  336.250    2.935    0.239    0.424   99.108
  336.500    2.880    0.234    0.466   97.266
  336.750    2.774    0.220    0.577   96.659
  337.000    2.672    0.209    0.586   98.521
  337.250    2.623    0.199    0.553   98.528
  337.500    2.526    0.202    0.491   97.919
  337.750    2.527    0.212    0.476   97.928
  338.000    2.480    0.223    0.508  101.642
  338.250    2.481    0.230    0.515  102.266
  338.500    2.529    0.242    0.475  101.043
  338.750    2.530    0.254    0.470  101.049
  339.000    2.627    0.272    0.459   99.823
  339.250    2.729    0.267    0.439   94.896
  339.500    2.835    0.253    0.443   93.052
  339.750    2.944    0.243    0.438   89.358
  340.000    3.001    0.252    0.450   85.046
  340.250    3.002    0.262    0.473   80.735
  340.500    2.892    0.268    0.479   79.507
  340.750    2.785    0.272    0.495   81.985
  341.000    2.786    0.272    0.451   83.230
  341.250    2.787    0.262    0.439   87.561
  341.500    2.840    0.258    0.435   85.098
  341.750    2.895    0.254    0.433   80.788
  342.000    2.951    0.253    0.434   77.710
  342.250    3.008    0.254    0.439   75.865
  342.500    2.953    0.254    0.443   75.874
  342.750    2.898    0.265    0.421   80.207
  343.000    2.844    0.278    0.408   78.364
  343.250    2.689    0.286    0.439   73.434
  343.500    2.590    0.296    0.447   70.972
  343.750    2.590    0.296    0.434   70.981
  344.000    2.591    0.289    0.412   71.610
  344.250    2.691    0.251    0.404   69.764
  344.500    2.796    0.217    0.436   72.861
  344.750    2.904    0.240    0.462   74.720
  345.000    2.905    0.269    0.417   77.200
  345.250    2.905    0.272    0.384   78.443
  345.500    2.852    0.250    0.411   74.748
  345.750    2.695    0.276    0.428   69.203
  346.000    2.596    0.296    0.405   67.357
  346.250    2.500    0.315    0.405   69.219
  346.500    2.408    0.309    0.411   71.079
  346.750    2.409    0.304    0.426   71.087
  347.000    2.456    0.297    0.447   69.244
  347.250    2.599    0.283    0.464   71.106
  347.500    2.751    0.262    0.445   71.731
  347.750    2.858    0.237    0.434   71.744
  348.000    2.859    0.241    0.443   71.749
  348.250    2.859    0.256    0.419   73.610
  348.500    2.807    0.270    0.415   76.090
  348.750    2.807    0.264    0.431   76.715
  349.000    2.808    0.239    0.425   77.957
  349.250    2.917    0.226    0.404   82.291
  349.500    3.030    0.218    0.388   84.766
  349.750    3.088    0.223    0.392   88.479
  350.000    3.332    0.229    0.415   87.870
  350.250    3.396    0.232    0.434   87.261
  350.500    3.527    0.237    0.453   83.567
  350.750    3.595    0.248    0.431   88.518
  351.000    3.596    0.250    0.411   89.758
  351.250    3.463    0.229    0.395   86.682
  351.500    3.336    0.219    0.436   85.455
  351.750    3.213    0.207    0.467   84.231
  352.000    3.095    0.210    0.487   83.004
  352.250    2.817    0.226    0.469   85.482
  352.500    2.713    0.252    0.514   87.962
  352.750    2.565    0.250    0.499   89.205
  353.000    2.470    0.251    0.469   90.447
  353.250    2.425    0.255    0.481   92.925
  353.500    2.380    0.257    0.512   92.317
  353.750    2.336    0.258    0.494   88.621
  354.000    2.336    0.243    0.474   89.248
  354.250    2.294    0.231    0.460   92.346
  354.500    2.294    0.232    0.496   95.439
  354.750    2.252    0.242    0.546   98.534
  355.000    2.169    0.251    0.569   99.160
  355.250    2.129    0.251    0.598   93.613
  355.500    2.170    0.251    0.491   87.450
  355.750    2.297    0.250    0.408   81.287
  356.000    2.672    0.264    0.414   76.974
  356.250    2.828    0.295    0.424   72.046
  356.500    3.353    0.317    0.338   68.968
  356.750    3.616    0.333    0.326   65.890
  357.000    3.975    0.344    0.330   63.428
  357.250    4.370    0.348    0.332   59.736
  357.500    4.714    0.333    0.318   57.273
  357.750    4.990    0.290    0.306   54.196
  358.000    4.897    0.189    0.284   52.971
  358.250    4.717    0.153    0.261   56.065
  358.500    4.213    0.187    0.275   59.163
  358.750    3.835    0.236    0.300   61.639
  359.000    3.557    0.272    0.323   60.414
  359.250    3.237    0.218    0.330   59.806
  359.500    2.891    0.185    0.339   61.666
  359.750    2.682    0.263    0.355   62.291
  360.000    2.583    0.309    0.350   60.450
  360.250    2.683    0.327    0.326   61.076
  360.500    3.180    0.297    0.345   59.231
  360.750    3.842    0.250    0.325   52.451
  361.000    4.641    0.197    0.274   45.053
  361.250    5.199    0.096    0.251   49.383
  361.500    5.715    0.036    0.287   54.330
  361.750    5.937    0.108    0.331   59.277
  362.000    5.611    0.187    0.373   61.139
  362.250    4.149    0.260    0.418   61.765
  362.500    3.187    0.279    0.438   63.008
  362.750    2.846    0.289    0.415   65.484
  363.000    2.542    0.285    0.400   66.728
  363.250    2.403    0.268    0.372   64.268
  363.500    2.314    0.260    0.410   64.279
  363.750    2.359    0.258    0.432   68.608
  364.000    2.405    0.255    0.409   75.407
  364.250    2.498    0.253    0.410   82.822
  364.500    2.644    0.250    0.432   82.834
  364.750    2.746    0.251    0.410   79.755
  365.000    2.853    0.257    0.395   75.443
  365.250    2.853    0.261    0.407   72.364
  365.500    2.801    0.273    0.431   76.694
  365.750    2.598    0.288    0.445   74.236
  366.000    2.409    0.297    0.428   71.774
  366.250    2.278    0.292    0.375   69.314
  366.500    2.235    0.245    0.348   66.237
  366.750    2.236    0.222    0.416   63.159
  367.000    2.322    0.234    0.424   70.577
  367.250    2.459    0.240    0.410   76.758
  367.500    2.554    0.243    0.452   79.851
  367.750    2.755    0.232    0.458   80.478
  368.000    2.861    0.221    0.433   80.489
  368.250    2.862    0.213    0.424   79.878
  368.500    2.605    0.222    0.442   78.654
  368.750    2.462    0.251    0.503   75.575
  369.000    2.284    0.267    0.551   78.054
  369.250    2.158    0.278    0.552   79.915
  369.500    2.079    0.269    0.522   78.073
  369.750    2.002    0.270    0.507   77.464
  370.000    2.003    0.280    0.557   77.472
  370.250    2.003    0.284    0.581   76.245
