~VERSION INFORMATION
 VERS.                 2.0:   CWLS LOG ASCII STANDARD -VERSION 2.0
 WRAP.                  NO:   ONE LINE PER DEPTH STEP
~WELL INFORMATION BLOCK
#MNEM.UNIT           DATA                    DESCRIPTION OF MNEMONIC
#---------    -------------------            -------------------------------
# Generated from Intellog Unique Number	CN_94_101/WELL/4987
WELL.         06-35-101-14W4                 : Well_name    - WELL
LOC .         AA/06-35-101-14W4/0            : Location     - LOCATION
UWI .         AA/06-35-101-14W400            : Uwi          - UNIQUE WELL ID
ENTR.         TIM                            : Entered      - ENTERED BY
SRVC.         SCHLUMBERGER                   : Scn          - SERVICE COMPANY
DATE.         08/13/92                       : Date         - LOG DATE
STRT.M        370                            : top_depth    - START DEPTH
STOP.M        585                            : bot_depth    - STOP DEPTH
STEP.M        0.25                           : increment    - STEP LENGTH
NULL. -999.2500:NULL Value
~CURVE INFORMATION BLOCK
#MNEM UNIT       ERCB CURVE CODE    CURVE DESCRIPTION
#-----------   ------------------   ----------------------------------
DEPT.M        00 001 00 00         : DEPTH        - DEPTH
GR  .API      00 310 00 00         : GR           - GAMMA RAY
ILD .OHMM     00 120 00 00         : RESD         - DEEP RESISTIVITY (DIL)
NPHI.V/V      00 330 00 00         : PHIN         - NEUTRON POROSITY (SANDSTONE)
DPHI.V/V      00 890 00 00         : PHID         - DENSITY POROSITY (SANDSTONE)
~PARAMETER INFORMATION
#MNEM.UNIT           DATA             DESCRIPTION OF MNEMONIC
#---------         -----------     ------------------------------
GL  .M        788.2                : gl           - GROUND LEVEL ELEVATION
EREF.M        791.46               : kb           - ELEVATION OF DEPTH REFERENCE
DATM.M        791.46               : datum        - DATUM ELEVATION
TDD .M        586                  : tdd          - TOTAL DEPTH DRILLER
RUN .         ONE                  : Run          - RUN NUMBER
ENG .         JO                   : Engineer     - RECORDING ENGINEER
WIT .         TIM                  : Witness      - WITNESSED BY
MUD .         GEL                  : Mud_type     - MUD TYPE
MATR.         SANDSTONE            : Logunit      - NEUTRON MATRIX
TMAX.C        29.5                 : BHT          - MAXIMUM RECORDED TEMPERATURE
BHTD.M        586                  : BHTDEP       - MAXIMUM RECORDED TEMPERATURE
RMT .C        10                   : MDTP         - TEMPERATURE OF MUD
MUDD.KG/M     1120                 : MWT          - MUD DENSITY
NEUT.         1                    : NEUTRON      - NEUTRON TYPE
RESI.         0                    : RESIST       - RESISTIVITY TYPE
RM  .OHMM     7.52                 : RM           - RESISTIVITY OF MUD
RMC .OHMM     7.52                 : RMC          - RESISTIVITY OF MUD CAKE
RMF .OHMM     7.52                 : RMF          - RESISTIVITY OF MUD FILTRATE
SUFT.C        4                    : SUFT         - SURFACE TEMPERATURE
~A  DEPTH       GR     RESD     PHIN     PHID
  370.000  128.646    6.888    0.585    0.248
  370.250  133.081    6.286    0.579    0.249
  370.500  135.636    6.087    0.590    0.253
  370.750  133.223    5.694    0.597    0.255
  371.000  129.586    6.134    0.606    0.256
  371.250  127.776    6.560    0.597    0.258
  371.500  124.742    7.418    0.579    0.256
  371.750  122.346    7.645    0.522    0.256
  372.000  121.814    7.038    0.512    0.252
  372.250  121.867    6.223    0.505    0.250
  372.500  121.299    6.242    0.497    0.248
  372.750  119.507    7.100    0.504    0.244
  373.000  117.750    7.540    0.515    0.243
  373.250  116.561    7.763    0.531    0.243
  373.500  115.372    7.985    0.535    0.243
  373.750  113.598    8.009    0.506    0.243
  374.000  113.048    7.819    0.493    0.240
  374.250  113.119    7.630    0.476    0.237
  374.500  113.189    7.648    0.462    0.236
  374.750  113.863    7.672    0.453    0.238
  375.000  114.591    7.686    0.458    0.234
  375.250  115.247    7.909    0.464    0.238
  375.500  117.181    8.150    0.470    0.245
  375.750  116.009    7.956    0.464    0.250
  376.000  115.459    7.558    0.454    0.251
  376.250  116.772    7.363    0.445    0.250
  376.500  119.948    6.975    0.452    0.248
  376.750  125.642    6.776    0.470    0.249
  377.000  125.075    6.392    0.489    0.251
  377.250  123.282    6.193    0.509    0.253
  377.500  120.887    6.003    0.523    0.253
  377.750  117.853    5.809    0.500    0.254
  378.000  114.198    5.629    0.501    0.256
  378.250  111.749    5.430    0.519    0.261
  378.500  106.853    5.449    0.531    0.264
  378.750   98.851    6.510    0.547    0.273
  379.000   89.607   11.123    0.526    0.300
  379.250   85.934   11.976    0.498    0.314
  379.500   82.279   11.990    0.484    0.332
  379.750   87.335   11.592    0.472    0.334
  380.000   93.616   10.791    0.466    0.324
  380.250  101.759   10.389    0.466    0.315
  380.500  108.678   10.190    0.461    0.311
  380.750  111.251    9.792    0.457    0.309
  381.000  111.942    9.398    0.467    0.295
  381.250  109.512    9.000    0.471    0.272
  381.500  108.979    8.607    0.462    0.246
  381.750  111.534    8.408    0.443    0.231
  382.000  109.103    8.218    0.452    0.185
  382.250  104.845    8.237    0.466    0.291
  382.500  102.414    8.048    0.471    0.254
  382.750  107.452    7.863    0.470    0.244
  383.000  109.404    7.669    0.470    0.253
  383.250  110.078    6.858    0.467    0.269
  383.500  112.668    6.048    0.468    0.276
  383.750  112.118    5.849    0.502    0.266
  384.000  109.722    5.243    0.533    0.258
  384.250  109.137    5.266    0.538    0.260
  384.500  110.449    5.498    0.497    0.262
  384.750  113.004    5.929    0.466    0.263
  385.000  114.938    6.360    0.478    0.258
  385.250  115.630    6.393    0.497    0.253
  385.500  116.942    6.199    0.509    0.247
  385.750  117.634    6.005    0.512    0.242
  386.000  117.705    5.810    0.502    0.245
  386.250  117.793    6.042    0.485    0.259
  386.500  119.106    6.279    0.464    0.272
  386.750  121.678    6.293    0.465    0.273
  387.000  122.991    6.104    0.466    0.256
  387.250  123.683    5.919    0.467    0.258
  387.500  117.526    5.720    0.477    0.254
  387.750  110.749    5.530    0.492    0.256
  388.000  112.700    5.132    0.512    0.259
  388.250  117.756    4.943    0.527    0.266
  388.500  117.206    4.753    0.530    0.255
  388.750  114.172    4.360    0.541    0.244
  389.000  112.983    4.374    0.546    0.247
  389.250  112.433    4.402    0.555    0.252
  389.500  112.504    4.620    0.568    0.255
  389.750  113.195    4.857    0.585    0.257
  390.000  116.406    5.079    0.584    0.257
  390.250  117.701    5.093    0.577    0.255
  390.500  120.877    5.534    0.561    0.255
  390.750  124.691    5.548    0.533    0.255
  391.000  122.899    5.571    0.532    0.255
  391.250  117.984    5.387    0.557    0.253
  391.500  113.070    5.401    0.558    0.253
  391.750  108.191    6.462    0.526    0.252
  392.000  106.398    6.694    0.517    0.252
  392.250  108.332    6.713    0.503    0.254
  392.500  111.508    6.727    0.488    0.260
  392.750  112.820    6.333    0.470    0.269
  393.000  111.046    6.144    0.484    0.277
  393.250  110.478    5.954    0.541    0.264
  393.500  110.567    5.760    0.536    0.260
  393.750  114.363    5.367    0.513    0.257
  394.000  118.142    5.381    0.499    0.252
  394.250  121.939    5.191    0.493    0.238
  394.500  127.616    5.210    0.499    0.227
  394.750  130.809    5.234    0.515    0.228
  395.000  130.880    5.252    0.531    0.228
  395.250  129.691    5.267    0.549    0.228
  395.500  128.520    5.295    0.539    0.229
  395.750  127.970    5.309    0.488    0.231
  396.000  128.040    5.532    0.498    0.234
  396.250  128.111    5.555    0.510    0.237
  396.500  126.940    5.787    0.494    0.242
  396.750  127.011    6.019    0.475    0.244
  397.000  127.099    6.237    0.479    0.248
  397.250  127.791    6.260    0.491    0.249
  397.500  128.465    6.066    0.491    0.251
  397.750  129.813    6.090    0.491    0.251
  398.000  129.866    5.900    0.496    0.237
  398.250  129.972    5.497    0.507    0.226
  398.500  130.629    4.266    0.519    0.220
  398.750  131.959    3.872    0.539    0.222
  399.000  132.012    3.887    0.564    0.227
  399.250  132.722    4.114    0.565    0.234
  399.500  133.413    4.341    0.549    0.241
  399.750  133.467    4.568    0.539    0.246
  400.000  132.295    4.796    0.531    0.251
  400.250  131.124    5.028    0.540    0.251
  400.500  128.711    5.260    0.540    0.250
  400.750  125.677    5.269    0.487    0.248
  401.000  123.885    5.501    0.467    0.246
  401.250  123.335    5.529    0.495    0.247
  401.500  122.164    5.543    0.513    0.253
  401.750  120.992    5.349    0.537    0.255
  402.000  117.976    5.349    0.533    0.250
  402.250  116.184    5.188    0.520    0.233
  402.500  115.013    4.577    0.513    0.225
  402.750  115.084    5.017    0.504    0.215
  403.000  115.775    5.026    0.512    0.219
  403.250  116.467    5.258    0.520    0.227
  403.500  117.159    5.282    0.521    0.238
  403.750  117.851    5.291    0.507    0.239
  404.000  119.784    5.310    0.497    0.233
  404.250  119.234    5.334    0.488    0.235
  404.500  117.424    5.561    0.478    0.241
  404.750  115.650    5.580    0.484    0.250
  405.000  119.482    5.599    0.493    0.253
  405.250  120.759    5.618    0.501    0.249
  405.500  123.314    5.637    0.500    0.252
  405.750  124.023    5.660    0.490    0.254
  406.000  122.870    5.267    0.494    0.244
  406.250  122.905    5.276    0.500    0.240
  406.500  122.994    4.878    0.497    0.246
  406.750  123.064    4.485    0.496    0.255
  407.000  122.496    4.499    0.503    0.258
  407.250  121.964    4.736    0.514    0.258
  407.500  123.294    4.954    0.534    0.257
  407.750  123.951    5.816    0.536    0.258
  408.000  124.678    5.830    0.499    0.259
  408.250  123.507    5.849    0.495    0.261
  408.500  121.111    6.076    0.485    0.261
  408.750  119.905    6.099    0.488    0.260
  409.000  122.459    5.910    0.514    0.256
  409.250  128.137    5.919    0.520    0.253
  409.500  130.088    4.896    0.548    0.253
  409.750  131.365    3.669    0.555    0.254
  410.000  133.955    3.475    0.559    0.256
  410.250  135.250    3.915    0.564    0.259
  410.500  136.581    4.138    0.567    0.261
  410.750  138.514    4.161    0.568    0.256
  411.000  141.051    3.768    0.561    0.253
  411.250  137.396    3.365    0.567    0.253
  411.500  133.759    3.171    0.580    0.253
  411.750  131.328    2.981    0.586    0.248
  412.000  130.778    3.005    0.576    0.242
  412.250  132.108    3.024    0.569    0.240
  412.500  132.800    3.042    0.561    0.250
  412.750  131.629    3.061    0.548    0.259
  413.000  131.061    3.090    0.557    0.265
  413.250  129.269    3.108    0.566    0.276
