~VERSION INFORMATION
 VERS.                 2.0:   CWLS LOG ASCII STANDARD -VERSION 2.0
 WRAP.                  NO:   ONE LINE PER DEPTH STEP
~WELL INFORMATION BLOCK
#MNEM.UNIT           DATA                    DESCRIPTION OF MNEMONIC
#---------    -------------------            -------------------------------
# Generated from Intellog Unique Number	CN_94_101/WELL/4990
WELL.         07-29-099-12W4                 : Well_name    - WELL
LOC .         AA/07-29-099-12W4/0            : Location     - LOCATION
UWI .         AA/07-29-099-12W400            : Uwi          - UNIQUE WELL ID
ENTR.         TIM                            : Entered      - ENTERED BY
SRVC.         SCHLUMBERGER                   : Scn          - SERVICE COMPANY
DATE.         08/11/92                       : Date         - LOG DATE
STRT.M        175                            : top_depth    - START DEPTH
STOP.M        395                            : bot_depth    - STOP DEPTH
STEP.M        0.25                           : increment    - STEP LENGTH
 NULL. -999.2500:NULL Value
~CURVE INFORMATION BLOCK
#MNEM UNIT       ERCB CURVE CODE    CURVE DESCRIPTION
#-----------   ------------------   ----------------------------------
DEPT.M        00 001 00 00         : DEPTH        - DEPTH
GR  .API      00 310 00 00         : GR           - GAMMA RAY
ILD .OHMM     00 120 00 00         : RESD         - DEEP RESISTIVITY (DIL)
NPHI.V/V      00 330 00 00         : PHIN         - NEUTRON POROSITY (SANDSTONE)
DPHI.V/V      00 890 00 00         : PHID         - DENSITY POROSITY (SANDSTONE)
~PARAMETER INFORMATION
#MNEM.UNIT           DATA             DESCRIPTION OF MNEMONIC
#---------         -----------     ------------------------------
GL  .M        640.2                : gl           - GROUND LEVEL ELEVATION
EREF.M        646.6                : kb           - ELEVATION OF DEPTH REFERENCE
DATM.M        646.6                : datum        - DATUM ELEVATION
TDD .M        397                  : tdd          - TOTAL DEPTH DRILLER
RUN .         ONE                  : Run          - RUN NUMBER
ENG .         JO                   : Engineer     - RECORDING ENGINEER
WIT .         TIM                  : Witness      - WITNESSED BY
MUD .         GEL                  : Mud_type     - MUD TYPE
MATR.         SANDSTONE            : Logunit      - NEUTRON MATRIX
TMAX.C        40                   : BHT          - MAXIMUM RECORDED TEMPERATURE
BHTD.M        397                  : BHTDEP       - MAXIMUM RECORDED TEMPERATURE
RMT .C        10                   : MDTP         - TEMPERATURE OF MUD
MUDD.KG/M     1050                 : MWT          - MUD DENSITY
NEUT.         1                    : NEUTRON      - NEUTRON TYPE
RESI.         0                    : RESIST       - RESISTIVITY TYPE
RM  .OHMM     0.35                 : RM           - RESISTIVITY OF MUD
RMC .OHMM     0.9                  : RMC          - RESISTIVITY OF MUD CAKE
RMF .OHMM     0.9                  : RMF          - RESISTIVITY OF MUD FILTRATE
SUFT.C        4                    : SUFT         - SURFACE TEMPERATURE
~A  DEPTH       GR     RESD     PHIN     PHID
# ...
  305.500  105.202    2.075    0.583    0.303
  305.750  107.683    2.075    0.584    0.300
  306.000  111.402    2.197    0.556    0.297
  306.250  112.020    2.415    0.552    0.294
  306.500  112.635    2.863    0.549    0.281
  306.750  111.383    3.593    0.535    0.258
  307.000  108.889    4.102    0.470    0.243
  307.250  108.264    4.864    0.460    0.231
  307.500  107.014    5.553    0.467    0.222
  307.750  107.629    5.990    0.468    0.232
  308.000  109.485    6.340    0.464    0.240
  308.250  112.586    6.839    0.453    0.232
  308.500  115.065    6.970    0.440    0.234
  308.750  114.437    7.103    0.441    0.242
  309.000  111.322    7.239    0.436    0.235
  309.250  110.074    7.239    0.431    0.219
  309.500  108.203    7.239    0.433    0.219
  309.750  107.571    7.378    0.438    0.217
  310.000  107.565    7.519    0.448    0.222
  310.250  106.938    7.662    0.446    0.233
  310.500  106.310    7.958    0.428    0.222
  310.750  105.681    8.265    0.412    0.207
  311.000  105.053    8.584    0.399    0.190
  311.250  103.803    8.585    0.394    0.211
  311.500  101.311    8.749    0.420    0.228
  311.750  101.305    8.749    0.426    0.251
  312.000  102.542    8.749    0.435    0.255
  312.250  104.399    8.749    0.442    0.264
  312.500  103.771    8.750    0.436    0.250
  312.750  103.143    8.750    0.424    0.236
  313.000  101.893    8.750    0.426    0.231
  313.250  101.885    8.586    0.435    0.241
  313.500  102.501    8.267    0.447    0.245
  313.750  104.355    8.113    0.455    0.236
  314.000  105.595    7.961    0.448    0.237
  314.250  106.831    7.665    0.439    0.254
  314.500  107.444    7.522    0.439    0.274
  314.750  108.680    7.522    0.453    0.283
  315.000  109.295    7.522    0.457    0.276
  315.250  105.559    7.666    0.444    0.266
  315.500  101.202    7.813    0.426    0.251
  315.750  100.572    7.962    0.415    0.255
  316.000  101.188    7.962    0.413    0.259
  316.250  103.044    7.962    0.419    0.259
  316.500  103.041    8.115    0.420    0.261
  316.750  101.791    8.115    0.423    0.265
  317.000   99.299    8.428    0.427    0.270
  317.250   97.425    9.091    0.429    0.260
  317.500   94.928    9.442    0.423    0.232
  317.750   94.303    9.091    0.416    0.203
  318.000   91.808    8.271    0.391    0.186
  318.250   90.562    7.245    0.348    0.134
  318.500   89.312    6.717    0.347    0.149
  318.750   93.034    6.227    0.398    0.176
  319.000  101.729    5.665    0.435    0.203
  319.250  109.180    5.559    0.463    0.251
  319.500  112.900    5.455    0.472    0.265
  319.750  114.133    5.353    0.464    0.261
  320.000  113.508    5.252    0.444    0.254
  320.250  112.260    5.154    0.443    0.241
  320.500  109.764    5.058    0.448    0.208
  320.750  107.894    4.601    0.456    0.183
  321.000  108.509    4.266    0.466    0.157
  321.250  110.988    3.666    0.488    0.208
  321.500  114.089    3.092    0.511    0.280
  321.750  117.813    2.658    0.528    0.304
  322.000  121.535    2.418    0.539    0.312
  322.250  122.770    2.418    0.550    0.309
  322.500  121.520    2.559    0.554    0.302
  322.750  120.270    2.658    0.531    0.299
  323.000  119.644    2.978    0.509    0.292
  323.250  117.769    3.667    0.473    0.282
  323.500  117.144    4.348    0.461    0.272
  323.750  115.271    5.156    0.436    0.261
  324.000  112.777    5.999    0.410    0.248
  324.250  111.530    6.594    0.400    0.236
  324.500  110.900    7.249    0.409    0.232
  324.750  110.893    7.249    0.420    0.219
  325.000  110.887    7.249    0.429    0.209
  325.250  110.258    7.113    0.434    0.177
  325.500  109.009    7.114    0.419    0.154
  325.750  106.514    6.980    0.385    0.123
  326.000  105.266    6.981    0.355    0.080
  326.250  103.395    6.981    0.403    0.207
  326.500  104.009    6.981    0.418    0.222
  326.750  106.489    6.981    0.429    0.222
  327.000  108.346    6.722    0.426    0.222
  327.250  108.340    6.472    0.427    0.221
  327.500  108.334    5.888    0.437    0.216
  327.750  107.705    5.459    0.445    0.210
  328.000  108.942    5.158    0.460    0.209
  328.250  112.665    5.061    0.474    0.211
  328.500  117.008    4.966    0.467    0.219
  328.750  118.245    4.873    0.462    0.228
  329.000  117.616    4.873    0.461    0.239
  329.250  116.986    4.874    0.465    0.250
  329.500  116.980    4.782    0.465    0.254
  329.750  116.974    4.693    0.465    0.253
  330.000  116.968    4.605    0.462    0.253
  330.250  116.961    4.434    0.462    0.244
  330.500  116.333    4.351    0.467    0.228
  330.750  116.326    4.351    0.471    0.212
  331.000  113.830    4.270    0.467    0.204
  331.250  112.582    4.190    0.479    0.196
  331.500  110.085    4.111    0.498    0.181
  331.750  109.459    4.111    0.520    0.254
  332.000  108.831    4.034    0.546    0.291
  332.250  108.824    3.959    0.534    0.284
  332.500  108.815    3.959    0.520    0.273
  332.750  109.433    4.034    0.509    0.257
  333.000  111.291    4.112    0.505    0.248
  333.250  112.526    4.112    0.503    0.244
  333.500  113.142    4.190    0.498    0.239
  333.750  113.132    4.271    0.489    0.233
  334.000  113.127    4.435    0.474    0.221
  334.250  113.122    4.607    0.460    0.216
  334.500  115.599    5.064    0.446    0.214
  334.750  116.216    5.462    0.435    0.206
  335.000  119.315    5.360    0.432    0.214
  335.250  118.686    4.785    0.464    0.237
  335.500  115.572    3.671    0.476    0.263
  335.750  111.215    2.421    0.502    0.287
  336.000  108.724    2.081    0.541    0.309
  336.250  104.988    1.966    0.573    0.315
  336.500  100.631    1.893    0.581    0.306
  336.750   98.138    1.893    0.560    0.310
  337.000   96.888    1.966    0.572    0.314
  337.250   94.394    2.042    0.591    0.316
  337.500   93.145    2.161    0.592    0.310
  337.750   90.651    2.421    0.582    0.302
  338.000   90.023    2.563    0.556    0.293
  338.250   89.394    2.982    0.523    0.281
  338.500   89.389    3.742    0.493    0.268
  338.750   88.761    4.437    0.454    0.263
  339.000   88.131    4.786    0.428    0.257
  339.250   87.501    4.878    0.446    0.251
  339.500   87.498    4.971    0.470    0.223
  339.750   86.869    5.066    0.441    0.210
  340.000   81.889    5.465    0.427    0.200
  340.250   78.153    5.569    0.425    0.247
  340.500   73.176    4.972    0.451    0.271
  340.750   76.898    4.037    0.480    0.283
  341.000   86.214    3.217    0.512    0.286
  341.250   94.908    3.040    0.518    0.283
  341.500  103.602    2.872    0.518    0.281
  341.750  111.052    2.872    0.516    0.272
  342.000  109.179    2.872    0.513    0.276
  342.250  107.929    2.983    0.508    0.277
  342.500  107.303    3.157    0.504    0.273
  342.750  106.674    3.157    0.495    0.267
  343.000  106.666    3.157    0.488    0.258
  343.250  106.038    3.098    0.478    0.257
  343.500  104.166    3.098    0.478    0.260
  343.750  102.918    3.158    0.475    0.260
  344.000  101.667    3.280    0.469    0.249
  344.250   99.796    3.744    0.463    0.244
  344.500   99.169    4.356    0.455    0.244
  344.750   97.294    5.264    0.443    0.242
  345.000   94.183    7.401    0.429    0.197
  345.250   78.639   12.106    0.402    0.214
  345.500   67.445   17.676    0.318    0.250
  345.750   55.008   27.839    0.333    0.348
  346.000   43.193   36.979    0.340    0.338
  346.250   35.728   41.426    0.334    0.333
  346.500   28.263   41.427    0.320    0.319
  346.750   27.014   35.608    0.308    0.311
  347.000   28.250   31.786    0.304    0.310
  347.250   30.108   26.809    0.315    0.310
  347.500   33.208   23.483    0.330    0.311
  347.750   36.309   19.070    0.359    0.313
  348.000   40.653   18.018    0.405    0.314
  348.250   44.996   17.680    0.417    0.311
  348.500   53.069   18.019    0.420    0.308
  348.750   59.899   19.072    0.416    0.306
