~VERSION INFORMATION
 VERS.                 2.0:   CWLS LOG ASCII STANDARD -VERSION 2.0
 WRAP.                  NO:   ONE LINE PER DEPTH STEP
~WELL INFORMATION BLOCK
#MNEM.UNIT           DATA                    DESCRIPTION OF MNEMONIC
#---------    -------------------            -------------------------------
# Generated from Intellog Unique Number	CN_91_93/WELL/2934
WELL.         04-17-092-12W4                 : Well_name    - WELL
LOC .         AA/04-17-092-12W4/0            : Location     - LOCATION
UWI .         AA/04-17-092-12W400            : Uwi          - UNIQUE WELL ID
ENTR.         JOETTE                         : Entered      - ENTERED BY
SRVC.         WESTERN ATLAS                  : Scn          - SERVICE COMPANY
DATE.         03/31/92                       : Date         - LOG DATE
STRT.M        40                             : top_depth    - START DEPTH
STOP.M        130                            : bot_depth    - STOP DEPTH
STEP.M        0.25                           : increment    - STEP LENGTH
 NULL. -999.2500:NULL Value
~CURVE INFORMATION BLOCK
#MNEM UNIT       ERCB CURVE CODE    CURVE DESCRIPTION
#-----------   ------------------   ----------------------------------
DEPT.M        00 001 00 00         : DEPTH        - DEPTH
GR  .API      00 310 00 00         : GR           - GAMMA RAY
NPHI.V/V      00 330 00 00         : PHIN         - NEUTRON POROSITY (SANDSTONE)
DPHI.V/V      00 890 00 00         : PHID         - DENSITY POROSITY (SANDSTONE)
ILD .OHMM     00 120 00 00         : RESD         - DEEP RESISTIVITY (DIL)
~PARAMETER INFORMATION
#MNEM.UNIT           DATA             DESCRIPTION OF MNEMONIC
#---------         -----------     ------------------------------
GL  .M        387.2                : gl           - GROUND LEVEL ELEVATION
EREF.M        397.3                : kb           - ELEVATION OF DEPTH REFERENCE
DATM.M        397.3                : datum        - DATUM ELEVATION
TDD .M        138.5                : tdd          - TOTAL DEPTH DRILLER
RUN .         ONE                  : Run          - RUN NUMBER
ENG .         JO                   : Engineer     - RECORDING ENGINEER
WIT .         TIM                  : Witness      - WITNESSED BY
MUD .         GEL                  : Mud_type     - MUD TYPE
MATR.         SANDSTONE            : Logunit      - NEUTRON MATRIX
TMAX.C        19                   : BHT          - MAXIMUM RECORDED TEMPERATURE
BHTD.M        138.5                : BHTDEP       - MAXIMUM RECORDED TEMPERATURE
RMT .C        17                   : MDTP         - TEMPERATURE OF MUD
MUDD.KG/M     1060                 : MWT          - MUD DENSITY
NEUT.         1                    : NEUTRON      - NEUTRON TYPE
RESI.         0                    : RESIST       - RESISTIVITY TYPE
RM  .OHMM     1.6                  : RM           - RESISTIVITY OF MUD
RMC .OHMM     1.6                  : RMC          - RESISTIVITY OF MUD CAKE
RMF .OHMM     1.6                  : RMF          - RESISTIVITY OF MUD FILTRATE
SUFT.C        4                    : SUFT         - SURFACE TEMPERATURE
~A  DEPTH       GR     PHIN     PHID     RESD
# ...
   83.500   92.219    0.479    0.259    4.321
   83.750   91.589    0.479    0.246    4.164
   84.000   89.085    0.479    0.227    4.087
   84.250   84.704    0.478    0.226    4.013
   84.500   88.449    0.478    0.236    4.014
   84.750   93.443    0.476    0.247    4.410
   85.000   94.063    0.468    0.242    5.526
   85.250   94.058    0.459    0.213    6.923
   85.500   82.177    0.459    0.181    7.606
   85.750   65.295    0.430    0.153    8.840
   86.000   53.413    0.419    0.191   10.275
   86.250   44.032    0.409    0.221   11.503
   86.500   37.151    0.412    0.247   16.128
   86.750   35.268    0.421    0.285   23.922
   87.000   35.266    0.417    0.289   26.783
   87.250   37.136    0.419    0.283   26.792
   87.500   39.006    0.420    0.280   25.334
   87.750   40.876    0.420    0.282   23.510
   88.000   43.371    0.418    0.285   21.816
   88.250   45.866    0.418    0.290   18.433
   88.500   48.986    0.423    0.295   15.575
   88.750   51.481    0.425    0.296   13.159
   89.000   53.351    0.423    0.295   11.545
   89.250   57.721    0.422    0.295   10.318
   89.500   58.966    0.417    0.290    9.576
   89.750   62.086    0.411    0.282    8.560
   90.000   67.082    0.405    0.256    8.562
   90.250   73.327    0.400    0.233    9.233
   90.500   77.072    0.400    0.232   10.143
   90.750   71.441    0.397    0.238   10.937
   91.000   65.184    0.395    0.241   10.737
   91.250   72.677    0.397    0.235    9.599
   91.500   72.049    0.402    0.233    8.907
   91.750   70.794    0.407    0.232    8.266
   92.000   71.414    0.403    0.231    7.671
   92.250   75.783    0.406    0.228    7.253
   92.500   83.905    0.412    0.217    6.859
   92.750   89.524    0.419    0.208    6.860
   93.000   88.894    0.424    0.192    6.993
   93.250   86.389    0.412    0.192    7.128
   93.500   82.009    0.404    0.197    7.131
   93.750   85.129    0.406    0.199    7.132
   94.000   88.249    0.414    0.204    6.744
   94.250   92.618    0.424    0.208    6.621
   94.500   93.863    0.432    0.214    6.500
   94.750   89.484    0.443    0.219    6.381
   95.000   83.853    0.444    0.219    6.383
   95.250   86.972    0.444    0.215    6.267
   95.500   90.093    0.448    0.215    6.269
   95.750   91.963    0.450    0.215    6.155
   96.000   91.957    0.457    0.215    6.043
   96.250   91.326    0.465    0.216    6.044
   96.500   91.945    0.472    0.223    6.046
   96.750   91.317    0.481    0.237    6.162
   97.000   88.810    0.492    0.248    6.165
   97.250   88.180    0.512    0.245    6.284
   97.500   83.801    0.501    0.224    6.526
   97.750   82.544    0.482    0.205    6.528
   98.000   90.665    0.475    0.231    6.290
   98.250   91.283    0.483    0.247    6.292
   98.500   85.654    0.484    0.255    6.413
   98.750   53.771    0.480    0.253    6.914
   99.000   43.765    0.466    0.261    8.037
   99.250   40.009    0.441    0.273    8.505
   99.500   37.504    0.408    0.280    9.000
   99.750   37.498    0.384    0.279    9.003
  100.000   37.493    0.383    0.278    9.176
  100.250   36.863    0.379    0.275    9.530
  100.500   34.983    0.372    0.267   10.669
  100.750   33.102    0.364    0.264   13.366
  101.000   29.345    0.359    0.264   15.830
  101.250   28.716    0.362    0.265   18.399
  101.500   28.710    0.363    0.264   19.111
  101.750   31.205    0.366    0.264   18.759
  102.000   29.948    0.373    0.267   18.418
  102.250   28.069    0.377    0.268   17.416
  102.500   26.190    0.372    0.268   16.161
  102.750   33.684    0.373    0.267   15.572
  103.000   39.303    0.379    0.268   15.576
  103.250   39.298    0.385    0.270   15.008
  103.500   39.918    0.388    0.271   13.669
  103.750   41.164    0.391    0.274   12.684
  104.000   43.033    0.393    0.271   11.127
  104.250   39.904    0.394    0.262   11.341
  104.500   33.648    0.394    0.255   13.686
  104.750   25.517    0.390    0.255   21.078
  105.000   20.510    0.395    0.263   31.856
  105.250   22.380    0.404    0.273   39.910
  105.500   23.625    0.404    0.284   46.387
  105.750   21.121    0.400    0.287   47.285
  106.000   16.115    0.394    0.294   46.421
  106.250   14.860    0.392    0.296   44.726
  106.500   12.979    0.390    0.296   41.507
  106.750   12.974    0.386    0.290   39.248
  107.000   14.218    0.384    0.279   37.112
  107.250   15.463    0.384    0.272   35.755
  107.500   16.708    0.384    0.270   33.809
  107.750   19.204    0.382    0.275   32.575
  108.000   21.699    0.381    0.279   30.805
  108.250   26.069    0.379    0.283   29.680
  108.500   30.438    0.379    0.281   29.138
  108.750   33.560    0.384    0.272   29.699
  109.000   41.055    0.401    0.262   31.428
  109.250   47.926    0.417    0.270   34.527
  109.500   45.417    0.426    0.286   38.653
  109.750   41.662    0.428    0.278   42.471
  110.000   37.908    0.422    0.281   44.109
  110.250   34.152    0.423    0.291   44.959
  110.500   33.522    0.421    0.293   41.719
  110.750   35.392    0.424    0.299   35.252
  111.000   37.887    0.428    0.312   30.922
  111.250   40.382    0.425    0.304   26.127
  111.500   42.251    0.420    0.292   21.264
  111.750   44.746    0.428    0.282   19.365
  112.000   47.241    0.422    0.276   16.362
  112.250   48.486    0.417    0.281   14.356
  112.500   49.105    0.419    0.287   14.091
  112.750   50.350    0.419    0.283   13.577
  113.000   49.720    0.423    0.276   14.917
  113.250   47.216    0.429    0.281   18.688
  113.500   42.210    0.433    0.292   20.922
  113.750   42.829    0.419    0.302   23.421
  114.000   44.074    0.414    0.293   23.431
  114.250   44.695    0.418    0.282   23.440
  114.500   45.315    0.424    0.272   23.444
  114.750   44.060    0.435    0.271   24.348
  115.000   44.054    0.433    0.288   25.289
  115.250   45.299    0.421    0.304   26.762
  115.500   44.041    0.416    0.305   29.960
  115.750   44.661    0.414    0.300   38.970
  116.000   35.907    0.411    0.298   55.675
  116.250   28.401    0.414    0.298   72.419
  116.500   26.520    0.415    0.300   78.087
  116.750   27.764    0.411    0.304   79.591
  117.000   29.009    0.409    0.310   78.144
  117.250   30.255    0.410    0.314   72.519
  117.500   32.125    0.415    0.314   66.042
  117.750   33.370    0.422    0.310   55.801
  118.000   37.739    0.418    0.306   38.358
  118.250   41.484    0.403    0.301   21.052
  118.500   43.980    0.393    0.296   15.894
  118.750   43.975    0.399    0.288   14.207
  119.000   47.719    0.404    0.270   13.947
  119.250   49.590    0.406    0.289   14.216
  119.500   47.082    0.410    0.286   14.221
  119.750   46.455    0.417    0.274   15.627
  120.000   49.575    0.414    0.274   16.228
  120.250   51.445    0.406    0.273   15.345
  120.500   50.814    0.399    0.271   13.715
  120.750   48.934    0.391    0.273   11.162
  121.000   44.552    0.383    0.279    9.792
  121.250   40.797    0.374    0.287    8.752
  121.500   37.041    0.367    0.299    8.432
  121.750   33.909    0.359    0.307    8.278
  122.000   32.654    0.346    0.303    8.438
  122.250   33.899    0.334    0.290    8.929
  122.500   38.895    0.320    0.227   11.187
  122.750   42.639    0.290    0.083   20.017
  123.000   42.633    0.238    0.010   27.032
  123.250   41.380    0.186    0.003   32.623
  123.500   39.500    0.176    0.009   36.521
  123.750   38.244    0.167    0.013   40.121
  124.000   36.989    0.157    0.013   46.633
  124.250   34.482    0.148    0.013   52.209
  124.500   31.978    0.140    0.016   53.211
  124.750   26.972    0.135    0.016   58.466
  125.000   23.217    0.128    0.014   63.037
  125.250   18.211    0.124    0.013   66.708
  125.500   14.456    0.121    0.013   67.999
  125.750   11.324    0.120    0.011   68.021
  126.000   11.944    0.120    0.008   68.043
  126.250   11.940    0.121    0.004   69.359
  126.500   13.185    0.121    0.003   72.028
  126.750   12.555    0.123    0.004   77.672
