~VERSION INFORMATION
 VERS.                 2.0:   CWLS LOG ASCII STANDARD -VERSION 2.0
 WRAP.                  NO:   ONE LINE PER DEPTH STEP
~WELL INFORMATION BLOCK
#MNEM.UNIT           DATA                    DESCRIPTION OF MNEMONIC
#---------    -------------------            -------------------------------
# Generated from Intellog Unique Number	CX_WELLS/WELL/1149
WELL.         09-28-090-10W4                 : Well_name    - WELL
LOC .         AA/09-28-090-10W4/0            : Location     - LOCATION
UWI .         AA/09-28-090-10W400            : Uwi          - UNIQUE WELL ID
ENTR.         DW                             : Entered      - ENTERED BY
SRVC.         SCHLUMBERGER                   : Scn          - SERVICE COMPANY
STRT.M        10                             : top_depth    - START DEPTH
STOP.M        109.75                         : bot_depth    - STOP DEPTH
STEP.M        0.25                           : increment    - STEP LENGTH
 NULL. -999.2500:NULL Value
~CURVE INFORMATION BLOCK
#MNEM UNIT       ERCB CURVE CODE    CURVE DESCRIPTION
#-----------   ------------------   ----------------------------------
DEPT.M        00 001 00 00         : DEPTH        - DEPTH
GR  .API      00 310 00 00         : GR           - GAMMA RAY
DPHI.V/V      00 890 00 00         : PHID         - DENSITY POROSITY (SANDSTONE)
NPHI.V/V      00 330 00 00         : PHIN         - NEUTRON POROSITY (SANDSTONE)
ILD .OHMM     00 120 00 00         : RESD         - DEEP RESISTIVITY (DIL)
~PARAMETER INFORMATION
#MNEM.UNIT           DATA             DESCRIPTION OF MNEMONIC
#---------         -----------     ------------------------------
GL  .M        350.83               : gl           - GROUND LEVEL ELEVATION
EREF.M        10                   : kb           - ELEVATION OF DEPTH REFERENCE
DATM.M        350.83               : datum        - DATUM ELEVATION
TDD .M        115                  : tdd          - TOTAL DEPTH DRILLER
RUN .         ONE                  : Run          - RUN NUMBER
ENG .         BILL                 : Engineer     - RECORDING ENGINEER
WIT .         JIM                  : Witness      - WITNESSED BY
MUD .         GEL                  : Mud_type     - MUD TYPE
MATR.         SANDSTONE            : Logunit      - NEUTRON MATRIX
TMAX.C        5.5                  : BHT          - MAXIMUM RECORDED TEMPERATURE
BHTD.M        115                  : BHTDEP       - MAXIMUM RECORDED TEMPERATURE
MATR.         1                    : LOGUNIT      - NEUTRON MATRIX
RMT .C        25                   : MDTP         - TEMPERATURE OF MUD
NEUT.         1                    : NEUTRON      - NEUTRON TYPE
RESI.         0                    : RESIST       - RESISTIVITY TYPE
RMC .OHMM     0.25                 : RMC          - RESISTIVITY OF MUD CAKE
RMF .OHMM     0.25                 : RMF          - RESISTIVITY OF MUD FILTRATE
SUFT.C        4                    : SUFT         - SURFACE TEMPERATURE
~A  DEPTH       GR     PHID     PHIN     RESD
   10.000   91.300    0.306    0.569    8.864
   10.250   91.978    0.287    0.600    9.562
   10.500  105.270    0.277    0.597    9.149
   10.750  109.079    0.302    0.613    8.882
   11.000  100.193    0.310    0.608    8.988
   11.250   89.543    0.295    0.573    9.386
   11.500   83.838    0.317    0.563   10.139
   11.750   86.129    0.292    0.516   10.446
   12.000   99.989    0.271    0.526   10.879
   12.250  115.545    0.272    0.552   11.262
   12.500  109.749    0.240    0.560   10.569
   12.750   88.877    0.188    0.532    8.685
   13.000   84.346    0.201    0.487    8.078
   13.250   89.080    0.249    0.560   11.240
   13.500  106.224    0.273    0.500   12.236
   13.750  115.931    0.281    0.452    9.744
   14.000  111.582    0.291    0.493    7.310
   14.250  105.926    0.304    0.534    6.786
   14.500  108.330    0.321    0.570    6.195
   14.750  118.037    0.333    0.596    4.519
   15.000  119.249    0.332    0.606    3.512
   15.250  116.321    0.336    0.619    3.112
   15.500  113.011    0.347    0.623    2.654
   15.750  107.043    0.349    0.615    2.263
   16.000  107.597    0.352    0.619    2.212
   16.250  126.853    0.376    0.623    2.126
   16.500  130.388    0.369    0.619    1.840
   16.750  126.497    0.364    0.612    1.585
   17.000  118.275    0.320    0.610    1.520
   17.250  104.189    0.254    0.620    1.601
   17.500   98.867    0.278    0.653    1.603
   17.750   99.628    0.301    0.687    1.576
   18.000  106.187    0.312    0.565    3.210
   18.250  109.239    0.295    0.495    4.014
   18.500  107.597    0.267    0.542    3.616
   18.750  105.972    0.264    0.562    3.963
   19.000  104.310    0.283    0.536    4.501
   19.250  103.550    0.292    0.559    3.919
   19.500  103.992    0.272    0.523    6.841
   19.750  106.387    0.250    0.513    8.437
   20.000  113.888    0.240    0.519    7.226
   20.250  122.896    0.239    0.500    6.209
   20.500  123.942    0.241    0.527    5.665
   20.750  118.926    0.237    0.543    5.824
   21.000  112.641    0.240    0.504    6.986
   21.250  108.772    0.143    0.476    8.068
   21.500  106.561    0.076    0.482    9.259
   21.750  103.546    0.146    0.450    8.339
   22.000   97.915    0.198    0.374    9.506
   22.250   93.720    0.218    0.400   27.768
   22.500  115.885    0.226    0.435   29.576
   22.750  121.778    0.229    0.446   18.985
   23.000  100.902    0.232    0.454   10.898
   23.250   97.043    0.244    0.476    8.009
   23.500  121.282    0.262    0.498    8.327
   23.750  123.670    0.261    0.486    7.836
   24.000  122.392    0.256    0.497    7.277
   24.250  112.298    0.257    0.489    6.775
   24.500   99.047    0.258    0.481    6.242
   24.750  100.815    0.257    0.508    6.059
   25.000  116.246    0.256    0.521    6.028
   25.250  132.592    0.236    0.505    5.419
   25.500  137.197    0.187    0.518    5.307
   25.750  138.549    0.178    0.506    3.550
   26.000  124.143    0.207    0.483    7.504
   26.250   98.785    0.226    0.477   14.432
   26.500   95.766    0.235    0.454   11.127
   26.750  100.400    0.233    0.464   10.024
   27.000  114.678    0.243    0.472    8.452
   27.250  129.467    0.246    0.466    7.138
   27.500  133.651    0.233    0.475    7.528
   27.750  125.521    0.217    0.500    7.872
   28.000  115.407    0.211    0.507    6.913
   28.250  120.708    0.224    0.482    6.234
   28.500  134.552    0.227    0.467    5.814
   28.750  137.520    0.219    0.465    5.502
   29.000  130.717    0.221    0.468    6.057
   29.250  123.806    0.197    0.481    7.732
   29.500  115.307    0.136    0.508    8.881
   29.750  104.962    0.171    0.517    7.607
   30.000   91.626    0.216    0.469    5.587
   30.250  102.099    0.240    0.431    5.779
   30.500  116.994    0.258    0.428    8.186
   30.750  113.281    0.277    0.455    9.074
   31.000  110.855    0.296    0.512    6.676
   31.250  107.951    0.292    0.537    5.333
   31.500  113.903    0.255    0.558    2.958
   31.750  120.798    0.231    0.585    1.369
   32.000  122.299    0.223    0.643    1.122
   32.250  121.121    0.213    0.634    0.802
   32.500  119.406    0.202    0.483    1.372
   32.750  116.920    0.175    0.481    4.540
   33.000  113.191    0.183    0.502    7.032
   33.250  115.564    0.208    0.478    7.593
   33.500  121.831    0.219    0.443    8.045
   33.750  122.673    0.223    0.434    8.570
   34.000  116.861    0.214    0.454    7.508
   34.250  110.896    0.174    0.479    6.747
   34.500  106.932    0.196    0.491    6.725
   34.750  105.295    0.228    0.439    7.930
   35.000  102.463    0.270    0.401    9.191
   35.250   98.457    0.333    0.456    9.841
   35.500   97.597    0.348    0.540    8.604
   35.750   96.152    0.342    0.609    1.656
   36.000   92.621    0.332    0.636   -0.136
   36.250   89.441    0.313    0.646    0.438
   36.500   86.813    0.283    0.672    0.110
   36.750   85.314    0.270    0.650    0.199
   37.000   87.005    0.289    0.546    0.193
   37.250   88.590    0.307    0.536    0.251
   37.500   88.240    0.332    0.531    2.936
   37.750   85.274    0.355    0.532    3.485
   38.000   83.047    0.355    0.608    1.965
   38.250   83.474    0.334    0.611    2.785
   38.500   89.389    0.315    0.431    5.354
   38.750  104.830    0.291    0.462    5.902
   39.000   92.834    0.202    0.513    5.819
   39.250   79.887    0.186    0.511    5.919
   39.500   97.404    0.246    0.467    5.644
   39.750  121.268    0.277    0.439    7.078
   40.000  117.659    0.274    0.493    9.694
   40.250  115.232    0.262    0.538    4.446
   40.500  113.009    0.268    0.579    1.758
   40.750  107.162    0.281    0.570    1.712
   41.000   94.778    0.284    0.581    1.717
   41.250   96.182    0.276    0.622    1.951
   41.500  124.358    0.264    0.585    1.879
   41.750  126.513    0.259    0.571    1.590
   42.000  123.814    0.259    0.574    1.266
   42.250  121.524    0.253    0.549    1.333
   42.500  112.717    0.247    0.530    1.511
   42.750  101.608    0.250    0.547    1.466
   43.000   98.325    0.257    0.573    1.414
   43.250  102.845    0.262    0.607    1.246
   43.500  106.007    0.257    0.556    1.337
   43.750  113.196    0.263    0.532    1.713
   44.000  119.816    0.242    0.525    2.516
   44.250  119.927    0.210    0.489    2.937
   44.500  119.802    0.247    0.499    2.035
   44.750  117.557    0.256    0.494    1.661
   45.000  110.817    0.150    0.476    2.191
   45.250  101.245    0.123    0.526    2.607
   45.500   90.028    0.180    0.593    1.799
   45.750   80.049    0.207    0.538    1.122
   46.000   75.263    0.231    0.401    4.295
   46.250   73.998    0.246    0.399   10.995
   46.500   79.655    0.237    0.409   11.081
   46.750   87.556    0.242    0.412    7.192
   47.000   90.630    0.243    0.424    5.896
   47.250   90.279    0.226    0.436    6.944
   47.500   92.459    0.241    0.456    6.791
   47.750   94.821    0.249    0.469    6.823
   48.000   97.589    0.103    0.459    7.296
   48.250   92.874    0.066    0.464    6.857
   48.500   80.649    0.149    0.410    6.810
   48.750   68.877    0.183    0.317    4.725
   49.000   66.413    0.207    0.334    5.318
   49.250   82.290    0.212    0.353   27.369
   49.500  103.197    0.196    0.391   25.885
   49.750  112.404    0.166    0.414   13.758
   50.000  122.974    0.171    0.434    8.350
   50.250  138.717    0.210    0.469    5.934
   50.500  137.291    0.218    0.485    5.529
   50.750  128.250    0.223    0.501    5.733
   51.000  122.706    0.219    0.531    5.383
   51.250  120.117    0.221    0.503    5.021
   51.500  118.215    0.230    0.452    4.950
   51.750  112.660    0.232    0.436    4.968
   52.000  102.622    0.226    0.439    5.126
   52.250  104.195    0.217    0.495    5.286
   52.500  117.617    0.211    0.522    5.378
   52.750  126.768    0.215    0.486    5.400
   53.000  128.621    0.226    0.453    5.334
   53.250  126.224    0.227    0.460    5.244
