~VERSION INFORMATION
 VERS.                 2.0:   CWLS LOG ASCII STANDARD -VERSION 2.0
 WRAP.                  NO:   ONE LINE PER DEPTH STEP
~WELL INFORMATION BLOCK
#MNEM.UNIT           DATA                    DESCRIPTION OF MNEMONIC
#---------    -------------------            -------------------------------
# Generated from Intellog Unique Number	CN_94_101/WELL/4987
WELL.         06-35-101-14W4                 : Well_name    - WELL
LOC .         AA/06-35-101-14W4/0            : Location     - LOCATION
UWI .         AA/06-35-101-14W400            : Uwi          - UNIQUE WELL ID
ENTR.         TIM                            : Entered      - ENTERED BY
SRVC.         SCHLUMBERGER                   : Scn          - SERVICE COMPANY
DATE.         08/13/92                       : Date         - LOG DATE
STRT.M        370                            : top_depth    - START DEPTH
STOP.M        585                            : bot_depth    - STOP DEPTH
STEP.M        0.25                           : increment    - STEP LENGTH
NULL. -999.2500:NULL Value
~CURVE INFORMATION BLOCK
#MNEM UNIT       ERCB CURVE CODE    CURVE DESCRIPTION
#-----------   ------------------   ----------------------------------
DEPT.M        00 001 00 00         : DEPTH        - DEPTH
GR  .API      00 310 00 00         : GR           - GAMMA RAY
ILD .OHMM     00 120 00 00         : RESD         - DEEP RESISTIVITY (DIL)
NPHI.V/V      00 330 00 00         : PHIN         - NEUTRON POROSITY (SANDSTONE)
DPHI.V/V      00 890 00 00         : PHID         - DENSITY POROSITY (SANDSTONE)
~PARAMETER INFORMATION
#MNEM.UNIT           DATA             DESCRIPTION OF MNEMONIC
#---------         -----------     ------------------------------
GL  .M        788.2                : gl           - GROUND LEVEL ELEVATION
EREF.M        791.46               : kb           - ELEVATION OF DEPTH REFERENCE
DATM.M        791.46               : datum        - DATUM ELEVATION
TDD .M        586                  : tdd          - TOTAL DEPTH DRILLER
RUN .         ONE                  : Run          - RUN NUMBER
ENG .         JO                   : Engineer     - RECORDING ENGINEER
WIT .         TIM                  : Witness      - WITNESSED BY
MUD .         GEL                  : Mud_type     - MUD TYPE
MATR.         SANDSTONE            : Logunit      - NEUTRON MATRIX
TMAX.C        29.5                 : BHT          - MAXIMUM RECORDED TEMPERATURE
BHTD.M        586                  : BHTDEP       - MAXIMUM RECORDED TEMPERATURE
RMT .C        10                   : MDTP         - TEMPERATURE OF MUD
MUDD.KG/M     1120                 : MWT          - MUD DENSITY
NEUT.         1                    : NEUTRON      - NEUTRON TYPE
RESI.         0                    : RESIST       - RESISTIVITY TYPE
RM  .OHMM     7.52                 : RM           - RESISTIVITY OF MUD
RMC .OHMM     7.52                 : RMC          - RESISTIVITY OF MUD CAKE
RMF .OHMM     7.52                 : RMF          - RESISTIVITY OF MUD FILTRATE
SUFT.C        4                    : SUFT         - SURFACE TEMPERATURE
~A  DEPTH       GR     RESD     PHIN     PHID
# ...
  413.500  128.098    3.123    0.579    0.285
  413.750  126.927    3.137    0.579    0.281
  414.000  125.152    3.369    0.550    0.274
  414.250  121.515    3.596    0.550    0.264
  414.500  119.066    3.823    0.561    0.253
  414.750  116.032    4.264    0.560    0.238
  415.000  116.103    4.481    0.538    0.202
  415.250  126.109    4.709    0.509    0.191
  415.500  129.924    4.728    0.532    0.218
  415.750  127.528    4.751    0.558    0.245
  416.000  126.339    4.353    0.559    0.262
  416.250  124.547    3.960    0.557    0.263
  416.500  125.239    3.775    0.561    0.260
  416.750  127.173    3.784    0.566    0.258
  417.000  129.106    3.803    0.572    0.259
  417.250  130.419    3.618    0.581    0.260
  417.500  132.370    3.633    0.584    0.257
  417.750  134.925    3.656    0.558    0.255
  418.000  134.996    3.670    0.527    0.247
  418.250  131.944    3.277    0.514    0.253
  418.500  128.324    3.083    0.522    0.265
  418.750  128.360    2.898    0.523    0.272
  419.000  128.431    2.713    0.533    0.278
  419.250  128.519    2.722    0.525    0.281
  419.500  129.193    2.950    0.520    0.283
  419.750  129.264    3.182    0.510    0.282
  420.000  130.577    3.409    0.500    0.278
  420.250  135.030    3.219    0.497    0.280
  420.500  135.100    3.233    0.507    0.284
  420.750  132.670    3.053    0.526    0.282
  421.000  130.877    3.067    0.507    0.267
  421.250  133.450    2.873    0.506    0.256
  421.500  136.004    2.897    0.498    0.245
  421.750  137.956    2.920    0.497    0.244
  422.000  138.009    2.934    0.502    0.246
  422.250  136.855    2.958    0.525    0.251
  422.500  136.270    2.972    0.535    0.259
  422.750  135.099    2.996    0.525    0.270
  423.000  133.928    3.014    0.524    0.272
  423.250  134.016    3.033    0.532    0.269
  423.500  134.708    3.052    0.539    0.265
  423.750  136.038    3.071    0.544    0.260
  424.000  136.730    3.095    0.536    0.255
  424.250  136.783    3.109    0.534    0.252
  424.500  136.854    3.123    0.533    0.248
  424.750  138.166    3.151    0.532    0.241
  425.000  140.118    3.165    0.522    0.236
  425.250  141.413    3.189    0.522    0.234
  425.500  143.364    3.203    0.543    0.240
  425.750  144.056    3.222    0.559    0.249
  426.000  142.264    3.241    0.573    0.260
  426.250  138.591    3.681    0.588    0.266
  426.500  133.091    3.904    0.557    0.272
  426.750  133.162    3.922    0.509    0.279
  427.000  134.457    3.738    0.500    0.286
  427.250  138.253    3.543    0.502    0.282
  427.500  138.945    3.145    0.507    0.275
  427.750  137.809    3.164    0.534    0.257
  428.000  136.620    3.188    0.552    0.262
  428.250  134.190    3.415    0.551    0.267
  428.500  132.397    3.434    0.550    0.273
  428.750  131.865    3.453    0.552    0.277
  429.000  130.694    3.471    0.557    0.275
  429.250  130.144    3.486    0.560    0.266
  429.500  132.077    3.713    0.558    0.253
  429.750  137.116    3.940    0.564    0.244
  430.000  136.583    3.964    0.583    0.232
  430.250  135.394    3.983    0.598    0.209
  430.500  134.223    3.788    0.603    0.207
  430.750  138.020    3.812    0.586    0.211
  431.000  141.816    3.831    0.554    0.216
  431.250  141.905    3.849    0.541    0.221
  431.500  141.958    3.878    0.509    0.223
  431.750  141.425    3.887    0.496    0.224
  432.000  140.875    3.707    0.526    0.222
  432.250  139.704    3.513    0.549    0.223
  432.500  139.775    3.323    0.568    0.229
  432.750  138.604    3.337    0.607    0.236
  433.000  136.847    3.148    0.586    0.245
  433.250  135.640    2.963    0.574    0.254
  433.500  134.469    2.977    0.581    0.263
  433.750  135.782    3.005    0.591    0.272
  434.000  138.337    2.811    0.583    0.274
  434.250  140.891    2.621    0.573    0.273
  434.500  139.099    2.436    0.578    0.276
  434.750  136.704    2.446    0.577    0.282
  435.000  133.670    2.261    0.569    0.284
  435.250  131.860    2.280    0.559    0.289
  435.500  129.447    2.294    0.559    0.295
  435.750  127.051    2.521    0.558    0.297
  436.000  123.379    2.749    0.552    0.293
  436.250  119.085    3.189    0.542    0.290
  436.500  111.083    3.625    0.528    0.283
  436.750  106.825    3.852    0.513    0.282
  437.000  108.138    3.880    0.487    0.282
  437.250  110.054    3.894    0.473    0.279
  437.500  108.883    4.117    0.484    0.274
  437.750  107.090    4.557    0.498    0.271
  438.000  102.832    5.410    0.453    0.274
  438.250  101.643    6.054    0.442    0.277
  438.500  102.974    6.485    0.438    0.283
  438.750  106.149    7.347    0.447    0.292
  439.000  107.462    6.736    0.467    0.295
  439.250  106.291    5.921    0.461    0.284
  439.500  105.758    5.736    0.471    0.271
  439.750  113.263    5.959    0.493    0.248
  440.000  127.013    5.977    0.464    0.255
  440.250  129.567    5.371    0.454    0.264
  440.500  129.638    4.769    0.496    0.266
  440.750  126.604    4.584    0.581    0.266
  441.000  116.118    4.390    0.552    0.265
  441.250  114.965    4.404    0.508    0.265
  441.500  113.758    4.641    0.488    0.266
  441.750  110.760    4.650    0.460    0.268
  442.000  113.279    4.878    0.452    0.270
  442.250  124.580    4.897    0.443    0.268
  442.500  125.858    4.707    0.446    0.265
  442.750  125.928    4.522    0.470    0.265
  443.000  121.652    4.541    0.491    0.270
  443.250  109.960    4.555    0.502    0.271
  443.500  108.133    4.555    0.513    0.276
  443.750  104.460    5.227    0.518    0.288
  444.000   97.700    5.455    0.525    0.307
  444.250   91.561    5.890    0.532    0.319
  444.500   86.061    6.113    0.498    0.301
  444.750   84.251    6.345    0.451    0.299
  445.000   84.340    6.568    0.430    0.334
  445.250   86.291    6.596    0.425    0.339
  445.500   87.586    6.605    0.422    0.332
  445.750   90.779    6.624    0.424    0.323
  446.000   92.678    5.809    0.425    0.314
  446.250   97.734    4.582    0.429    0.307
  446.500  103.393    3.564    0.442    0.301
  446.750  109.053    2.749    0.464    0.296
  447.000  115.351    2.550    0.472    0.290
  447.250  121.010    2.152    0.486    0.283
  447.500  123.583    2.180    0.508    0.282
  447.750  121.808    2.403    0.519    0.279
  448.000  120.619    2.625    0.530    0.275
  448.250  119.431    2.862    0.545    0.270
  448.500  117.674    3.080    0.573    0.265
  448.750  116.467    3.525    0.559    0.268
  449.000  115.935    3.539    0.548    0.277
  449.250  116.006    3.771    0.539    0.282
  449.500  118.542    3.785    0.532    0.281
  449.750  122.978    3.799    0.504    0.276
  450.000  127.395    3.823    0.492    0.272
  450.250  129.950    3.633    0.535    0.273
  450.500  130.642    3.240    0.519    0.278
  450.750  127.608    3.050    0.519    0.284
  451.000  114.638    2.856    0.542    0.270
  451.250  106.619    2.880    0.571    0.255
  451.500  104.206    2.894    0.558    0.242
  451.750  124.786    2.922    0.445    0.254
  452.000  132.344    2.936    0.488    0.268
  452.250  131.155    2.950    0.528    0.279
  452.500  127.517    2.969    0.524    0.279
  452.750  126.311    3.201    0.538    0.272
  453.000  121.432    3.220    0.560    0.264
  453.250  118.380    3.239    0.570    0.260
  453.500  114.122    3.253    0.553    0.258
  453.750  112.312    3.272    0.508    0.257
  454.000  109.934    3.295    0.495    0.265
  454.250  109.366    3.309    0.476    0.268
  454.500  108.798    3.333    0.464    0.272
  454.750  107.006    3.347    0.454    0.270
  455.000  105.232    3.584    0.456    0.265
  455.250  104.043    3.816    0.484    0.258
  455.500  101.630    4.034    0.495    0.257
  455.750   99.217    4.052    0.513    0.276
  456.000  103.013    4.076    0.460    0.289
  456.250  109.915    3.896    0.459    0.309
  456.500  111.866    3.905    0.487    0.304
  456.750  109.488    3.720    0.504    0.289
