~VERSION INFORMATION
 VERS.                 2.0:   CWLS LOG ASCII STANDARD -VERSION 2.0
 WRAP.                  NO:   ONE LINE PER DEPTH STEP
~WELL INFORMATION BLOCK
#MNEM.UNIT           DATA                    DESCRIPTION OF MNEMONIC
#---------    -------------------            -------------------------------
# Generated from Intellog Unique Number	CN_94_101/WELL/3555
NULL.         -999.25                        : NULL VALUE	
WELL.         96-84-0003                     : Well_name    - WELL              
LOC .         05-01-096-11W4                 : Location     - LOCATION          
UWI .         AA/05-01-096-11W400            : Uwi          - UNIQUE WELL ID    
ENTR.         JOETTE                         : Entered      - ENTERED BY        
SRVC.         SCHLUMBERGER                   : Scn          - SERVICE COMPANY   
DATE.         09 MAR 84                      : Date         - LOG DATE          
STRT.M        0                              : top_depth    - START DEPTH       
STOP.M        80                             : bot_depth    - STOP DEPTH        
STEP.M        0.25                           : increment    - STEP LENGTH       
~CURVE INFORMATION BLOCK
#MNEM UNIT       ERCB CURVE CODE    CURVE DESCRIPTION
#-----------   ------------------   ----------------------------------
DEPT.M        00 001 00 00         : DEPTH        - DEPTH                       
GR  .API      00 310 00 00         : GR           - GAMMA RAY                   
ILD .OHMM     00 120 00 00         : RESD         - DEEP RESISTIVITY (DIL)      
NPHI.V/V      00 330 00 00         : PHIN         - NEUTRON POROSITY (SANDSTONE)
DPHI.V/V      00 890 00 00         : PHID         - DENSITY POROSITY (SANDSTONE)
~PARAMETER INFORMATION       
#MNEM.UNIT           DATA             DESCRIPTION OF MNEMONIC
#---------         -----------     ------------------------------
GL  .M        0                    : gl           - GROUND LEVEL ELEVATION      
EREF.M        0                    : kb           - ELEVATION OF DEPTH REFERENCE
DATM.M        0                    : datum        - DATUM ELEVATION             
TDD .M        125                  : tdd          - TOTAL DEPTH DRILLER         
RUN .         ONE                  : Run          - RUN NUMBER                  
ENG .         JO                   : Engineer     - RECORDING ENGINEER          
WIT .         TIM                  : Witness      - WITNESSED BY                
MUD .         GEL                  : Mud_type     - MUD TYPE                    
MATR.         SANDSTONE            : Logunit      - NEUTRON MATRIX              
TMAX.C        7                    : BHT          - MAXIMUM RECORDED TEMPERATURE
BHTD.M        82.25                : BHTDEP       - MAXIMUM RECORDED TEMPERATURE
RMT .C        7                    : MDTP         - TEMPERATURE OF MUD          
MUDD.KG/M     1080                 : MWT          - MUD DENSITY                 
NEUT.         1                    : NEUTRON      - NEUTRON TYPE                
RESI.         0                    : RESIST       - RESISTIVITY TYPE            
RM  .OHMM     13                   : RM           - RESISTIVITY OF MUD          
RMC .OHMM     13                   : RMC          - RESISTIVITY OF MUD CAKE     
RMF .OHMM     13                   : RMF          - RESISTIVITY OF MUD FILTRATE 
SUFT.C        4                    : SUFT         - SURFACE TEMPERATURE         
~A  DEPTH       GR     RESD     PHIN     PHID
# ...
   43.500   65.320   31.898    0.356    0.193
   43.750   66.096   31.457    0.327    0.200
   44.000   66.289   32.834    0.355    0.212
   44.250   64.535   38.392    0.359    0.252
   44.500   61.575   42.467    0.371    0.282
   44.750   56.707   40.325    0.386    0.294
   45.000   31.867   59.170    0.390    0.287
   45.250   33.267   66.700    0.378    0.281
   45.500   41.596   70.950    0.380    0.282
   45.750   36.728   79.980    0.409    0.284
   46.000   41.242   93.518    0.405    0.307
   46.250   33.883  132.289    0.389    0.310
   46.500   43.419  735.381    0.414    0.319
   46.750   49.218  894.141    0.382    0.322
   47.000   56.300  989.040    0.378    0.317
   47.250   24.570  606.257    0.410    0.318
   47.500   27.800  576.405    0.441    0.320
   47.750   39.828  515.838    0.435    0.301
   48.000   29.977 1242.550    0.411    0.304
   48.250   20.126 1599.030    0.410    0.308
   48.500   14.050 1330.040    0.408    0.312
   48.750   15.450 1917.400    0.386    0.296
   49.000   13.151 1449.070    0.364    0.289
   49.250   13.305 1137.360    0.387    0.300
   49.500   15.328 1436.240    0.399    0.310
   49.750   15.482 2236.080    0.410    0.321
   50.000   16.881 1788.610    0.417    0.329
   50.250   22.057 1666.570    0.399    0.321
   50.500   21.549  828.579    0.411    0.327
   50.750   18.627 1218.830    0.428    0.330
   51.000   20.650 1539.120    0.394    0.316
   51.250   20.804 1765.910    0.399    0.306
   51.500   15.936 1386.050    0.381    0.296
   51.750   17.336 1622.700    0.394    0.305
   52.000   20.604 1348.030    0.402    0.301
   52.250   20.135  980.940    0.329    0.295
   52.500   22.781  579.690    0.313    0.296
   52.750   16.706  216.723    0.346    0.301
   53.000   21.259  977.143    0.372    0.304
   53.250   21.412 1080.850    0.372    0.300
   53.500   14.676  615.014    0.385    0.296
   53.750   16.698  955.118    0.381    0.301
   54.000   20.006 1279.750    0.377    0.302
   54.250   13.269 1123.810    0.396    0.309
   54.500   18.406  453.749    0.400    0.343
   54.750   34.833  101.652    0.415    0.347
   55.000   77.499  108.266    0.436    0.333
   55.250  133.946   89.827    0.423    0.309
   55.500  147.220    6.958    0.439    0.298
   55.750  128.609    7.126    0.576    0.333
   56.000  114.398    7.448    0.635    0.381
   56.250  103.923    7.754    0.637    0.331
   56.500  132.847    9.608    0.672    0.241
   56.750  133.001   24.496    0.418    0.165
   57.000  156.280   21.188    0.415    0.169
   57.250  145.806   18.961    0.427    0.177
   57.500  144.091   17.336    0.407    0.171
   57.750  136.770   15.554    0.459    0.167
   58.000  135.639   13.693    0.514    0.191
   58.250  138.323   11.162    0.483    0.213
   58.500  134.701    8.597    0.506    0.215
   58.750  128.626    7.860    0.524    0.221
   59.000  139.408    8.531    0.477    0.224
   59.250  150.190    9.593    0.442    0.215
   59.500  137.847   16.752    0.408    0.200
   59.750  139.247   15.335    0.451    0.208
   60.000  149.406   14.525    0.436    0.205
   60.250  160.188   13.048    0.480    0.205
   60.500  155.359   12.595    0.535    0.202
   60.750  150.529   15.027    0.483    0.193
   61.000  141.301   18.271    0.494    0.192
   61.250  106.418   20.571    0.416    0.190
   61.500   76.556   24.113    0.404    0.192
   61.750   44.864   27.148    0.353    0.183
   62.000   38.089   24.822    0.362    0.248
   62.250   27.615  183.263    0.365    0.281
   62.500   27.185  269.240    0.356    0.284
   62.750   24.847  443.662    0.341    0.275
   63.000   23.132  390.580    0.340    0.257
   63.250   31.384  213.722    0.362    0.239
   63.500   40.336  138.658    0.416    0.256
   63.750   37.959  142.017    0.388    0.276
   64.000   34.337  252.735    0.377    0.266
   64.250   32.000  279.208    0.364    0.265
   64.500   30.908  380.298    0.370    0.275
   64.750   27.363  383.170    0.380    0.284
   65.000   32.461  342.908    0.389    0.283
   65.250   35.184  290.306    0.386    0.290
   65.500   32.185  402.967    0.392    0.297
   65.750   27.940  282.343    0.400    0.298
   66.000   29.340  166.852    0.396    0.285
   66.250   48.881   82.955    0.374    0.267
   66.500   76.597  251.067    0.356    0.244
   66.750   75.467  348.938    0.392    0.260
   67.000   57.517  378.263    0.410    0.286
   67.250   44.513  672.319    0.404    0.294
   67.500   21.542  688.605    0.411    0.298
   67.750   22.319  472.842    0.402    0.299
   68.000   26.249  408.979    0.384    0.308
   68.250   22.004  418.886    0.394    0.292
   68.500   27.141  354.629    0.389    0.290
   68.750   26.711  473.380    0.397    0.294
   69.000   23.750  609.957    0.382    0.299
   69.250   27.680  410.987    0.379    0.298
   69.500   32.194  499.714    0.368    0.296
   69.750   33.633  502.226    0.363    0.293
   70.000   33.710  610.650    0.348    0.296
   70.250   30.126  388.750    0.349    0.284
   70.500   33.395  430.009    0.363    0.288
   70.750   41.062  457.411    0.377    0.291
   71.000   36.233  451.660    0.396    0.286
   71.250   22.644  404.202    0.387    0.286
   71.500   25.951  391.148    0.364    0.285
   71.750   30.427  371.422    0.354    0.281
   72.000   31.203  265.211    0.376    0.281
   72.250   27.620  298.963    0.384    0.278
   72.500   35.910  300.466    0.418    0.294
   72.750   32.327  296.316    0.388    0.319
   73.000   29.328  321.219    0.415    0.310
   73.250   28.897  323.239    0.419    0.311
   73.500   27.144  318.775    0.403    0.305
   73.750   26.090  332.317    0.401    0.298
   74.000   29.982   32.260    0.385    0.307
   74.250   53.883   19.775    0.364    0.269
   74.500   47.770   13.091    0.343    0.230
   74.750   36.673   21.571    0.377    0.186
   75.000   36.204   26.696    0.400    0.218
   75.250   33.243   26.327    0.363    0.244
   75.500   25.299   46.852    0.386    0.278
   75.750   24.830   46.263    0.391    0.272
   76.000   29.344   45.510    0.371    0.276
   76.250   33.236   44.095    0.360    0.262
   76.500   39.073   23.647    0.367    0.113
   76.750   59.199    4.462    0.374    0.071
   77.000   88.745    1.331    0.332    0.034
   77.250   92.675   25.925    0.290    0.025
   77.500   80.916   31.482    0.271   -0.003
   77.750   81.693   31.680    0.268    0.021
   78.000   78.110   31.204    0.268    0.053
   78.250   87.023   37.940    0.253    0.086
   78.500   81.571   46.131    0.238    0.109
   78.750   77.326   50.963    0.236    0.084
   79.000   76.857   49.379    0.246    0.071
   79.250   68.251   53.529    0.253    0.088
   79.500   63.422   55.873    0.249    0.062
   79.750   75.450   62.905    0.237    0.090
   80.000   81.287   53.456    0.230    0.098
