~VERSION INFORMATION
 VERS.                 2.0:   CWLS LOG ASCII STANDARD -VERSION 2.0
 WRAP.                  NO:   ONE LINE PER DEPTH STEP
~WELL INFORMATION BLOCK
#MNEM.UNIT           DATA                    DESCRIPTION OF MNEMONIC
#---------    -------------------            -------------------------------
# Generated from Intellog Unique Number	CN_94_101/WELL/4990
WELL.         07-29-099-12W4                 : Well_name    - WELL
LOC .         AA/07-29-099-12W4/0            : Location     - LOCATION
UWI .         AA/07-29-099-12W400            : Uwi          - UNIQUE WELL ID
ENTR.         TIM                            : Entered      - ENTERED BY
SRVC.         SCHLUMBERGER                   : Scn          - SERVICE COMPANY
DATE.         08/11/92                       : Date         - LOG DATE
STRT.M        175                            : top_depth    - START DEPTH
STOP.M        395                            : bot_depth    - STOP DEPTH
STEP.M        0.25                           : increment    - STEP LENGTH
 NULL. -999.2500:NULL Value
~CURVE INFORMATION BLOCK
#MNEM UNIT       ERCB CURVE CODE    CURVE DESCRIPTION
#-----------   ------------------   ----------------------------------
DEPT.M        00 001 00 00         : DEPTH        - DEPTH
GR  .API      00 310 00 00         : GR           - GAMMA RAY
ILD .OHMM     00 120 00 00         : RESD         - DEEP RESISTIVITY (DIL)
NPHI.V/V      00 330 00 00         : PHIN         - NEUTRON POROSITY (SANDSTONE)
DPHI.V/V      00 890 00 00         : PHID         - DENSITY POROSITY (SANDSTONE)
~PARAMETER INFORMATION
#MNEM.UNIT           DATA             DESCRIPTION OF MNEMONIC
#---------         -----------     ------------------------------
GL  .M        640.2                : gl           - GROUND LEVEL ELEVATION
EREF.M        646.6                : kb           - ELEVATION OF DEPTH REFERENCE
DATM.M        646.6                : datum        - DATUM ELEVATION
TDD .M        397                  : tdd          - TOTAL DEPTH DRILLER
RUN .         ONE                  : Run          - RUN NUMBER
ENG .         JO                   : Engineer     - RECORDING ENGINEER
WIT .         TIM                  : Witness      - WITNESSED BY
MUD .         GEL                  : Mud_type     - MUD TYPE
MATR.         SANDSTONE            : Logunit      - NEUTRON MATRIX
TMAX.C        40                   : BHT          - MAXIMUM RECORDED TEMPERATURE
BHTD.M        397                  : BHTDEP       - MAXIMUM RECORDED TEMPERATURE
RMT .C        10                   : MDTP         - TEMPERATURE OF MUD
MUDD.KG/M     1050                 : MWT          - MUD DENSITY
NEUT.         1                    : NEUTRON      - NEUTRON TYPE
RESI.         0                    : RESIST       - RESISTIVITY TYPE
RM  .OHMM     0.35                 : RM           - RESISTIVITY OF MUD
RMC .OHMM     0.9                  : RMC          - RESISTIVITY OF MUD CAKE
RMF .OHMM     0.9                  : RMF          - RESISTIVITY OF MUD FILTRATE
SUFT.C        4                    : SUFT         - SURFACE TEMPERATURE
~A  DEPTH       GR     RESD     PHIN     PHID
# ...
  262.000   98.933    4.844    0.478    0.263
  262.250   95.195    5.325    0.468    0.238
  262.500   93.326    5.744    0.458    0.224
  262.750   90.831    5.966    0.445    0.198
  263.000   88.340    5.854    0.434    0.159
  263.250   87.090    5.637    0.430    0.194
  263.500   91.434    5.326    0.459    0.228
  263.750   95.778    5.226    0.484    0.287
  264.000   97.634    5.226    0.446    0.280
  264.250   97.007    5.226    0.450    0.268
  264.500   96.379    5.428    0.482    0.263
  264.750   96.372    5.638    0.499    0.270
  265.000   96.987    6.081    0.493    0.294
  265.250   95.737    6.813    0.493    0.308
  265.500   92.623    7.076    0.493    0.305
  265.750   87.642    7.632    0.489    0.292
  266.000   83.907    7.778    0.483    0.261
  266.250   82.037    8.233    0.473    0.247
  266.500   78.919    8.714    0.462    0.250
  266.750   75.805    9.050    0.444    0.299
  267.000   73.312    9.400    0.434    0.310
  267.250   70.818    9.579    0.443    0.305
  267.500   70.191    9.763    0.448    0.280
  267.750   69.563    9.949    0.441    0.271
  268.000   69.558    9.949    0.434    0.199
  268.250   69.549    8.715    0.425    0.184
  268.500   71.407    7.780    0.419    0.164
  268.750   75.127    6.687    0.431    0.178
  269.000   76.989    5.534    0.455    0.275
  269.250   80.089    4.940    0.481    0.313
  269.500   85.055    4.580    0.492    0.303
  269.750   90.641    4.494    0.507    0.284
  270.000   96.226    4.410    0.521    0.289
  270.250   99.950    4.410    0.517    0.293
  270.500  104.294    4.410    0.493    0.295
  270.750  106.152    4.328    0.498    0.295
  271.000  105.522    4.328    0.510    0.291
  271.250  105.513    4.247    0.510    0.280
  271.500  105.510    4.012    0.505    0.269
  271.750  106.746    3.864    0.500    0.261
  272.000  109.225    3.582    0.507    0.251
  272.250  111.705    3.259    0.535    0.236
  272.500  109.833    3.021    0.550    0.233
  272.750  108.584    2.965    0.573    0.247
  273.000  110.441    2.909    0.580    0.269
  273.250  116.026    2.909    0.579    0.275
  273.500  118.507    3.021    0.573    0.284
  273.750  120.986    3.259    0.565    0.295
  274.000  119.113    3.450    0.560    0.295
  274.250  117.864    3.651    0.546    0.290
  274.500  115.991    3.864    0.527    0.291
  274.750  114.744    4.169    0.524    0.295
  275.000  110.387    4.329    0.527    0.295
  275.250  107.271    4.670    0.530    0.291
  275.500  106.643    4.759    0.526    0.284
  275.750  105.393    4.850    0.520    0.276
  276.000  105.388    4.850    0.512    0.276
  276.250  103.517    4.851    0.496    0.278
  276.500  101.022    4.943    0.510    0.275
  276.750  100.392    4.943    0.534    0.269
  277.000  100.389    5.038    0.538    0.265
  277.250  102.246    5.038    0.511    0.263
  277.500  100.995    5.135    0.495    0.268
  277.750   99.122    5.135    0.480    0.275
  278.000   97.876    5.135    0.507    0.284
  278.250   97.247    5.135    0.529    0.287
  278.500   97.860    5.039    0.546    0.289
  278.750   97.853    4.852    0.512    0.289
  279.000   97.849    4.584    0.496    0.288
  279.250   95.975    4.331    0.524    0.288
  279.500   94.106    4.250    0.529    0.288
  279.750   93.474    4.170    0.530    0.288
  280.000   95.955    4.170    0.523    0.288
  280.250  100.297    4.171    0.495    0.288
  280.500  100.912    4.171    0.486    0.287
  280.750  100.285    4.250    0.475    0.282
  281.000   99.652    4.332    0.480    0.278
  281.250   99.650    4.415    0.491    0.278
  281.500   99.643    4.415    0.499    0.278
  281.750  100.256    4.585    0.501    0.280
  282.000  100.873    4.673    0.507    0.283
  282.250  101.484    4.673    0.514    0.285
  282.500  101.481    4.673    0.521    0.290
  282.750  100.229    4.585    0.528    0.294
  283.000   99.603    4.586    0.500    0.297
  283.250   98.971    4.586    0.489    0.298
  283.500   98.966    4.586    0.496    0.299
  283.750   99.579    4.586    0.507    0.298
  284.000   98.954    4.586    0.518    0.294
  284.250   97.703    4.416    0.526    0.284
  284.500   96.451    4.094    0.529    0.241
  284.750   96.446    3.868    0.497    0.182
  285.000   97.061    3.655    0.457    0.172
  285.250  102.028    3.453    0.479    0.221
  285.500  111.965    3.388    0.509    0.268
  285.750  118.793    3.263    0.515    0.273
  286.000  119.408    3.201    0.525    0.240
  286.250  116.913    3.201    0.528    0.225
  286.500  116.288    3.142    0.523    0.202
  286.750  114.417    3.142    0.516    0.178
  287.000  111.923    3.142    0.505    0.166
  287.250  109.430    3.142    0.480    0.157
  287.500  108.803    3.263    0.451    0.164
  287.750  106.932    3.263    0.448    0.193
  288.000  104.439    3.389    0.495    0.233
  288.250  105.675    3.520    0.524    0.245
  288.500  108.155    3.726    0.539    0.259
  288.750  114.363    4.095    0.538    0.268
  289.000  120.571    4.502    0.533    0.269
  289.250  120.564    5.238    0.523    0.274
  289.500  118.071    5.868    0.508    0.278
  289.750  116.822    6.574    0.484    0.271
  290.000  114.329    7.365    0.457    0.258
  290.250  110.593    7.944    0.438    0.239
  290.500  106.234    8.251    0.412    0.239
  290.750  105.608    8.408    0.400    0.240
  291.000  107.462    8.409    0.406    0.244
  291.250  106.837    8.251    0.416    0.238
  291.500  105.584    8.097    0.414    0.228
  291.750  104.959    7.650    0.412    0.226
  292.000  104.331    7.507    0.411    0.233
  292.250  101.836    7.228    0.414    0.244
  292.500  100.586    7.093    0.424    0.253
  292.750  101.199    6.960    0.432    0.262
  293.000  101.194    6.960    0.441    0.254
  293.250  101.807    6.960    0.445    0.244
  293.500  102.422    6.960    0.447    0.237
  293.750  102.415    7.093    0.450    0.243
  294.000  102.408    7.367    0.446    0.249
  294.250  102.403    7.652    0.443    0.243
  294.500   99.909    7.798    0.440    0.208
  294.750   98.039    7.798    0.435    0.190
  295.000   94.922    7.652    0.426    0.167
  295.250   93.674    7.094    0.414    0.199
  295.500   93.047    6.703    0.416    0.225
  295.750   92.419    6.831    0.430    0.235
  296.000   98.005    7.095    0.445    0.257
  296.250  101.724    7.509    0.456    0.264
  296.500  101.721    7.653    0.465    0.273
  296.750  101.091    7.800    0.459    0.282
  297.000   99.218    7.653    0.441    0.275
  297.250   98.593    7.369    0.437    0.257
  297.500   96.100    6.963    0.437    0.257
  297.750   94.849    6.455    0.440    0.257
  298.000   95.463    6.099    0.442    0.256
  298.250   95.458    6.099    0.446    0.257
  298.500   96.695    6.579    0.446    0.270
  298.750   97.931    6.833    0.444    0.271
  299.000   99.165    7.097    0.436    0.270
  299.250   99.159    7.097    0.423    0.267
  299.500   97.907    6.833    0.422    0.264
  299.750   97.279    6.705    0.427    0.263
  300.000   96.652    6.457    0.434    0.263
  300.250   97.887    5.986    0.439    0.263
  300.500   98.505    5.874    0.444    0.262
  300.750  100.984    5.656    0.453    0.267
  301.000  104.085    5.550    0.466    0.275
  301.250  106.564    5.874    0.492    0.275
  301.500  105.314    6.101    0.497    0.260
  301.750  102.200    6.707    0.503    0.257
  302.000   98.462    6.966    0.499    0.253
  302.250   97.213    7.234    0.464    0.244
  302.500   95.963    6.966    0.442    0.224
  302.750   94.715    6.337    0.420    0.203
  303.000   92.844    5.765    0.445    0.247
  303.250   94.078    4.594    0.495    0.268
  303.500   97.802    3.592    0.508    0.299
  303.750  102.765    2.973    0.525    0.315
  304.000  102.759    2.604    0.528    0.299
  304.250  102.130    2.654    0.528    0.289
  304.500  100.259    2.654    0.526    0.284
  304.750   99.629    2.604    0.511    0.282
  305.000  101.485    2.369    0.512    0.287
  305.250  102.103    2.155    0.555    0.295
