~VERSION INFORMATION
 VERS.                 2.0:   CWLS LOG ASCII STANDARD -VERSION 2.0
 WRAP.                  NO:   ONE LINE PER DEPTH STEP
~WELL INFORMATION BLOCK
#MNEM.UNIT           DATA                    DESCRIPTION OF MNEMONIC
#---------    -------------------            -------------------------------
# Generated from Intellog Unique Number	CN_94_101/WELL/4990
WELL.         07-29-099-12W4                 : Well_name    - WELL
LOC .         AA/07-29-099-12W4/0            : Location     - LOCATION
UWI .         AA/07-29-099-12W400            : Uwi          - UNIQUE WELL ID
ENTR.         TIM                            : Entered      - ENTERED BY
SRVC.         SCHLUMBERGER                   : Scn          - SERVICE COMPANY
DATE.         08/11/92                       : Date         - LOG DATE
STRT.M        175                            : top_depth    - START DEPTH
STOP.M        395                            : bot_depth    - STOP DEPTH
STEP.M        0.25                           : increment    - STEP LENGTH
 NULL. -999.2500:NULL Value
~CURVE INFORMATION BLOCK
#MNEM UNIT       ERCB CURVE CODE    CURVE DESCRIPTION
#-----------   ------------------   ----------------------------------
DEPT.M        00 001 00 00         : DEPTH        - DEPTH
GR  .API      00 310 00 00         : GR           - GAMMA RAY
ILD .OHMM     00 120 00 00         : RESD         - DEEP RESISTIVITY (DIL)
NPHI.V/V      00 330 00 00         : PHIN         - NEUTRON POROSITY (SANDSTONE)
DPHI.V/V      00 890 00 00         : PHID         - DENSITY POROSITY (SANDSTONE)
~PARAMETER INFORMATION
#MNEM.UNIT           DATA             DESCRIPTION OF MNEMONIC
#---------         -----------     ------------------------------
GL  .M        640.2                : gl           - GROUND LEVEL ELEVATION
EREF.M        646.6                : kb           - ELEVATION OF DEPTH REFERENCE
DATM.M        646.6                : datum        - DATUM ELEVATION
TDD .M        397                  : tdd          - TOTAL DEPTH DRILLER
RUN .         ONE                  : Run          - RUN NUMBER
ENG .         JO                   : Engineer     - RECORDING ENGINEER
WIT .         TIM                  : Witness      - WITNESSED BY
MUD .         GEL                  : Mud_type     - MUD TYPE
MATR.         SANDSTONE            : Logunit      - NEUTRON MATRIX
TMAX.C        40                   : BHT          - MAXIMUM RECORDED TEMPERATURE
BHTD.M        397                  : BHTDEP       - MAXIMUM RECORDED TEMPERATURE
RMT .C        10                   : MDTP         - TEMPERATURE OF MUD
MUDD.KG/M     1050                 : MWT          - MUD DENSITY
NEUT.         1                    : NEUTRON      - NEUTRON TYPE
RESI.         0                    : RESIST       - RESISTIVITY TYPE
RM  .OHMM     0.35                 : RM           - RESISTIVITY OF MUD
RMC .OHMM     0.9                  : RMC          - RESISTIVITY OF MUD CAKE
RMF .OHMM     0.9                  : RMF          - RESISTIVITY OF MUD FILTRATE
SUFT.C        4                    : SUFT         - SURFACE TEMPERATURE
~A  DEPTH       GR     RESD     PHIN     PHID
  175.000  113.112    5.593    0.521    0.232
  175.250  113.107    5.385    0.538    0.227
  175.500  111.857    4.807    0.555    0.218
  175.750  109.984    4.373    0.568    0.209
  176.000  108.113    4.291    0.584    0.210
  176.250  106.241    4.373    0.579    0.217
  176.500  104.993    4.457    0.569    0.220
  176.750  106.229    4.629    0.547    0.228
  177.000  107.466    4.900    0.522    0.223
  177.250  108.702    4.993    0.507    0.220
  177.500  109.935    4.993    0.518    0.233
  177.750  110.553    4.994    0.528    0.251
  178.000  108.058    4.994    0.522    0.259
  178.250  105.567    5.089    0.512    0.265
  178.500  104.939    5.187    0.499    0.262
  178.750  106.795    5.387    0.499    0.254
  179.000  107.411    5.490    0.490    0.247
  179.250  108.643    5.490    0.479    0.243
  179.500  108.639    5.490    0.484    0.244
  179.750  109.256    5.490    0.484    0.244
  180.000  109.869    5.490    0.479    0.244
  180.250  109.863    5.490    0.477    0.242
  180.500  108.610    5.490    0.475    0.239
  180.750  107.984    5.491    0.482    0.239
  181.000  107.354    5.388    0.490    0.241
  181.250  107.349    4.995    0.506    0.246
  181.500  107.962    4.810    0.525    0.249
  181.750  107.957    4.459    0.541    0.246
  182.000  107.948    4.376    0.550    0.244
  182.250  106.697    4.376    0.547    0.248
  182.500  106.072    4.459    0.541    0.251
  182.750  104.820    4.632    0.530    0.256
  183.000  104.194    4.720    0.521    0.257
  183.250  104.808    4.720    0.518    0.256
  183.500  105.423    4.460    0.525    0.253
  183.750  106.658    4.294    0.528    0.253
  184.000  106.653    4.135    0.528    0.258
  184.250  107.267    4.057    0.535    0.261
  184.500  106.637    4.058    0.545    0.263
  184.750  104.144    4.135    0.535    0.253
  185.000  102.273    4.295    0.527    0.242
  185.250  101.647    4.377    0.525    0.243
  185.500  101.017    4.377    0.518    0.246
  185.750  100.390    4.295    0.516    0.248
  186.000  100.382    4.377    0.510    0.250
  186.250  100.995    4.461    0.506    0.248
  186.500  100.990    4.461    0.503    0.245
  186.750  101.606    4.461    0.501    0.243
  187.000  101.599    4.378    0.498    0.243
  187.250  102.212    4.378    0.499    0.243
  187.500  104.691    4.378    0.515    0.243
  187.750  105.926    4.215    0.535    0.243
  188.000  105.923    3.835    0.544    0.245
  188.250  105.294    3.692    0.541    0.246
  188.500  104.664    3.555    0.536    0.246
  188.750  104.657    3.555    0.525    0.246
  189.000  104.031    3.835    0.515    0.246
  189.250  102.779    4.905    0.508    0.246
  189.500   99.665    6.273    0.493    0.243
  189.750   96.552    6.040    0.473    0.232
  190.000   94.060    5.192    0.448    0.204
  190.250   94.053    4.379    0.428    0.187
  190.500   99.018    4.297    0.431    0.192
  190.750  102.119    4.379    0.479    0.206
  191.000  103.355    4.463    0.500    0.237
  191.250  105.211    4.635    0.519    0.250
  191.500  105.828    4.724    0.512    0.246
  191.750  107.064    5.000    0.505    0.246
  192.000  106.434    5.292    0.501    0.251
  192.250  105.806    5.000    0.496    0.257
  192.500  105.179    4.814    0.490    0.264
  192.750  105.790    4.549    0.473    0.267
  193.000  107.028    4.380    0.478    0.274
  193.250  108.264    3.985    0.487    0.276
  193.500  110.120    3.765    0.505    0.279
  193.750  111.978    3.490    0.520    0.280
  194.000  106.378    3.116    0.534    0.275
  194.250  101.399    2.781    0.543    0.269
  194.500   98.285    2.628    0.550    0.260
  194.750   97.037    2.781    0.558    0.259
  195.000   94.542    2.889    0.564    0.264
  195.250   92.671    3.361    0.567    0.266
  195.500   91.423    4.299    0.534    0.266
  195.750   87.685    6.900    0.501    0.274
  196.000   85.192    8.028    0.454    0.283
  196.250   83.943    8.993    0.414    0.297
  196.500   82.693    9.886    0.423    0.307
  196.750   81.442    9.886    0.437    0.318
  197.000   80.817    8.825    0.451    0.318
  197.250   78.945    7.586    0.452    0.313
  197.500   78.939    8.182    0.461    0.314
  197.750   77.066   10.076    0.486    0.317
  198.000   75.196   11.724    0.490    0.318
  198.250   72.701   13.134    0.493    0.322
  198.500   70.830   13.134    0.463    0.329
  198.750   70.825   12.646    0.452    0.324
  199.000   72.061   12.410    0.409    0.293
  199.250   73.297   11.725    0.379    0.255
  199.500   74.534   10.870    0.369    0.241
  199.750   76.388   10.271    0.405    0.322
  200.000   77.626    9.168    0.456    0.346
  200.250   78.862    8.341    0.454    0.355
  200.500   81.963    8.341    0.459    0.347
  200.750   83.821    8.500    0.466    0.337
  201.000   85.057    8.829    0.481    0.318
  201.250   85.673    8.997    0.483    0.303
  201.500   86.909    8.342    0.473    0.296
  201.750   88.146    8.032    0.458    0.298
  202.000   90.625    7.882    0.447    0.302
  202.250   93.724    7.734    0.458    0.301
  202.500   96.203    7.170    0.466    0.294
  202.750   94.953    7.170    0.460    0.285
  203.000   91.218    7.882    0.463    0.272
  203.250   88.727    8.187    0.462    0.255
  203.500   83.126    8.343    0.455    0.234
  203.750   76.904    8.187    0.436    0.207
  204.000   76.275    7.883    0.418    0.195
  204.250   79.377    7.590    0.426    0.207
  204.500   83.717    6.402    0.438    0.238
  204.750   86.818    5.935    0.450    0.263
  205.000   89.920    5.298    0.462    0.280
  205.250   94.264    4.820    0.470    0.279
  205.500   99.228    4.554    0.475    0.274
  205.750  102.952    4.385    0.492    0.260
  206.000  107.294    4.385    0.506    0.238
  206.250  107.910    4.385    0.519    0.235
  206.500  105.417    4.385    0.525    0.238
  206.750  106.032    4.385    0.520    0.245
  207.000  106.647    4.385    0.520    0.253
  207.250  106.017    4.386    0.520    0.262
  207.500  104.767    4.386    0.520    0.270
  207.750  102.274    4.555    0.520    0.272
  208.000  101.026    5.103    0.520    0.274
  208.250   97.289    5.716    0.515    0.276
  208.500   93.555    6.284    0.499    0.278
  208.750   87.333    6.778    0.476    0.284
  209.000   81.731    7.040    0.442    0.297
  209.250   77.997    6.908    0.431    0.317
  209.500   73.639    7.040    0.411    0.349
  209.750   68.039    8.038    0.397    0.375
  210.000   63.060    8.508    0.393    0.394
  210.250   59.323    8.508    0.393    0.387
  210.500   61.179    8.670    0.432    0.368
  210.750   62.417    8.836    0.462    0.331
  211.000   62.410    9.353    0.477    0.327
  211.250   61.160    9.714    0.488    0.335
  211.500   60.533   10.281    0.477    0.348
  211.750   58.662   10.478    0.454    0.355
  212.000   57.412   10.883    0.441    0.353
  212.250   56.161   11.519    0.430    0.348
  212.500   55.533   11.519    0.421    0.340
  212.750   54.903   11.739    0.421    0.327
  213.000   54.899   11.739    0.426    0.312
  213.250   54.891   11.740    0.430    0.314
  213.500   54.882   11.520    0.433    0.353
  213.750   54.877   11.304    0.433    0.364
  214.000   56.735   10.480    0.433    0.359
  214.250   58.594    9.355    0.431    0.349
  214.500   66.667    8.511    0.422    0.327
  214.750   80.953    7.597    0.421    0.307
  215.000   84.056    6.782    0.422    0.292
  215.250   89.641    5.720    0.420    0.264
  215.500   92.122    4.824    0.428    0.252
  215.750   97.708    4.226    0.439    0.248
  216.000  102.672    4.069    0.452    0.257
  216.250  105.149    4.147    0.468    0.263
  216.500  105.146    4.307    0.483    0.272
  216.750  105.137    4.473    0.494    0.281
  217.000  105.132    4.646    0.498    0.278
  217.250  100.773    4.917    0.489    0.275
  217.500   98.279    5.011    0.473    0.275
  217.750   98.275    5.107    0.461    0.277
  218.000   99.507    5.107    0.483    0.280
  218.250   99.503    5.107    0.489    0.286
