~VERSION INFORMATION
 VERS.                 2.0:   CWLS LOG ASCII STANDARD -VERSION 2.0
 WRAP.                  NO:   ONE LINE PER DEPTH STEP
~WELL INFORMATION BLOCK
#MNEM.UNIT           DATA                    DESCRIPTION OF MNEMONIC
#---------    -------------------            -------------------------------
# Generated from Intellog Unique Number	CN_94_101/WELL/4987
WELL.         06-35-101-14W4                 : Well_name    - WELL
LOC .         AA/06-35-101-14W4/0            : Location     - LOCATION
UWI .         AA/06-35-101-14W400            : Uwi          - UNIQUE WELL ID
ENTR.         TIM                            : Entered      - ENTERED BY
SRVC.         SCHLUMBERGER                   : Scn          - SERVICE COMPANY
DATE.         08/13/92                       : Date         - LOG DATE
STRT.M        370                            : top_depth    - START DEPTH
STOP.M        585                            : bot_depth    - STOP DEPTH
STEP.M        0.25                           : increment    - STEP LENGTH
NULL. -999.2500:NULL Value
~CURVE INFORMATION BLOCK
#MNEM UNIT       ERCB CURVE CODE    CURVE DESCRIPTION
#-----------   ------------------   ----------------------------------
DEPT.M        00 001 00 00         : DEPTH        - DEPTH
GR  .API      00 310 00 00         : GR           - GAMMA RAY
ILD .OHMM     00 120 00 00         : RESD         - DEEP RESISTIVITY (DIL)
NPHI.V/V      00 330 00 00         : PHIN         - NEUTRON POROSITY (SANDSTONE)
DPHI.V/V      00 890 00 00         : PHID         - DENSITY POROSITY (SANDSTONE)
~PARAMETER INFORMATION
#MNEM.UNIT           DATA             DESCRIPTION OF MNEMONIC
#---------         -----------     ------------------------------
GL  .M        788.2                : gl           - GROUND LEVEL ELEVATION
EREF.M        791.46               : kb           - ELEVATION OF DEPTH REFERENCE
DATM.M        791.46               : datum        - DATUM ELEVATION
TDD .M        586                  : tdd          - TOTAL DEPTH DRILLER
RUN .         ONE                  : Run          - RUN NUMBER
ENG .         JO                   : Engineer     - RECORDING ENGINEER
WIT .         TIM                  : Witness      - WITNESSED BY
MUD .         GEL                  : Mud_type     - MUD TYPE
MATR.         SANDSTONE            : Logunit      - NEUTRON MATRIX
TMAX.C        29.5                 : BHT          - MAXIMUM RECORDED TEMPERATURE
BHTD.M        586                  : BHTDEP       - MAXIMUM RECORDED TEMPERATURE
RMT .C        10                   : MDTP         - TEMPERATURE OF MUD
MUDD.KG/M     1120                 : MWT          - MUD DENSITY
NEUT.         1                    : NEUTRON      - NEUTRON TYPE
RESI.         0                    : RESIST       - RESISTIVITY TYPE
RM  .OHMM     7.52                 : RM           - RESISTIVITY OF MUD
RMC .OHMM     7.52                 : RMC          - RESISTIVITY OF MUD CAKE
RMF .OHMM     7.52                 : RMF          - RESISTIVITY OF MUD FILTRATE
SUFT.C        4                    : SUFT         - SURFACE TEMPERATURE
~A  DEPTH       GR     RESD     PHIN     PHID
# ...
  544.000   81.690    1.619    0.391    0.295
  544.250   82.400    1.647    0.391    0.290
  544.500   83.109    1.661    0.392    0.281
  544.750   85.025    1.676    0.393    0.281
  545.000   85.699    1.699    0.394    0.291
  545.250   87.650    1.718    0.395    0.286
  545.500   88.945    1.533    0.395    0.279
  545.750   89.016    1.339    0.396    0.278
  546.000   87.845    1.149    0.397    0.280
  546.250   84.208    1.168    0.393    0.275
  546.500   87.366    1.604    0.382    0.263
  546.750   91.783    1.831    0.377    0.266
  547.000   98.099    2.058    0.382    0.270
  547.250   99.412    2.290    0.390    0.273
  547.500   96.999    2.314    0.397    0.277
  547.750   93.965    2.328    0.403    0.276
  548.000   92.172    2.342    0.404    0.274
  548.250   89.759    2.579    0.404    0.273
  548.500   89.192    2.593    0.404    0.270
  548.750   86.157    2.607    0.404    0.268
  549.000   84.365    2.626    0.403    0.269
  549.250   82.573    2.649    0.400    0.275
  549.500   78.900    2.664    0.402    0.282
  549.750   75.246    2.692    0.397    0.293
  550.000   79.077    2.706    0.389    0.298
  550.250   81.632    2.725    0.382    0.304
  550.500   83.566    2.739    0.381    0.306
  550.750   83.636    2.767    0.391    0.297
  551.000   84.346    2.781    0.395    0.295
  551.250   85.641    2.796    0.404    0.290
  551.500   87.557    2.611    0.410    0.286
  551.750   90.733    2.634    0.406    0.287
  552.000   96.410    2.648    0.398    0.283
  552.250   95.239    2.468    0.392    0.279
  552.500   88.479    2.482    0.390    0.279
  552.750   83.564    2.288    0.391    0.282
  553.000   78.064    2.103    0.392    0.288
  553.250   81.860    2.122    0.393    0.291
  553.500   89.383    1.932    0.392    0.298
  553.750   93.197    1.956    0.385    0.302
  554.000   95.131    1.970    0.383    0.293
  554.250   97.064    1.984    0.381    0.285
  554.500   98.359    2.003    0.382    0.277
  554.750  101.570    2.031    0.388    0.274
  555.000  102.901    2.041    0.393    0.270
  555.250  103.575    2.060    0.398    0.269
  555.500  104.249    2.078    0.403    0.267
  555.750  103.078    1.894    0.400    0.271
  556.000  101.286    1.908    0.396    0.272
  556.250  100.132    1.927    0.392    0.276
  556.500  100.221    1.950    0.392    0.277
  556.750  100.256    1.765    0.393    0.278
  557.000   99.706    1.775    0.398    0.275
  557.250   97.914    1.798    0.399    0.274
  557.500   94.880    1.817    0.399    0.275
  557.750   92.467    1.836    0.400    0.278
  558.000   91.934    1.855    0.400    0.281
  558.250   93.229    1.665    0.400    0.275
  558.500  102.614    1.693    0.400    0.260
  558.750  112.638    1.703    0.400    0.236
  559.000  110.846    1.523    0.396    0.203
  559.250  110.935    1.537    0.392    0.214
  559.500  113.489    1.551    0.389    0.227
  559.750  114.802    1.371    0.389    0.221
  560.000  113.631    1.385    0.388    0.216
  560.250  111.218    1.191    0.382    0.221
  560.500  109.426    1.219    0.373    0.230
  560.750  106.374    1.020    0.363    0.241
  561.000  103.961    1.043    0.355    0.237
  561.250  100.323    0.859    0.348    0.230
  561.500   99.756    0.868    0.343    0.231
  561.750   99.862    0.887    0.349    0.243
  562.000   99.897    0.906    0.355    0.255
  562.250   99.347    0.925    0.362    0.253
  562.500   93.829    1.578    0.367    0.257
  562.750   83.964    1.801    0.372    0.265
  563.000   82.190    2.236    0.368    0.271
  563.250   85.969    2.672    0.360    0.272
  563.500   88.541    3.942    0.356    0.264
  563.750   77.417    5.628    0.366    0.257
  564.000   73.762    8.986    0.376    0.253
  564.250   70.710   11.719    0.382    0.293
  564.500   67.073   13.197    0.383    0.298
  564.750   66.522   10.293    0.377    0.313
  565.000   69.077    7.394    0.370    0.310
  565.250   64.784    9.085    0.364    0.294
  565.500   58.024   10.975    0.368    0.290
  565.750   59.975   13.708    0.375    0.300
  566.000   63.133   12.263    0.372    0.306
  566.250   70.673    6.446    0.363    0.290
  566.500   71.382    5.219    0.357    0.280
  566.750   69.590    5.863    0.363    0.273
  567.000   67.177    7.545    0.372    0.277
  567.250   62.263   10.283    0.379    0.325
  567.500   61.109   10.510    0.385    0.323
  567.750   61.198   10.524    0.391    0.323
  568.000   58.767    8.250    0.396    0.324
  568.250   56.336    5.972    0.400    0.330
  568.500   53.923    3.906    0.409    0.341
  568.750   54.615    4.967    0.411    0.346
  569.000   55.945    8.117    0.404    0.347
  569.250   59.742    9.391    0.396    0.341
  569.500   63.538    8.577    0.387    0.331
  569.750   67.956    6.928    0.379    0.322
  570.000   70.510    5.275    0.376    0.310
  570.250   70.599    5.507    0.380    0.297
  570.500   66.944    6.984    0.394    0.304
  570.750   65.755    8.666    0.399    0.319
  571.000   67.068    7.851    0.393    0.320
  571.250   73.366    5.994    0.384    0.314
  571.500   72.816    6.221    0.384    0.301
  571.750   71.644    7.287    0.387    0.293
  572.000   74.181    8.135    0.392    0.294
  572.250   99.109    6.070    0.396    0.297
  572.500  109.132    2.545    0.405    0.292
  572.750  117.897    1.531    0.432    0.253
  573.000  128.542    1.541    0.451    0.245
  573.250  132.959    1.356    0.423    0.235
  573.500  137.377    1.370    0.399    0.227
  573.750  139.967    1.393    0.358    0.207
  574.000  140.658    1.625    0.348    0.189
  574.250  140.712    1.644    0.343    0.181
  574.500  142.024    1.654    0.343    0.173
  574.750  143.976    1.673    0.344    0.163
  575.000  145.909    1.691    0.344    0.153
  575.250  146.601    1.919    0.339    0.152
  575.500  145.412    1.938    0.339    0.160
  575.750  144.241    2.170    0.348    0.169
  576.000  144.312    2.188    0.358    0.173
  576.250  144.383    2.207    0.384    0.177
  576.500  145.074    2.231    0.423    0.177
  576.750  154.477    2.250    0.460    0.177
  577.000  160.137    2.273    0.470    0.183
  577.250  158.983    2.283    0.444    0.211
  577.500  157.191    2.306    0.462    0.227
  577.750  154.778    2.320    0.509    0.233
  578.000  152.347    2.339    0.541    0.300
  578.250  147.450    2.358    0.558    0.332
  578.500  141.311    2.382    0.585    0.345
  578.750  136.397    2.400    0.585    0.349
  579.000  132.121    2.424    0.536    0.340
  579.250  132.192    2.438    0.504    0.200
  579.500  132.901    2.457    0.485    0.191
  579.750  132.972    2.476    0.485    0.193
  580.000  133.043    2.495    0.486    0.198
  580.250  133.131    2.513    0.491    0.222
  580.500  133.202    2.532    0.495    0.214
  580.750  133.255    2.551    0.497    0.163
  581.000  132.705    2.570    0.488    0.151
  581.250  130.309    2.802    0.452    0.147
  581.500  126.654    3.451    0.440    0.146
  581.750  123.603    3.877    0.448    0.146
  582.000  118.688    4.938    0.461    0.148
  582.250  110.686    7.250    0.472    0.148
  582.500  111.396    9.983    0.476    0.148
  582.750  112.708   11.257    0.478    0.145
  583.000  114.642   12.110    0.477    0.144
  583.250  117.197   12.967    0.475    0.144
  583.500  119.130   13.398    0.474    0.146
  583.750  121.685   13.620    0.473    0.147
  584.000  121.135   13.639    0.471    0.147
  584.250  119.964   13.454    0.471    0.147
  584.500  118.810   13.056    0.471    0.148
  584.750  118.881   12.867    0.471    0.148
  585.000  118.952   12.677    0.472    0.147
