~VERSION INFORMATION
 VERS.                 2.0:   CWLS LOG ASCII STANDARD -VERSION 2.0
 WRAP.                  NO:   ONE LINE PER DEPTH STEP
~WELL INFORMATION BLOCK
#MNEM.UNIT           DATA                    DESCRIPTION OF MNEMONIC
#---------    -------------------            -------------------------------
# Generated from Intellog Unique Number	CN_94_101/WELL/4987
WELL.         06-35-101-14W4                 : Well_name    - WELL
LOC .         AA/06-35-101-14W4/0            : Location     - LOCATION
UWI .         AA/06-35-101-14W400            : Uwi          - UNIQUE WELL ID
ENTR.         TIM                            : Entered      - ENTERED BY
SRVC.         SCHLUMBERGER                   : Scn          - SERVICE COMPANY
DATE.         08/13/92                       : Date         - LOG DATE
STRT.M        370                            : top_depth    - START DEPTH
STOP.M        585                            : bot_depth    - STOP DEPTH
STEP.M        0.25                           : increment    - STEP LENGTH
NULL. -999.2500:NULL Value
~CURVE INFORMATION BLOCK
#MNEM UNIT       ERCB CURVE CODE    CURVE DESCRIPTION
#-----------   ------------------   ----------------------------------
DEPT.M        00 001 00 00         : DEPTH        - DEPTH
GR  .API      00 310 00 00         : GR           - GAMMA RAY
ILD .OHMM     00 120 00 00         : RESD         - DEEP RESISTIVITY (DIL)
NPHI.V/V      00 330 00 00         : PHIN         - NEUTRON POROSITY (SANDSTONE)
DPHI.V/V      00 890 00 00         : PHID         - DENSITY POROSITY (SANDSTONE)
~PARAMETER INFORMATION
#MNEM.UNIT           DATA             DESCRIPTION OF MNEMONIC
#---------         -----------     ------------------------------
GL  .M        788.2                : gl           - GROUND LEVEL ELEVATION
EREF.M        791.46               : kb           - ELEVATION OF DEPTH REFERENCE
DATM.M        791.46               : datum        - DATUM ELEVATION
TDD .M        586                  : tdd          - TOTAL DEPTH DRILLER
RUN .         ONE                  : Run          - RUN NUMBER
ENG .         JO                   : Engineer     - RECORDING ENGINEER
WIT .         TIM                  : Witness      - WITNESSED BY
MUD .         GEL                  : Mud_type     - MUD TYPE
MATR.         SANDSTONE            : Logunit      - NEUTRON MATRIX
TMAX.C        29.5                 : BHT          - MAXIMUM RECORDED TEMPERATURE
BHTD.M        586                  : BHTDEP       - MAXIMUM RECORDED TEMPERATURE
RMT .C        10                   : MDTP         - TEMPERATURE OF MUD
MUDD.KG/M     1120                 : MWT          - MUD DENSITY
NEUT.         1                    : NEUTRON      - NEUTRON TYPE
RESI.         0                    : RESIST       - RESISTIVITY TYPE
RM  .OHMM     7.52                 : RM           - RESISTIVITY OF MUD
RMC .OHMM     7.52                 : RMC          - RESISTIVITY OF MUD CAKE
RMF .OHMM     7.52                 : RMF          - RESISTIVITY OF MUD FILTRATE
SUFT.C        4                    : SUFT         - SURFACE TEMPERATURE
~A  DEPTH       GR     RESD     PHIN     PHID
# ...
  457.000  108.300    3.526    0.518    0.306
  457.250  107.128    3.545    0.535    0.316
  457.500  105.957    3.564    0.504    0.307
  457.750  102.320    3.791    0.481    0.295
  458.000  100.492    4.014    0.473    0.291
  458.250   98.062    4.454    0.480    0.298
  458.500   99.374    4.677    0.469    0.304
  458.750  105.672    4.283    0.462    0.306
  459.000  108.848    3.885    0.471    0.306
  459.250  113.266    3.483    0.493    0.306
  459.500  112.733    3.293    0.514    0.305
  459.750  111.562    3.103    0.525    0.302
  460.000  110.391    2.914    0.551    0.302
  460.250  110.479    2.942    0.544    0.297
  460.500  110.532    2.956    0.503    0.293
  460.750  110.585    2.985    0.490    0.293
  461.000  111.330    2.999    0.494    0.296
  461.250  110.745    3.022    0.493    0.299
  461.500  110.212    3.032    0.490    0.301
  461.750  110.265    3.055    0.489    0.300
  462.000  110.992    3.069    0.517    0.297
  462.250  111.028    3.088    0.550    0.298
  462.500  111.720    3.112    0.559    0.303
  462.750  111.169    3.135    0.576    0.305
  463.000  111.240    3.149    0.534    0.306
  463.250  111.311    2.955    0.494    0.289
  463.500  111.382    2.974    0.529    0.277
  463.750  112.694    2.998    0.547    0.275
  464.000  115.870    3.225    0.582    0.281
  464.250  115.320    3.661    0.554    0.281
  464.500  116.029    4.309    0.513    0.274
  464.750  118.584    4.328    0.458    0.257
  465.000  122.398    4.139    0.483    0.266
  465.250  122.469    3.944    0.507    0.276
  465.500  119.435    3.551    0.509    0.270
  465.750  120.127    3.158    0.517    0.267
  466.000  124.544    2.755    0.536    0.267
  466.250  127.702    2.561    0.555    0.263
  466.500  132.794    2.371    0.549    0.252
  466.750  134.692    2.186    0.522    0.249
  467.000  136.626    2.210    0.491    0.255
  467.250  137.335    2.224    0.501    0.260
  467.500  134.904    2.456    0.523    0.259
  467.750  130.007    2.683    0.529    0.252
  468.000  119.504    2.697    0.537    0.244
  468.250  111.502    2.711    0.549    0.232
  468.500  107.847    2.730    0.566    0.210
  468.750  122.236    2.749    0.425    0.189
  469.000  126.635    2.560    0.405    0.141
  469.250  131.692    2.370    0.470    0.142
  469.500  130.538    2.185    0.523    0.187
  469.750  129.970    2.204    0.540    0.225
  470.000  129.438    2.431    0.470    0.235
  470.250  129.473    3.289    0.458    0.236
  470.500  128.923    4.141    0.455    0.230
  470.750  129.011    4.785    0.448    0.218
  471.000  129.703    5.226    0.443    0.215
  471.250  126.066    5.235    0.432    0.216
  471.500  129.241    5.263    0.424    0.215
  471.750  131.778    5.273    0.412    0.215
  472.000  126.881    5.301    0.416    0.219
  472.250  122.605    5.310    0.420    0.232
  472.500  119.554    5.334    0.425    0.238
  472.750  117.762    5.353    0.430    0.244
  473.000  118.471    5.367    0.432    0.250
  473.250  118.559    5.812    0.438    0.256
  473.500  118.630    5.826    0.459    0.250
  473.750  118.098    5.845    0.454    0.249
  474.000  116.909    5.452    0.445    0.253
  474.250  116.341    5.049    0.435    0.256
  474.500  115.170    4.869    0.410    0.257
  474.750  114.016    4.675    0.399    0.254
  475.000  114.069    4.485    0.400    0.252
  475.250  113.519    4.712    0.410    0.245
  475.500  114.229    4.726    0.414    0.233
  475.750  115.541    4.958    0.411    0.230
  476.000  116.215    4.977    0.407    0.237
  476.250  116.304    5.200    0.408    0.245
  476.500  114.529    5.219    0.408    0.251
  476.750  113.944    5.446    0.410    0.257
  477.000  115.257    5.673    0.416    0.262
  477.250  117.208    5.692    0.424    0.259
  477.500  116.055    5.711    0.432    0.255
  477.750  115.469    5.526    0.439    0.251
  478.000  114.315    4.920    0.460    0.244
  478.250  116.888    4.725    0.475    0.236
  478.500  120.046    4.536    0.464    0.237
  478.750  121.979    4.351    0.449    0.238
  479.000  120.223    4.583    0.439    0.249
  479.250  119.034    4.805    0.440    0.269
  479.500  118.466    4.824    0.448    0.275
  479.750  118.554    4.848    0.453    0.265
  480.000  118.625    4.867    0.461    0.273
  480.250  118.678    4.881    0.470    0.288
  480.500  117.525    4.696    0.476    0.287
  480.750  116.975    4.298    0.477    0.262
  481.000  115.803    4.108    0.481    0.278
  481.250  114.632    3.919    0.495    0.279
  481.500  114.082    3.933    0.496    0.274
  481.750  114.153    3.743    0.468    0.267
  482.000  113.603    3.767    0.433    0.255
  482.250  113.035    3.781    0.422    0.243
  482.500  111.260    3.805    0.411    0.228
  482.750  114.418    3.819    0.434    0.229
  483.000  118.233    3.430    0.443    0.259
  483.250  120.787    3.240    0.453    0.265
  483.500  122.135    3.056    0.458    0.266
  483.750  122.809    2.861    0.469    0.264
  484.000  122.862    2.667    0.476    0.262
  484.250  121.727    2.477    0.482    0.265
  484.500  121.159    2.283    0.490    0.273
  484.750  120.609    1.895    0.504    0.279
  485.000  119.437    1.492    0.542    0.293
  485.250  118.266    1.307    0.589    0.305
  485.500  118.337    1.326    0.552    0.308
  485.750  118.390    1.345    0.543    0.303
  486.000  119.100    1.368    0.529    0.301
  486.250  119.774    1.382    0.526    0.293
  486.500  121.743    1.605    0.545    0.288
  486.750  123.073    2.050    0.557    0.293
  487.000  123.126    2.268    0.573    0.296
  487.250  123.179    2.495    0.602    0.299
  487.500  123.268    2.722    0.616    0.300
  487.750  123.977    2.950    0.584    0.296
  488.000  125.254    3.390    0.566    0.291
  488.250  127.809    3.622    0.518    0.286
  488.500  133.486    3.840    0.489    0.281
  488.750  133.557    4.072    0.470    0.272
  489.000  129.902    4.096    0.455    0.260
  489.250  124.987    4.110    0.444    0.253
  489.500  121.332    4.346    0.434    0.240
  489.750  118.937    4.569    0.428    0.240
  490.000  118.990    4.588    0.419    0.242
  490.250  122.787    4.815    0.408    0.245
  490.500  124.738    5.038    0.409    0.245
  490.750  126.068    5.056    0.410    0.241
  491.000  126.139    5.288    0.407    0.236
  491.250  126.210    5.303    0.412    0.231
  491.500  128.144    5.326    0.430    0.226
  491.750  130.698    5.340    0.450    0.221
  492.000  132.011    5.364    0.466    0.216
  492.250  131.461    5.387    0.459    0.205
  492.500  127.823    5.402    0.453    0.210
  492.750  125.375    5.226    0.444    0.219
  493.000  123.583    5.240    0.444    0.227
  493.250  123.654    5.046    0.445    0.236
  493.500  123.742    5.065    0.444    0.245
  493.750  122.571    4.870    0.436    0.248
  494.000  121.417    4.681    0.447    0.269
  494.250  120.832    4.700    0.463    0.263
  494.500  119.040    4.510    0.467    0.264
  494.750  117.248    4.534    0.472    0.265
  495.000  114.835    4.548    0.511    0.269
  495.250  112.439    4.571    0.479    0.288
  495.500  115.597    4.794    0.451    0.295
  495.750  120.671    5.026    0.433    0.280
  496.000  117.637    5.253    0.417    0.268
  496.250  115.206    5.267    0.419    0.257
  496.500  112.775    5.499    0.418    0.237
  496.750  109.120    5.513    0.410    0.256
  497.000  104.241    5.542    0.400    0.256
  497.250  101.828    5.556    0.390    0.254
  497.500  102.520    5.579    0.378    0.251
  497.750  104.453    5.603    0.369    0.249
  498.000  106.369    5.612    0.397    0.252
  498.250  110.201    5.214    0.420    0.265
  498.500  111.496    4.816    0.424    0.272
  498.750  113.430    4.418    0.427    0.275
  499.000  114.139    3.817    0.436    0.270
  499.250  114.193    3.622    0.453    0.264
  499.500  115.541    3.437    0.477    0.270
  499.750  116.836    3.039    0.495    0.279
  500.000  118.752    2.850    0.523    0.282
  500.250  122.584    2.869    0.526    0.277
