~VERSION INFORMATION
 VERS.                 2.0:   CWLS LOG ASCII STANDARD -VERSION 2.0
 WRAP.                  NO:   ONE LINE PER DEPTH STEP
~WELL INFORMATION BLOCK
#MNEM.UNIT           DATA                    DESCRIPTION OF MNEMONIC
#---------    -------------------            -------------------------------
# Generated from Intellog Unique Number	CN_91_93/WELL/2934
WELL.         04-17-092-12W4                 : Well_name    - WELL
LOC .         AA/04-17-092-12W4/0            : Location     - LOCATION
UWI .         AA/04-17-092-12W400            : Uwi          - UNIQUE WELL ID
ENTR.         JOETTE                         : Entered      - ENTERED BY
SRVC.         WESTERN ATLAS                  : Scn          - SERVICE COMPANY
DATE.         03/31/92                       : Date         - LOG DATE
STRT.M        40                             : top_depth    - START DEPTH
STOP.M        130                            : bot_depth    - STOP DEPTH
STEP.M        0.25                           : increment    - STEP LENGTH
 NULL. -999.2500:NULL Value
~CURVE INFORMATION BLOCK
#MNEM UNIT       ERCB CURVE CODE    CURVE DESCRIPTION
#-----------   ------------------   ----------------------------------
DEPT.M        00 001 00 00         : DEPTH        - DEPTH
GR  .API      00 310 00 00         : GR           - GAMMA RAY
NPHI.V/V      00 330 00 00         : PHIN         - NEUTRON POROSITY (SANDSTONE)
DPHI.V/V      00 890 00 00         : PHID         - DENSITY POROSITY (SANDSTONE)
ILD .OHMM     00 120 00 00         : RESD         - DEEP RESISTIVITY (DIL)
~PARAMETER INFORMATION
#MNEM.UNIT           DATA             DESCRIPTION OF MNEMONIC
#---------         -----------     ------------------------------
GL  .M        387.2                : gl           - GROUND LEVEL ELEVATION
EREF.M        397.3                : kb           - ELEVATION OF DEPTH REFERENCE
DATM.M        397.3                : datum        - DATUM ELEVATION
TDD .M        138.5                : tdd          - TOTAL DEPTH DRILLER
RUN .         ONE                  : Run          - RUN NUMBER
ENG .         JO                   : Engineer     - RECORDING ENGINEER
WIT .         TIM                  : Witness      - WITNESSED BY
MUD .         GEL                  : Mud_type     - MUD TYPE
MATR.         SANDSTONE            : Logunit      - NEUTRON MATRIX
TMAX.C        19                   : BHT          - MAXIMUM RECORDED TEMPERATURE
BHTD.M        138.5                : BHTDEP       - MAXIMUM RECORDED TEMPERATURE
RMT .C        17                   : MDTP         - TEMPERATURE OF MUD
MUDD.KG/M     1060                 : MWT          - MUD DENSITY
NEUT.         1                    : NEUTRON      - NEUTRON TYPE
RESI.         0                    : RESIST       - RESISTIVITY TYPE
RM  .OHMM     1.6                  : RM           - RESISTIVITY OF MUD
RMC .OHMM     1.6                  : RMC          - RESISTIVITY OF MUD CAKE
RMF .OHMM     1.6                  : RMF          - RESISTIVITY OF MUD FILTRATE
SUFT.C        4                    : SUFT         - SURFACE TEMPERATURE
~A  DEPTH       GR     PHIN     PHID     RESD
   40.000   84.383    0.432    0.219   10.433
   40.250   82.501    0.422    0.238   11.462
   40.500   82.496    0.421    0.257   12.358
   40.750   83.742    0.426    0.275   12.835
   41.000   83.112    0.416    0.261   13.082
   41.250   78.106    0.398    0.188   13.088
   41.500   71.224    0.379    0.098   12.611
   41.750   68.719    0.391    0.177   12.613
   42.000   65.587    0.406    0.250   12.856
   42.250   63.708    0.411    0.270   12.861
   42.500   61.828    0.409    0.272   12.865
   42.750   60.572    0.408    0.263   12.396
   43.000   63.067    0.408    0.233   12.399
   43.250   66.811    0.411    0.238   11.946
   43.500   69.306    0.412    0.251   11.729
   43.750   67.427    0.417    0.231   11.515
   44.000   63.670    0.419    0.230   11.518
   44.250   63.664    0.423    0.250   11.739
   44.500   64.285    0.424    0.260   11.966
   44.750   65.530    0.419    0.253   12.428
   45.000   66.775    0.412    0.244   12.908
   45.250   66.145    0.406    0.244   12.672
   45.500   64.889    0.398    0.236   12.440
   45.750   65.509    0.389    0.215   11.763
   46.000   69.881    0.386    0.203   11.548
   46.250   76.751    0.381    0.209   13.935
   46.500   75.496    0.372    0.211   17.134
   46.750   70.490    0.362    0.217   23.578
   47.000   67.983    0.351    0.227   30.099
   47.250   64.854    0.334    0.143   31.851
   47.500   57.972    0.259    0.017   30.688
   47.750   54.215    0.250    0.002   27.950
   48.000   52.336    0.261    0.006   24.065
   48.250   52.956    0.266    0.017   20.716
   48.500   52.324    0.268    0.029   15.937
   48.750   57.321    0.268    0.052   13.980
   49.000   65.442    0.331    0.146   13.220
   49.250   67.935    0.384    0.238   12.501
   49.500   64.805    0.424    0.241   12.044
   49.750   62.299    0.439    0.227   11.389
   50.000   65.421    0.436    0.188   10.974
   50.250   69.166    0.432    0.220   10.377
   50.500   71.661    0.427    0.243    9.998
   50.750   72.905    0.432    0.253    9.632
   51.000   74.775    0.442    0.265    8.938
   51.250   78.521    0.450    0.267    8.453
   51.500   81.641    0.457    0.252    8.298
   51.750   81.636    0.462    0.236    7.847
   52.000   79.755    0.469    0.203    7.703
   52.250   77.875    0.474    0.234    7.285
   52.500   77.245    0.482    0.236    7.151
   52.750   80.990    0.485    0.233    6.890
   53.000   84.734    0.475    0.237    6.764
   53.250   84.730    0.480    0.248    6.767
   53.500   82.850    0.485    0.255    7.161
   53.750   82.844    0.475    0.247    7.436
   54.000   80.963    0.461    0.226    8.325
   54.250   75.957    0.443    0.171    8.646
   54.500   74.077    0.425    0.153    8.812
   54.750   75.945    0.415    0.209    8.815
   55.000   77.815    0.425    0.221    8.819
   55.250   78.435    0.432    0.217    8.822
   55.500   76.555    0.439    0.201    9.162
   55.750   74.676    0.439    0.156    9.337
   56.000   74.671    0.423    0.213    9.518
   56.250   80.915    0.416    0.230    9.522
   56.500   80.909    0.411    0.243    9.174
   56.750   79.654    0.417    0.239    9.007
   57.000   77.774    0.428    0.232    9.008
   57.250   79.645    0.438    0.220    9.013
   57.500   85.265    0.429    0.225    9.014
   57.750   85.885    0.418    0.215    8.850
   58.000   82.755    0.410    0.187    8.527
   58.250   80.249    0.405    0.165    8.216
   58.500   78.369    0.407    0.128    7.769
   58.750   85.865    0.414    0.137    7.346
   59.000   91.484    0.428    0.197    7.078
   59.250   93.355    0.454    0.208    6.948
   59.500   97.100    0.466    0.210    6.695
   59.750   98.970    0.475    0.215    6.330
   60.000   96.465    0.484    0.216    5.986
   60.250   92.709    0.493    0.220    5.452
   60.500   87.076    0.497    0.231    4.965
   60.750   82.695    0.497    0.251    4.608
   61.000   90.192    0.497    0.254    4.697
   61.250   95.811    0.497    0.256    5.064
   61.500   93.930    0.500    0.261    5.669
   61.750   88.926    0.504    0.190    5.889
   62.000   83.293    0.478    0.061    5.890
   62.250   88.916    0.461    0.099    5.892
   62.500   99.537    0.459    0.159    6.006
   62.750  101.406    0.472    0.220    6.121
   63.000   95.776    0.485    0.237    6.478
   63.250   98.271    0.481    0.237    6.855
   63.500  100.139    0.485    0.237    6.987
   63.750  100.761    0.491    0.237    7.121
   64.000  102.631    0.488    0.235    7.259
   64.250  101.375    0.476    0.222    7.540
   64.500   96.995    0.476    0.203    7.684
   64.750   96.990    0.472    0.206    7.686
   65.000   96.359    0.466    0.217    7.983
   65.250   94.479    0.456    0.226    8.608
   65.500   95.722    0.444    0.231    9.109
   65.750   95.094    0.434    0.231    9.460
   66.000   91.337    0.420    0.225    9.825
   66.250   88.832    0.409    0.214    9.828
   66.500   86.952    0.405    0.199    9.648
   66.750   87.571    0.399    0.096    9.123
   67.000   89.441    0.397    0.153    8.957
   67.250   90.686    0.425    0.185    8.793
   67.500   91.930    0.424    0.189    8.472
   67.750   95.676    0.425    0.189    8.012
   68.000   96.296    0.432    0.200    7.575
   68.250   96.915    0.448    0.207    7.437
   68.500   98.784    0.468    0.207    7.302
   68.750  100.030    0.478    0.210    7.583
   69.000  100.650    0.477    0.212    8.024
   69.250  100.645    0.457    0.210    8.491
   69.500   99.390    0.432    0.195    8.495
   69.750   97.508    0.442    0.187    8.340
   70.000   96.253    0.462    0.211    8.035
   70.250   93.747    0.470    0.217    7.889
   70.500   91.242    0.463    0.218    7.890
   70.750   89.987    0.463    0.216    7.893
   71.000   91.233    0.461    0.212    8.046
   71.250   95.602    0.454    0.207    8.200
   71.500   98.098    0.451    0.203    8.203
   71.750   99.343    0.443    0.201    8.206
   72.000   98.713    0.436    0.196    8.208
   72.250  101.208    0.431    0.193    8.211
   72.500  103.703    0.423    0.195    8.214
   72.750  101.197    0.428    0.202    8.217
   73.000   98.067    0.439    0.199    8.067
   73.250   93.684    0.457    0.190    7.347
   73.500   91.178    0.457    0.177    6.567
   73.750   89.298    0.449    0.190    5.761
   74.000   88.042    0.469    0.215    5.054
   74.250   89.289    0.487    0.246    4.433
   74.500   91.157    0.490    0.256    4.114
   74.750   93.027    0.486    0.253    4.353
   75.000   95.524    0.474    0.244    4.874
   75.250   96.769    0.461    0.244    5.560
   75.500   97.387    0.447    0.238    5.774
   75.750   96.757    0.435    0.220    6.110
   76.000   94.878    0.442    0.207    6.588
   76.250   92.997    0.444    0.207    7.375
   76.500   82.991    0.444    0.217    7.952
   76.750   75.485    0.442    0.225    7.662
   77.000   72.979    0.437    0.226    7.111
   77.250   73.599    0.416    0.148    6.008
   77.500   75.469    0.425    0.110    4.622
   77.750   77.340    0.449    0.157    3.623
   78.000   72.333    0.497    0.203    3.119
   78.250   69.829    0.521    0.226    2.538
   78.500   71.074    0.543    0.235    2.227
   78.750   72.941    0.553    0.267    2.146
   79.000   72.311    0.543    0.320    2.447
   79.250   72.305    0.508    0.349    2.844
   79.500   70.425    0.508    0.339    3.497
   79.750   65.421    0.499    0.333    4.382
   80.000   63.539    0.487    0.319    6.143
   80.250   65.410    0.480    0.299    7.276
   80.500   67.279    0.483    0.288    6.752
   80.750   71.025    0.485    0.262    5.599
   81.000   76.021    0.471    0.220    4.643
   81.250   82.266    0.486    0.198    3.997
   81.500   89.135    0.514    0.246    3.780
   81.750   90.382    0.525    0.262    3.852
   82.000   88.501    0.514    0.273    4.001
   82.250   87.871    0.492    0.253    4.155
   82.500   88.491    0.497    0.251    4.316
   82.750   89.736    0.498    0.252    4.399
   83.000   90.356    0.491    0.254    4.400
   83.250   90.349    0.483    0.256    4.402
