~VERSION INFORMATION
 VERS.                 2.0:   CWLS LOG ASCII STANDARD -VERSION 2.0
 WRAP.                  NO:   ONE LINE PER DEPTH STEP
~WELL INFORMATION BLOCK
#MNEM.UNIT           DATA                    DESCRIPTION OF MNEMONIC
#---------    -------------------            -------------------------------
# Generated from Intellog Unique Number	CN_94_101/WELL/4990
WELL.         07-29-099-12W4                 : Well_name    - WELL
LOC .         AA/07-29-099-12W4/0            : Location     - LOCATION
UWI .         AA/07-29-099-12W400            : Uwi          - UNIQUE WELL ID
ENTR.         TIM                            : Entered      - ENTERED BY
SRVC.         SCHLUMBERGER                   : Scn          - SERVICE COMPANY
DATE.         08/11/92                       : Date         - LOG DATE
STRT.M        175                            : top_depth    - START DEPTH
STOP.M        395                            : bot_depth    - STOP DEPTH
STEP.M        0.25                           : increment    - STEP LENGTH
 NULL. -999.2500:NULL Value
~CURVE INFORMATION BLOCK
#MNEM UNIT       ERCB CURVE CODE    CURVE DESCRIPTION
#-----------   ------------------   ----------------------------------
DEPT.M        00 001 00 00         : DEPTH        - DEPTH
GR  .API      00 310 00 00         : GR           - GAMMA RAY
ILD .OHMM     00 120 00 00         : RESD         - DEEP RESISTIVITY (DIL)
NPHI.V/V      00 330 00 00         : PHIN         - NEUTRON POROSITY (SANDSTONE)
DPHI.V/V      00 890 00 00         : PHID         - DENSITY POROSITY (SANDSTONE)
~PARAMETER INFORMATION
#MNEM.UNIT           DATA             DESCRIPTION OF MNEMONIC
#---------         -----------     ------------------------------
GL  .M        640.2                : gl           - GROUND LEVEL ELEVATION
EREF.M        646.6                : kb           - ELEVATION OF DEPTH REFERENCE
DATM.M        646.6                : datum        - DATUM ELEVATION
TDD .M        397                  : tdd          - TOTAL DEPTH DRILLER
RUN .         ONE                  : Run          - RUN NUMBER
ENG .         JO                   : Engineer     - RECORDING ENGINEER
WIT .         TIM                  : Witness      - WITNESSED BY
MUD .         GEL                  : Mud_type     - MUD TYPE
MATR.         SANDSTONE            : Logunit      - NEUTRON MATRIX
TMAX.C        40                   : BHT          - MAXIMUM RECORDED TEMPERATURE
BHTD.M        397                  : BHTDEP       - MAXIMUM RECORDED TEMPERATURE
RMT .C        10                   : MDTP         - TEMPERATURE OF MUD
MUDD.KG/M     1050                 : MWT          - MUD DENSITY
NEUT.         1                    : NEUTRON      - NEUTRON TYPE
RESI.         0                    : RESIST       - RESISTIVITY TYPE
RM  .OHMM     0.35                 : RM           - RESISTIVITY OF MUD
RMC .OHMM     0.9                  : RMC          - RESISTIVITY OF MUD CAKE
RMF .OHMM     0.9                  : RMF          - RESISTIVITY OF MUD FILTRATE
SUFT.C        4                    : SUFT         - SURFACE TEMPERATURE
~A  DEPTH       GR     RESD     PHIN     PHID
# ...
  349.000   59.892   20.572    0.409    0.308
  349.250   57.399   23.935    0.381    0.310
  349.500   54.907   26.814    0.358    0.309
  349.750   49.928   31.198    0.340    0.308
  350.000   43.084   36.992    0.329    0.306
  350.250   34.998   44.700    0.324    0.305
  350.500   30.019   49.138    0.322    0.305
  350.750   26.905   56.100    0.320    0.305
  351.000   23.789   60.513    0.323    0.306
  351.250   21.916   58.267    0.328    0.306
  351.500   21.908   53.007    0.337    0.305
  351.750   21.904   50.082    0.346    0.300
  352.000   22.519   53.009    0.356    0.295
  352.250   23.755   65.279    0.347    0.290
  352.500   23.127   78.882    0.320    0.291
  352.750   21.256  106.781    0.320    0.303
  353.000   20.627  141.838    0.324    0.298
  353.250   20.620  178.006    0.325    0.293
  353.500   21.855  171.398    0.328    0.289
  353.750   23.091  155.925    0.331    0.290
  354.000   24.328  117.392    0.337    0.295
  354.250   26.185   83.503    0.346    0.296
  354.500   28.665   53.021    0.351    0.295
  354.750   32.385   45.573    0.349    0.295
  355.000   33.625   38.436    0.347    0.295
  355.250   36.102   28.938    0.343    0.297
  355.500   36.719   22.627    0.349    0.299
  355.750   37.953   20.978    0.351    0.305
  356.000   39.189   22.628    0.352    0.313
  356.250   40.425   23.950    0.366    0.321
  356.500   41.662   26.328    0.384    0.328
  356.750   42.898   28.399    0.394    0.337
  357.000   43.511   31.815    0.396    0.342
  357.250   44.129   33.674    0.403    0.343
  357.500   44.119   34.974    0.406    0.345
  357.750   44.114   34.974    0.406    0.345
  358.000   44.105   34.975    0.405    0.341
  358.250   44.100   34.976    0.401    0.339
  358.500   44.095   34.977    0.399    0.338
  358.750   44.710   34.322    0.395    0.338
  359.000   44.703   34.322    0.395    0.338
  359.250   44.695   34.979    0.398    0.338
  359.500   44.686   35.648    0.403    0.336
  359.750   44.061   36.330    0.405    0.334
  360.000   43.433   38.454    0.409    0.331
  360.250   42.805   40.701    0.408    0.328
  360.500   42.798   43.079    0.404    0.323
  360.750   42.789   41.480    0.404    0.322
  361.000   42.783   39.192    0.406    0.326
  361.250   43.396   37.737    0.404    0.328
  361.500   44.014   35.655    0.400    0.331
  361.750   44.629   35.655    0.399    0.330
  362.000   45.243   34.988    0.403    0.327
  362.250   45.856   35.657    0.399    0.323
  362.500   45.851   36.339    0.393    0.316
  362.750   45.223   37.742    0.388    0.307
  363.000   45.214   37.743    0.375    0.297
  363.250   44.588   39.199    0.361    0.292
  363.500   44.578   38.465    0.351    0.279
  363.750   44.574   33.062    0.333    0.270
  364.000   45.187   30.077    0.375    0.301
  364.250   46.423   21.803    0.396    0.317
  364.500   49.524   20.600    0.407    0.321
  364.750   52.627   18.741    0.408    0.322
  365.000   56.347   17.049    0.408    0.322
  365.250   56.339   15.806    0.409    0.318
  365.500   55.710   14.380    0.409    0.313
  365.750   55.084   12.836    0.408    0.306
  366.000   56.318   11.901    0.396    0.303
  366.250   57.556   11.033    0.391    0.303
  366.500   60.034   10.229    0.389    0.299
  366.750   61.270    9.665    0.393    0.298
  367.000   60.640    9.132    0.398    0.296
  367.250   60.015    9.132    0.403    0.296
  367.500   60.008    9.132    0.408    0.298
  367.750   60.002    9.307    0.405    0.298
  368.000   60.615    9.485    0.398    0.298
  368.250   61.231    9.666    0.389    0.294
  368.500   61.846   10.039    0.384    0.289
  368.750   61.839   10.231    0.384    0.284
  369.000   63.695   10.232    0.383    0.275
  369.250   66.794   10.040    0.375    0.270
  369.500   68.034    9.667    0.366    0.263
  369.750   71.131    9.486    0.365    0.248
  370.000   72.992    9.486    0.387    0.252
  370.250   75.471    9.668    0.408    0.268
  370.500   78.570   10.041    0.422    0.286
  370.750   79.185   10.428    0.417    0.289
  371.000   78.558   11.464    0.412    0.283
  371.250   76.064   12.134    0.413    0.273
  371.500   74.814   13.853    0.414    0.265
  371.750   74.186   15.228    0.412    0.300
  372.000   72.934   18.056    0.403    0.303
  372.250   72.310   20.615    0.398    0.306
  372.500   69.817   23.094    0.397    0.311
  372.750   64.838   25.387    0.406    0.316
  373.000   59.859   25.872    0.400    0.312
  373.250   54.257   24.445    0.392    0.305
  373.500   49.280   21.821    0.392    0.298
  373.750   49.272   21.011    0.401    0.290
  374.000   52.994   19.115    0.404    0.284
  374.250   56.718   18.757    0.402    0.288
  374.500   61.062   18.060    0.393    0.293
  374.750   65.405   17.390    0.390    0.293
  375.000   69.747   17.064    0.384    0.293
  375.250   72.228   16.745    0.378    0.293
  375.500   72.843   16.123    0.380    0.293
  375.750   71.593   16.123    0.389    0.295
  376.000   69.720   15.822    0.412    0.296
  376.250   68.472   15.822    0.409    0.298
  376.500   65.978   16.125    0.402    0.302
  376.750   64.730   17.393    0.391    0.303
  377.000   61.612   18.065    0.388    0.303
  377.250   62.230   17.726    0.394    0.302
  377.500   65.949   16.434    0.402    0.302
  377.750   67.187   15.236    0.401    0.302
  378.000   69.666   14.396    0.393    0.301
  378.250   70.904   14.126    0.399    0.302
  378.500   70.895   13.602    0.401    0.305
  378.750   70.889   13.347    0.391    0.305
  379.000   70.260   13.347    0.396    0.302
  379.250   70.254   13.863    0.407    0.297
  379.500   70.247   14.398    0.404    0.296
  379.750   68.375   15.239    0.396    0.301
  380.000   62.154   17.072    0.391    0.304
  380.250   59.661   18.767    0.397    0.304
  380.500   58.411   20.243    0.406    0.302
  380.750   55.918   20.630    0.398    0.302
  381.000   55.290   19.127    0.384    0.305
  381.250   57.769   18.768    0.369    0.307
  381.500   59.627   17.401    0.354    0.307
  381.750   62.104   16.755    0.343    0.300
  382.000   65.207   15.830    0.335    0.273
  382.250   68.306   15.242    0.329    0.249
  382.500   67.058   14.402    0.324    0.219
  382.750   64.563   14.677    0.299    0.203
  383.000   62.071   16.134    0.207    0.112
  383.250   58.958   21.029    0.227    0.077
  383.500   55.220   27.409    0.222    0.114
  383.750   55.214   27.410    0.242    0.133
  384.000   53.341   26.897    0.411    0.138
  384.250   52.094   26.897    0.403    0.262
  384.500   51.466   27.936    0.393    0.324
  384.750   55.188   30.133    0.395    0.316
  385.000   60.154   25.414    0.406    0.309
  385.250   70.089   18.078    0.408    0.306
  385.500   73.811   16.446    0.402    0.299
  385.750   76.912   14.136    0.397    0.291
  386.000   78.771   12.860    0.398    0.285
  386.250   81.870   11.264    0.401    0.277
  386.500   84.351   10.055    0.401    0.268
  386.750   88.693    8.976    0.400    0.272
  387.000   91.173    8.322    0.378    0.280
  387.250   88.678    8.322    0.386    0.294
  387.500   84.324    8.481    0.395    0.316
  387.750   74.373    8.977    0.400    0.329
  388.000   68.152    9.323    0.400    0.329
  388.250   63.173   10.057    0.398    0.327
  388.500   58.814   10.445    0.397    0.322
  388.750   58.807   10.645    0.405    0.316
  389.000   61.910   10.848    0.409    0.308
  389.250   66.253   10.849    0.415    0.296
  389.500   71.840   10.646    0.411    0.285
  389.750   70.588   10.250    0.400    0.272
  390.000   68.719    9.685    0.383    0.265
  390.250   64.983    8.811    0.399    0.257
  390.500   65.596    8.484    0.421    0.255
  390.750   71.804    8.015    0.440    0.266
  391.000   69.311    7.431    0.435    0.279
  391.250   64.954    7.155    0.433    0.285
  391.500   55.625    7.021    0.444    0.300
  391.750   45.674    6.890    0.457    0.315
  392.000   38.831    6.890    0.447    0.315
  392.250   41.931    6.890    0.414    0.314
