~VERSION INFORMATION
 VERS.                 2.0:   CWLS LOG ASCII STANDARD -VERSION 2.0
 WRAP.                  NO:   ONE LINE PER DEPTH STEP
~WELL INFORMATION BLOCK
#MNEM.UNIT           DATA                    DESCRIPTION OF MNEMONIC
#---------    -------------------            -------------------------------
# Generated from Intellog Unique Number	CN_94_101/WELL/4987
WELL.         06-35-101-14W4                 : Well_name    - WELL
LOC .         AA/06-35-101-14W4/0            : Location     - LOCATION
UWI .         AA/06-35-101-14W400            : Uwi          - UNIQUE WELL ID
ENTR.         TIM                            : Entered      - ENTERED BY
SRVC.         SCHLUMBERGER                   : Scn          - SERVICE COMPANY
DATE.         08/13/92                       : Date         - LOG DATE
STRT.M        370                            : top_depth    - START DEPTH
STOP.M        585                            : bot_depth    - STOP DEPTH
STEP.M        0.25                           : increment    - STEP LENGTH
NULL. -999.2500:NULL Value
~CURVE INFORMATION BLOCK
#MNEM UNIT       ERCB CURVE CODE    CURVE DESCRIPTION
#-----------   ------------------   ----------------------------------
DEPT.M        00 001 00 00         : DEPTH        - DEPTH
GR  .API      00 310 00 00         : GR           - GAMMA RAY
ILD .OHMM     00 120 00 00         : RESD         - DEEP RESISTIVITY (DIL)
NPHI.V/V      00 330 00 00         : PHIN         - NEUTRON POROSITY (SANDSTONE)
DPHI.V/V      00 890 00 00         : PHID         - DENSITY POROSITY (SANDSTONE)
~PARAMETER INFORMATION
#MNEM.UNIT           DATA             DESCRIPTION OF MNEMONIC
#---------         -----------     ------------------------------
GL  .M        788.2                : gl           - GROUND LEVEL ELEVATION
EREF.M        791.46               : kb           - ELEVATION OF DEPTH REFERENCE
DATM.M        791.46               : datum        - DATUM ELEVATION
TDD .M        586                  : tdd          - TOTAL DEPTH DRILLER
RUN .         ONE                  : Run          - RUN NUMBER
ENG .         JO                   : Engineer     - RECORDING ENGINEER
WIT .         TIM                  : Witness      - WITNESSED BY
MUD .         GEL                  : Mud_type     - MUD TYPE
MATR.         SANDSTONE            : Logunit      - NEUTRON MATRIX
TMAX.C        29.5                 : BHT          - MAXIMUM RECORDED TEMPERATURE
BHTD.M        586                  : BHTDEP       - MAXIMUM RECORDED TEMPERATURE
RMT .C        10                   : MDTP         - TEMPERATURE OF MUD
MUDD.KG/M     1120                 : MWT          - MUD DENSITY
NEUT.         1                    : NEUTRON      - NEUTRON TYPE
RESI.         0                    : RESIST       - RESISTIVITY TYPE
RM  .OHMM     7.52                 : RM           - RESISTIVITY OF MUD
RMC .OHMM     7.52                 : RMC          - RESISTIVITY OF MUD CAKE
RMF .OHMM     7.52                 : RMF          - RESISTIVITY OF MUD FILTRATE
SUFT.C        4                    : SUFT         - SURFACE TEMPERATURE
~A  DEPTH       GR     RESD     PHIN     PHID
# ...
  500.500  125.138    2.674    0.520    0.272
  500.750  128.935    2.485    0.519    0.269
  501.000  131.489    2.504    0.522    0.272
  501.250  130.318    2.328    0.527    0.276
  501.500  126.025    2.338    0.533    0.276
  501.750  122.387    2.352    0.536    0.278
  502.000  124.942    2.172    0.538    0.282
  502.250  127.479    2.186    0.542    0.285
  502.500  128.792    2.200    0.552    0.288
  502.750  126.999    2.015    0.562    0.290
  503.000  123.965    1.825    0.570    0.294
  503.250  120.310    1.844    0.588    0.297
  503.500  118.518    1.863    0.576    0.301
  503.750  119.210    2.299    0.555    0.300
  504.000  121.179    2.735    0.533    0.292
  504.250  122.492    3.175    0.515    0.285
  504.500  122.580    3.402    0.499    0.278
  504.750  121.391    3.838    0.484    0.283
  505.000  120.203    3.861    0.474    0.294
  505.250  118.428    4.084    0.464    0.289
  505.500  117.239    4.098    0.451    0.272
  505.750  117.310    4.325    0.439    0.266
  506.000  118.623    4.344    0.438    0.265
  506.250  117.469    4.363    0.437    0.257
  506.500  115.056    4.382    0.435    0.242
  506.750  115.748    4.401    0.445    0.223
  507.000  120.769    4.424    0.468    0.226
  507.250  123.962    4.439    0.485    0.236
  507.500  124.672    4.462    0.501    0.249
  507.750  125.328    4.490    0.500    0.267
  508.000  130.402    4.500    0.490    0.267
  508.250  132.956    4.528    0.485    0.270
  508.500  139.219    4.329    0.481    0.273
  508.750  139.929    4.139    0.476    0.278
  509.000  136.895    3.746    0.466    0.279
  509.250  135.706    3.561    0.456    0.281
  509.500  137.018    3.571    0.460    0.282
  509.750  138.349    3.391    0.490    0.285
  510.000  135.953    3.192    0.511    0.287
  510.250  134.126    3.011    0.527    0.288
  510.500  131.110    3.026    0.530    0.288
  510.750  129.317    2.831    0.528    0.289
  511.000  127.525    2.651    0.524    0.291
  511.250  125.130    2.660    0.522    0.294
  511.500  123.923    2.679    0.525    0.297
  511.750  122.149    2.490    0.525    0.300
  512.000  121.599    2.305    0.519    0.297
  512.250  121.687    2.324    0.517    0.293
  512.500  121.740    2.343    0.517    0.287
  512.750  122.432    2.361    0.515    0.283
  513.000  124.366    2.376    0.521    0.279
  513.250  124.436    2.394    0.530    0.280
  513.500  123.886    2.210    0.535    0.285
  513.750  123.336    2.238    0.542    0.287
  514.000  124.666    2.252    0.532    0.285
  514.250  128.445    2.266    0.515    0.281
  514.500  135.347    2.076    0.507    0.273
  514.750  144.750    2.100    0.504    0.271
  515.000  144.820    2.119    0.504    0.267
  515.250  139.303    2.133    0.504    0.262
  515.500  135.027    2.157    0.497    0.254
  515.750  129.491    2.175    0.490    0.249
  516.000  124.594    2.199    0.493    0.258
  516.250  120.939    2.208    0.507    0.281
  516.500  117.923    2.024    0.517    0.322
  516.750  114.906    1.839    0.554    0.334
  517.000  114.338    1.644    0.557    0.343
  517.250  113.150    1.450    0.592    0.347
  517.500  110.133    1.474    0.607    0.339
  517.750  107.117    1.492    0.629    0.328
  518.000  105.289    1.511    0.623    0.339
  518.250  101.652    1.947    0.579    0.343
  518.500   97.341    2.596    0.556    0.336
  518.750   86.855    3.444    0.522    0.329
  519.000   71.384    4.713    0.415    0.320
  519.250   50.963    6.608    0.388    0.304
  519.500   46.048   14.135    0.366    0.289
  519.750   43.014   17.905    0.363    0.277
  520.000   39.998   21.264    0.365    0.274
  520.250   40.069   22.746    0.368    0.278
  520.500   41.364   22.969    0.371    0.282
  520.750   43.936   22.159    0.376    0.285
  521.000   47.129   21.136    0.382    0.287
  521.250   49.684   19.482    0.384    0.291
  521.500   53.480   16.791    0.385    0.290
  521.750   57.880   12.433    0.384    0.289
  522.000   64.178   11.197    0.387    0.289
  522.250   70.459    9.131    0.398    0.291
  522.500   77.360    6.441    0.413    0.294
  522.750   88.626    4.584    0.430    0.296
  523.000   96.787    3.357    0.460    0.293
  523.250   93.753    2.333    0.482    0.291
  523.500   91.322    2.352    0.490    0.288
  523.750   90.772    2.575    0.482    0.299
  524.000   93.965    2.811    0.457    0.302
  524.250   96.538    2.821    0.445    0.294
  524.500   98.471    3.053    0.446    0.273
  524.750   98.560    3.067    0.451    0.281
  525.000   99.216    2.882    0.462    0.280
  525.250  103.013    2.697    0.466    0.271
  525.500  109.950    2.503    0.469    0.259
  525.750  113.728    2.313    0.470    0.262
  526.000  116.904    2.124    0.474    0.279
  526.250  120.701    1.939    0.483    0.279
  526.500  123.255    1.953    0.485    0.278
  526.750  127.087    1.967    0.501    0.275
  527.000  127.140    1.991    0.502    0.275
  527.250  119.759    2.005    0.495    0.276
  527.500  112.361    2.242    0.467    0.278
  527.750  105.601    2.251    0.457    0.276
  528.000   98.841    2.483    0.438    0.267
  528.250   92.685    2.923    0.427    0.250
  528.500   83.441    3.359    0.419    0.232
  528.750   72.955    4.212    0.418    0.268
  529.000   68.662    4.856    0.415    0.285
  529.250   65.645    5.292    0.419    0.292
  529.500   64.474    5.723    0.422    0.309
  529.750   63.924    6.168    0.428    0.321
  530.000   66.479    6.182    0.429    0.329
  530.250   68.412    6.196    0.431    0.321
  530.500   71.588    6.215    0.430    0.320
  530.750   82.215    6.030    0.429    0.322
  531.000   83.546    5.632    0.426    0.322
  531.250   87.342    5.239    0.424    0.316
  531.500   95.503    4.836    0.419    0.309
  531.750  101.163    4.035    0.416    0.296
  532.000  107.461    3.628    0.417    0.278
  532.250  111.878    3.225    0.448    0.271
  532.500  115.675    2.623    0.476    0.284
  532.750  118.868    2.225    0.497    0.309
  533.000  119.560    2.239    0.504    0.302
  533.250  117.147    2.263    0.525    0.295
  533.500  113.492    2.282    0.532    0.296
  533.750  110.422    2.509    0.551    0.288
  534.000  106.164    2.945    0.559    0.275
  534.250  102.491    3.594    0.497    0.263
  534.500   98.215    3.811    0.474    0.254
  534.750   93.939    4.247    0.446    0.247
  535.000   87.179    5.100    0.441    0.246
  535.250   80.402    5.744    0.428    0.246
  535.500   62.465    7.236    0.423    0.248
  535.750   38.300    7.454    0.424    0.255
  536.000   32.764    7.681    0.417    0.261
  536.250   52.120    7.491    0.382    0.271
  536.500   54.036    6.260    0.362    0.275
  536.750   64.681    5.028    0.311    0.273
  537.000   80.915    4.630    0.342    0.273
  537.250   89.697    3.403    0.369    0.274
  537.500   86.663    3.209    0.383    0.279
  537.750   80.506    2.815    0.405    0.284
  538.000   74.988    2.834    0.413    0.285
  538.250   70.713    2.853    0.415    0.288
  538.500   67.057    3.289    0.415    0.292
  538.750   64.644    3.729    0.415    0.294
  539.000   64.076    3.947    0.408    0.292
  539.250   64.786    4.174    0.403    0.286
  539.500   67.358    3.776    0.393    0.281
  539.750   69.895    3.174    0.389    0.273
  540.000   73.709    2.776    0.393    0.295
  540.250   73.780    2.374    0.394    0.311
  540.500   74.472    1.976    0.396    0.314
  540.750   74.525    1.791    0.396    0.314
  541.000   73.354    1.601    0.397    0.314
  541.250   72.821    1.625    0.397    0.310
  541.500   73.513    1.634    0.398    0.307
  541.750   75.465    1.653    0.399    0.308
  542.000   76.156    1.672    0.399    0.311
  542.250   75.003    1.691    0.400    0.313
  542.500   74.435    1.501    0.401    0.315
  542.750   74.506    1.525    0.401    0.312
  543.000   75.180    1.544    0.400    0.310
  543.250   77.131    1.577    0.399    0.308
  543.500   79.047    1.591    0.396    0.304
  543.750   80.360    1.600    0.393    0.299
