~VERSION INFORMATION
 VERS.                 2.0:   CWLS LOG ASCII STANDARD -VERSION 2.0
 WRAP.                  NO:   ONE LINE PER DEPTH STEP
~WELL INFORMATION BLOCK
#MNEM.UNIT           DATA                    DESCRIPTION OF MNEMONIC
#---------    -------------------            -------------------------------
# Generated from Intellog Unique Number	CN_94_101/WELL/4990
WELL.         07-29-099-12W4                 : Well_name    - WELL
LOC .         AA/07-29-099-12W4/0            : Location     - LOCATION
UWI .         AA/07-29-099-12W400            : Uwi          - UNIQUE WELL ID
ENTR.         TIM                            : Entered      - ENTERED BY
SRVC.         SCHLUMBERGER                   : Scn          - SERVICE COMPANY
DATE.         08/11/92                       : Date         - LOG DATE
STRT.M        175                            : top_depth    - START DEPTH
STOP.M        395                            : bot_depth    - STOP DEPTH
STEP.M        0.25                           : increment    - STEP LENGTH
 NULL. -999.2500:NULL Value
~CURVE INFORMATION BLOCK
#MNEM UNIT       ERCB CURVE CODE    CURVE DESCRIPTION
#-----------   ------------------   ----------------------------------
DEPT.M        00 001 00 00         : DEPTH        - DEPTH
GR  .API      00 310 00 00         : GR           - GAMMA RAY
ILD .OHMM     00 120 00 00         : RESD         - DEEP RESISTIVITY (DIL)
NPHI.V/V      00 330 00 00         : PHIN         - NEUTRON POROSITY (SANDSTONE)
DPHI.V/V      00 890 00 00         : PHID         - DENSITY POROSITY (SANDSTONE)
~PARAMETER INFORMATION
#MNEM.UNIT           DATA             DESCRIPTION OF MNEMONIC
#---------         -----------     ------------------------------
GL  .M        640.2                : gl           - GROUND LEVEL ELEVATION
EREF.M        646.6                : kb           - ELEVATION OF DEPTH REFERENCE
DATM.M        646.6                : datum        - DATUM ELEVATION
TDD .M        397                  : tdd          - TOTAL DEPTH DRILLER
RUN .         ONE                  : Run          - RUN NUMBER
ENG .         JO                   : Engineer     - RECORDING ENGINEER
WIT .         TIM                  : Witness      - WITNESSED BY
MUD .         GEL                  : Mud_type     - MUD TYPE
MATR.         SANDSTONE            : Logunit      - NEUTRON MATRIX
TMAX.C        40                   : BHT          - MAXIMUM RECORDED TEMPERATURE
BHTD.M        397                  : BHTDEP       - MAXIMUM RECORDED TEMPERATURE
RMT .C        10                   : MDTP         - TEMPERATURE OF MUD
MUDD.KG/M     1050                 : MWT          - MUD DENSITY
NEUT.         1                    : NEUTRON      - NEUTRON TYPE
RESI.         0                    : RESIST       - RESISTIVITY TYPE
RM  .OHMM     0.35                 : RM           - RESISTIVITY OF MUD
RMC .OHMM     0.9                  : RMC          - RESISTIVITY OF MUD CAKE
RMF .OHMM     0.9                  : RMF          - RESISTIVITY OF MUD FILTRATE
SUFT.C        4                    : SUFT         - SURFACE TEMPERATURE
~A  DEPTH       GR     RESD     PHIN     PHID
# ...
  218.500  100.118    5.012    0.500    0.290
  218.750  100.733    5.012    0.517    0.290
  219.000  100.103    4.918    0.527    0.288
  219.250  100.717    4.918    0.516    0.282
  219.500  101.955    4.826    0.492    0.271
  219.750  105.676    4.826    0.498    0.260
  220.000  106.914    4.560    0.521    0.258
  220.250  110.634    4.308    0.524    0.261
  220.500  113.733    4.148    0.533    0.266
  220.750  114.352    3.919    0.542    0.265
  221.000  114.966    3.774    0.550    0.263
  221.250  115.581    3.634    0.550    0.268
  221.500  116.194    3.566    0.550    0.273
  221.750  116.809    3.566    0.546    0.276
  222.000  116.800    3.634    0.543    0.277
  222.250  116.797    3.847    0.540    0.268
  222.500  116.169    4.071    0.537    0.257
  222.750  114.917    4.392    0.535    0.247
  223.000  113.669    4.476    0.531    0.237
  223.250  112.417    4.476    0.523    0.241
  223.500  111.168    4.310    0.514    0.252
  223.750  109.916    3.995    0.509    0.260
  224.000  109.290    3.635    0.511    0.267
  224.250  108.040    3.245    0.514    0.275
  224.500  106.790    3.066    0.517    0.279
  224.750  105.539    2.842    0.521    0.282
  225.000  104.290    2.897    0.525    0.286
  225.250  102.419    3.435    0.528    0.292
  225.500   99.928    4.829    0.536    0.300
  225.750   95.571   10.691    0.525    0.314
  226.000   90.592   12.440    0.439    0.333
  226.250   81.884   13.674    0.393    0.383
  226.500   70.069   15.319    0.284    0.405
  226.750   59.496   14.750    0.303    0.414
  227.000   53.893   13.937    0.416    0.419
  227.250   53.268   13.419    0.440    0.429
  227.500   52.018   13.419    0.449    0.435
  227.750   49.522   13.677    0.441    0.436
  228.000   48.892   13.677    0.439    0.431
  228.250   48.887   13.677    0.435    0.425
  228.500   48.878   13.421    0.433    0.423
  228.750   49.495   13.421    0.429    0.424
  229.000   49.490   12.681    0.431    0.428
  229.250   50.724   12.443    0.435    0.435
  229.500   51.339   11.981    0.441    0.441
  229.750   51.954   11.757    0.443    0.434
  230.000   51.949   11.537    0.435    0.429
  230.250   51.940   11.321    0.435    0.421
  230.500   51.935   11.109    0.444    0.386
  230.750   51.307   11.109    0.458    0.347
  231.000   51.300   11.321    0.465    0.338
  231.250   51.293   11.758    0.471    0.336
  231.500   51.286   12.212    0.469    0.334
  231.750   51.278   12.446    0.462    0.338
  232.000   51.273   12.684    0.447    0.343
  232.250   51.886   12.684    0.452    0.348
  232.500   51.879   12.213    0.458    0.352
  232.750   50.631   12.214    0.455    0.357
  233.000   50.001   11.985    0.443    0.363
  233.250   50.616   11.761    0.429    0.375
  233.500   51.852   11.761    0.435    0.377
  233.750   53.708   11.541    0.448    0.370
  234.000   54.326   10.904    0.448    0.356
  234.250   56.802   10.302    0.447    0.356
  234.500   57.420   10.904    0.443    0.355
  234.750   57.413   11.542    0.438    0.350
  235.000   57.407   11.762    0.437    0.327
  235.250   56.778   12.216    0.434    0.326
  235.500   54.907   11.988    0.428    0.337
  235.750   52.414   11.763    0.420    0.350
  236.000   51.164   10.906    0.428    0.346
  236.250   51.156   10.501    0.442    0.341
  236.500   52.394   10.501    0.452    0.338
  236.750   53.628   10.702    0.451    0.342
  237.000   53.623   11.115    0.449    0.345
  237.250   53.617   11.544    0.447    0.347
  237.500   50.501   11.544    0.440    0.348
  237.750   48.631   11.545    0.433    0.348
  238.000   48.624   11.329    0.434    0.353
  238.250   51.725   10.908    0.439    0.360
  238.500   54.201   10.113    0.456    0.360
  238.750   55.440    9.555    0.470    0.355
  239.000   57.298    9.924    0.471    0.346
  239.250   61.019   10.504    0.463    0.329
  239.500   61.010   11.547    0.473    0.308
  239.750   60.383   12.455    0.477    0.312
  240.000   57.271   14.220    0.423    0.328
  240.250   50.426   14.220    0.409    0.343
  240.500   47.931   13.954    0.408    0.364
  240.750   49.168   12.937    0.410    0.372
  241.000   50.404   11.119    0.415    0.367
  241.250   51.638    9.740    0.420    0.362
  241.500   53.498    9.557    0.429    0.361
  241.750   55.977    9.558    0.437    0.362
  242.000   55.970    9.558    0.454    0.365
  242.250   55.964    9.558    0.456    0.365
  242.500   55.957    9.927    0.448    0.361
  242.750   53.464   10.310    0.449    0.349
  243.000   52.214   10.708    0.456    0.345
  243.250   55.313   11.334    0.461    0.350
  243.500   56.553   11.551    0.468    0.357
  243.750   58.409   10.709    0.467    0.364
  244.000   58.404   10.118    0.465    0.364
  244.250   56.531   10.312    0.462    0.335
  244.500   55.281   10.509    0.460    0.333
  244.750   55.276   10.710    0.466    0.335
  245.000   55.891   10.915    0.480    0.333
  245.250   55.261   10.915    0.456    0.322
  245.500   54.632    9.033    0.434    0.307
  245.750   55.247    7.619    0.434    0.286
  246.000   58.348    7.198    0.452    0.293
  246.250   63.315    7.619    0.463    0.303
  246.500   67.658    8.375    0.462    0.308
  246.750   72.624    8.699    0.456    0.311
  247.000   72.617    7.913    0.447    0.313
  247.250   69.501    6.932    0.447    0.315
  247.500   69.496    5.737    0.451    0.315
  247.750   75.704    4.838    0.482    0.308
  248.000   83.777    3.929    0.500    0.292
  248.250   89.364    3.574    0.518    0.273
  248.500   96.815    3.574    0.530    0.255
  248.750  103.644    3.377    0.542    0.253
  249.000  109.853    3.314    0.552    0.257
  249.250  114.196    3.252    0.562    0.259
  249.500  115.433    3.073    0.572    0.260
  249.750  114.801    3.015    0.581    0.259
  250.000  114.798    2.959    0.586    0.258
  250.250  114.791    2.903    0.590    0.259
  250.500  115.404    2.959    0.576    0.264
  250.750  115.399    2.959    0.566    0.267
  251.000  117.257    3.073    0.553    0.272
  251.250  117.871    3.192    0.538    0.274
  251.500  115.377    3.378    0.527    0.272
  251.750  114.129    3.575    0.532    0.269
  252.000  112.254    3.644    0.543    0.263
  252.250  112.251    3.714    0.553    0.255
  252.500  112.244    3.644    0.547    0.250
  252.750  113.477    3.443    0.534    0.248
  253.000  114.095    3.073    0.528    0.252
  253.250  115.331    2.849    0.529    0.257
  253.500  117.187    2.692    0.533    0.269
  253.750  119.045    2.496    0.544    0.274
  254.000  119.659    2.449    0.561    0.282
  254.250  118.410    2.358    0.590    0.285
  254.500  117.158    2.358    0.592    0.295
  254.750  115.912    2.314    0.577    0.306
  255.000  114.662    2.314    0.584    0.311
  255.250  114.034    2.314    0.595    0.312
  255.500  114.025    2.314    0.601    0.311
  255.750  114.020    2.359    0.605    0.310
  256.000  114.010    2.404    0.603    0.306
  256.250  113.382    2.404    0.595    0.300
  256.500  113.375    2.450    0.589    0.292
  256.750  113.366    2.544    0.581    0.290
  257.000  113.983    2.593    0.576    0.285
  257.250  113.976    2.643    0.566    0.283
  257.500  114.591    2.693    0.556    0.285
  257.750  113.964    2.693    0.552    0.292
  258.000  113.957    2.693    0.561    0.299
  258.250  113.951    2.643    0.566    0.297
  258.500  115.807    2.643    0.563    0.291
  258.750  117.663    2.693    0.569    0.290
  259.000  118.281    2.745    0.577    0.290
  259.250  117.031    2.798    0.574    0.296
  259.500  115.160    2.851    0.546    0.297
  259.750  113.285    2.798    0.531    0.300
  260.000  112.658    2.745    0.531    0.296
  260.250  112.030    2.745    0.533    0.294
  260.500  109.536    2.851    0.531    0.287
  260.750  108.289    3.076    0.537    0.281
  261.000  106.418    3.255    0.542    0.278
  261.250  103.923    3.647    0.541    0.281
  261.500  102.052    4.085    0.526    0.280
  261.750  100.179    4.664    0.512    0.273
