~VERSION INFORMATION
 VERS.                 2.0:   CWLS LOG ASCII STANDARD -VERSION 2.0
 WRAP.                  NO:   ONE LINE PER DEPTH STEP
~WELL INFORMATION BLOCK
#MNEM.UNIT           DATA                    DESCRIPTION OF MNEMONIC
#---------    -------------------            -------------------------------
# Generated from Intellog Unique Number	CN_94_101/WELL/3555
NULL.         -999.25                        : NULL VALUE	
WELL.         96-84-0003                     : Well_name    - WELL              
LOC .         05-01-096-11W4                 : Location     - LOCATION          
UWI .         AA/05-01-096-11W400            : Uwi          - UNIQUE WELL ID    
ENTR.         JOETTE                         : Entered      - ENTERED BY        
SRVC.         SCHLUMBERGER                   : Scn          - SERVICE COMPANY   
DATE.         09 MAR 84                      : Date         - LOG DATE          
STRT.M        0                              : top_depth    - START DEPTH       
STOP.M        80                             : bot_depth    - STOP DEPTH        
STEP.M        0.25                           : increment    - STEP LENGTH       
~CURVE INFORMATION BLOCK
#MNEM UNIT       ERCB CURVE CODE    CURVE DESCRIPTION
#-----------   ------------------   ----------------------------------
DEPT.M        00 001 00 00         : DEPTH        - DEPTH                       
GR  .API      00 310 00 00         : GR           - GAMMA RAY                   
ILD .OHMM     00 120 00 00         : RESD         - DEEP RESISTIVITY (DIL)      
NPHI.V/V      00 330 00 00         : PHIN         - NEUTRON POROSITY (SANDSTONE)
DPHI.V/V      00 890 00 00         : PHID         - DENSITY POROSITY (SANDSTONE)
~PARAMETER INFORMATION       
#MNEM.UNIT           DATA             DESCRIPTION OF MNEMONIC
#---------         -----------     ------------------------------
GL  .M        0                    : gl           - GROUND LEVEL ELEVATION      
EREF.M        0                    : kb           - ELEVATION OF DEPTH REFERENCE
DATM.M        0                    : datum        - DATUM ELEVATION             
TDD .M        125                  : tdd          - TOTAL DEPTH DRILLER         
RUN .         ONE                  : Run          - RUN NUMBER                  
ENG .         JO                   : Engineer     - RECORDING ENGINEER          
WIT .         TIM                  : Witness      - WITNESSED BY                
MUD .         GEL                  : Mud_type     - MUD TYPE                    
MATR.         SANDSTONE            : Logunit      - NEUTRON MATRIX              
TMAX.C        7                    : BHT          - MAXIMUM RECORDED TEMPERATURE
BHTD.M        82.25                : BHTDEP       - MAXIMUM RECORDED TEMPERATURE
RMT .C        7                    : MDTP         - TEMPERATURE OF MUD          
MUDD.KG/M     1080                 : MWT          - MUD DENSITY                 
NEUT.         1                    : NEUTRON      - NEUTRON TYPE                
RESI.         0                    : RESIST       - RESISTIVITY TYPE            
RM  .OHMM     13                   : RM           - RESISTIVITY OF MUD          
RMC .OHMM     13                   : RMC          - RESISTIVITY OF MUD CAKE     
RMF .OHMM     13                   : RMF          - RESISTIVITY OF MUD FILTRATE 
SUFT.C        4                    : SUFT         - SURFACE TEMPERATURE         
~A  DEPTH       GR     RESD     PHIN     PHID
    0.000  191.966    0.272    0.601    0.412
    0.250  195.935    0.301    0.624    0.409
    0.500  191.690    0.326    0.636    0.406
    0.750  180.593    0.361    0.643    0.406
    1.000  158.206    0.438    0.655    0.405
    1.250  176.502    0.504    0.660    0.404
    1.500  185.415    0.546    0.669    0.404
    1.750  188.722    0.603    0.691    0.403
    2.000  228.235    0.706    0.695    0.402
    2.250  217.138    0.766    0.702    0.400
    2.500  167.889    0.897    0.700    0.398
    2.750   58.025    0.990    0.697    0.396
    3.000   58.179    1.159    0.694    0.393
    3.250   59.579    1.330    0.687    0.387
    3.500   51.596    2.192    0.656    0.384
    3.750   80.520   15.601    0.607    0.375
    4.000   99.438   48.119    0.517    0.360
    4.250  108.974   69.368    0.504    0.540
    4.500  110.412   89.270    0.553    0.354
    4.750   95.539  110.616    0.474    0.343
    5.000   97.562  134.497    0.462    0.317
    5.250  115.235   87.368    0.466    0.312
    5.500  117.257   78.285    0.470    0.321
    5.750  129.285   83.379    0.497    0.313
    6.000  110.052   76.138    0.433    0.295
    6.250   95.840   67.028    0.451    0.291
    6.500  112.928   60.061    0.467    0.286
    6.750  118.027   54.914    0.469    0.275
    7.000  129.432   41.501    0.503    0.264
    7.250  102.100   59.828    0.495    0.261
    7.500  108.522   96.739    0.477    0.260
    7.750  123.664   71.740    0.409    0.266
    8.000  106.923   56.308    0.439    0.262
    8.250  108.984   47.730    0.506    0.250
    8.500  112.875   43.585    0.462    0.253
    8.750  104.893   40.663    0.441    0.261
    9.000   99.440   37.888    0.471    0.260
    9.250   95.818   39.597    0.463    0.258
    9.500  100.371   39.001    0.467    0.261
    9.750  105.547   32.400    0.456    0.248
   10.000  111.930   30.727    0.452    0.235
   10.250  112.084   34.724    0.473    0.244
   10.500  111.615   36.154    0.507    0.304
   10.750  108.031   30.685    0.496    0.251
   11.000  121.305   32.599    0.460    0.238
   11.250  112.700   34.677    0.440    0.262
   11.500  107.247   33.557    0.437    0.256
   11.750  114.915   31.865    0.421    0.242
   12.000  110.670   28.052    0.370    0.240
   12.250  102.726   25.136    0.438    0.248
   12.500  120.398   25.777    0.476    0.248
   12.750  118.645   26.940    0.467    0.245
   13.000  105.679   28.656    0.457    0.268
   13.250  105.210   27.245    0.452    0.281
   13.500  111.009   28.367    0.446    0.284
   13.750  116.146   30.250    0.460    0.254
   14.000  107.541   32.752    0.451    0.263
   14.250  102.088   33.503    0.440    0.287
   14.500  113.493   28.435    0.458    0.286
   14.750  110.533   30.825    0.447    0.264
   15.000  113.840   33.457    0.438    0.266
   15.250  110.218   34.879    0.459    0.240
   15.500  110.372   37.101    0.429    0.236
   15.750  114.263   33.964    0.420    0.242
   16.000  106.942   35.452    0.450    0.267
   16.250  110.249   34.962    0.452    0.278
   16.500  107.250   34.479    0.462    0.278
   16.750  103.005   35.359    0.444    0.280
   17.000   95.684   36.124    0.466    0.285
   17.250  100.198   37.754    0.482    0.291
   17.500  105.997   38.620    0.452    0.270
   17.750  109.265   40.412    0.450    0.289
   18.000  116.933   36.856    0.466    0.301
   18.250   98.322   27.366    0.451    0.310
   18.500  101.006   32.039    0.405    0.275
   18.750   99.253   38.956    0.460    0.247
   19.000   78.151   41.438    0.463    0.283
   19.250   66.469   52.261    0.431    0.295
   19.500   73.475   56.725    0.433    0.251
   19.750   83.011   59.208    0.413    0.247
   20.000   98.192   50.126    0.434    0.261
   20.250   88.964   44.915    0.465    0.271
   20.500   91.609   42.650    0.469    0.281
   20.750  109.905   40.499    0.465    0.289
   21.000  121.310   33.055    0.478    0.307
   21.250   85.181   31.947    0.503    0.325
   21.500   65.324   98.537    0.483    0.298
   21.750   84.281   45.476    0.377    0.247
   22.000   87.550   90.546    0.449    0.239
   22.250   82.682   75.314    0.485    0.268
   22.500   90.349   65.060    0.413    0.277
   22.750  102.377   53.035    0.384    0.248
   23.000  108.799   44.899    0.422    0.238
   23.250   94.587   48.673    0.406    0.234
   23.500   98.478   81.737    0.419    0.230
   23.750   98.632   71.957    0.430    0.258
   24.000   89.404   57.557    0.439    0.262
   24.250   85.198   58.952    0.390    0.242
   24.500   98.471   70.335    0.381    0.227
   24.750   94.926   37.766    0.433    0.222
   25.000   93.796   40.172    0.464    0.238
   25.250   92.704   40.374    0.440    0.246
   25.500   99.087   40.577    0.432    0.242
   25.750  108.000   40.067    0.417    0.256
   26.000  108.154   37.998    0.468    0.262
   26.250  102.079   36.082    0.453    0.252
   26.500  107.216   27.269    0.481    0.259
   26.750  109.277   35.763    0.489    0.268
   27.000   96.934   36.629    0.442    0.293
   27.250   98.334   29.299    0.421    0.291
   27.500   99.111   42.238    0.389    0.291
   27.750   79.255   47.613    0.346    0.299
   28.000   43.748  161.428    0.365    0.332
   28.250   22.646  309.477    0.389    0.327
   28.500   30.314  383.477    0.412    0.316
   28.750   31.090  475.171    0.377    0.304
   29.000   26.884  495.978    0.378    0.299
   29.250   20.809  569.776    0.389    0.291
   29.500   21.586  562.612    0.406    0.298
   29.750   27.346  534.239    0.374    0.289
   30.000   31.276  526.861    0.387    0.275
   30.250   27.692  549.242    0.406    0.301
   30.500   33.452  595.401    0.427    0.307
   30.750   34.891  609.824    0.416    0.291
   31.000   29.400  674.547    0.388    0.287
   31.250   24.570  804.802    0.426    0.304
   31.500   20.325  872.440    0.377    0.295
   31.750   24.840  767.094    0.377    0.285
   32.000   33.130  602.086    0.373    0.288
   32.250   16.388 1070.140    0.402    0.306
   32.500   10.936 1252.850    0.365    0.304
   32.750   12.336 1358.140    0.360    0.284
   33.000   18.134 1502.290    0.359    0.292
   33.250   22.064 1093.190    0.380    0.306
   33.500   17.819  892.245    0.392    0.305
   33.750   15.520  799.492    0.400    0.292
   34.000   15.674  702.955    0.396    0.294
   34.250   17.035  541.403    0.381    0.304
   34.500   15.320  259.502    0.389    0.313
   34.750   20.458   34.141    0.413    0.232
   35.000  110.035    9.598    0.392    0.223
   35.250  138.958    9.125    0.442    0.281
   35.500  142.227    9.335    0.517    0.297
   35.750  141.135    9.768    0.570    0.292
   36.000  141.327    9.633    0.487    0.289
   36.250  135.252    9.681    0.553    0.307
   36.500  145.996   10.311    0.553    0.330
   36.750  140.505   10.535    0.573    0.325
   37.000  144.435    8.751    0.544    0.360
   37.250  118.934    7.009    0.625    0.430
   37.500  114.727   10.494    0.663    0.466
   37.750  121.772   12.759    0.664    0.490
   38.000  116.942    9.827    0.677    0.344
   38.250  123.325    8.320    0.513    0.292
   38.500  119.119   12.238    0.556    0.274
   38.750  126.748    9.425    0.458    0.230
   39.000  132.546    8.456    0.519    0.226
   39.250  115.843    9.178    0.459    0.224
   39.500  110.975   10.531    0.422    0.252
   39.750  119.888    9.641    0.440    0.281
   40.000  126.933    9.306    0.486    0.298
   40.250  124.595    9.531    0.510    0.327
   40.500  132.224   10.164    0.514    0.302
   40.750  128.018   10.609    0.522    0.227
   41.000  108.161   15.275    0.533    0.222
   41.250   82.037   25.171    0.413    0.220
   41.500   65.957   29.994    0.353    0.267
   41.750   55.483   33.811    0.352    0.271
   42.000   46.255   36.011    0.331    0.261
   42.250   55.168   32.267    0.355    0.245
   42.500   62.835   35.023    0.366    0.238
   42.750   61.159   38.691    0.351    0.245
   43.000   63.143   32.142    0.317    0.211
   43.250   62.674   29.987    0.349    0.193
