~VERSION INFORMATION
 VERS.                 2.0:   CWLS LOG ASCII STANDARD -VERSION 2.0
 WRAP.                  NO:   ONE LINE PER DEPTH STEP
~WELL INFORMATION BLOCK
#MNEM.UNIT           DATA                    DESCRIPTION OF MNEMONIC
#---------    -------------------            -------------------------------
# Generated from Intellog Unique Number	CX_WELLS/WELL/1149
WELL.         09-28-090-10W4                 : Well_name    - WELL
LOC .         AA/09-28-090-10W4/0            : Location     - LOCATION
UWI .         AA/09-28-090-10W400            : Uwi          - UNIQUE WELL ID
ENTR.         DW                             : Entered      - ENTERED BY
SRVC.         SCHLUMBERGER                   : Scn          - SERVICE COMPANY
STRT.M        10                             : top_depth    - START DEPTH
STOP.M        109.75                         : bot_depth    - STOP DEPTH
STEP.M        0.25                           : increment    - STEP LENGTH
 NULL. -999.2500:NULL Value
~CURVE INFORMATION BLOCK
#MNEM UNIT       ERCB CURVE CODE    CURVE DESCRIPTION
#-----------   ------------------   ----------------------------------
DEPT.M        00 001 00 00         : DEPTH        - DEPTH
GR  .API      00 310 00 00         : GR           - GAMMA RAY
DPHI.V/V      00 890 00 00         : PHID         - DENSITY POROSITY (SANDSTONE)
NPHI.V/V      00 330 00 00         : PHIN         - NEUTRON POROSITY (SANDSTONE)
ILD .OHMM     00 120 00 00         : RESD         - DEEP RESISTIVITY (DIL)
~PARAMETER INFORMATION
#MNEM.UNIT           DATA             DESCRIPTION OF MNEMONIC
#---------         -----------     ------------------------------
GL  .M        350.83               : gl           - GROUND LEVEL ELEVATION
EREF.M        10                   : kb           - ELEVATION OF DEPTH REFERENCE
DATM.M        350.83               : datum        - DATUM ELEVATION
TDD .M        115                  : tdd          - TOTAL DEPTH DRILLER
RUN .         ONE                  : Run          - RUN NUMBER
ENG .         BILL                 : Engineer     - RECORDING ENGINEER
WIT .         JIM                  : Witness      - WITNESSED BY
MUD .         GEL                  : Mud_type     - MUD TYPE
MATR.         SANDSTONE            : Logunit      - NEUTRON MATRIX
TMAX.C        5.5                  : BHT          - MAXIMUM RECORDED TEMPERATURE
BHTD.M        115                  : BHTDEP       - MAXIMUM RECORDED TEMPERATURE
MATR.         1                    : LOGUNIT      - NEUTRON MATRIX
RMT .C        25                   : MDTP         - TEMPERATURE OF MUD
NEUT.         1                    : NEUTRON      - NEUTRON TYPE
RESI.         0                    : RESIST       - RESISTIVITY TYPE
RMC .OHMM     0.25                 : RMC          - RESISTIVITY OF MUD CAKE
RMF .OHMM     0.25                 : RMF          - RESISTIVITY OF MUD FILTRATE
SUFT.C        4                    : SUFT         - SURFACE TEMPERATURE
~A  DEPTH       GR     PHID     PHIN     RESD
# ...
   53.500  116.733    0.219    0.458    5.139
   53.750  105.940    0.232    0.455    4.800
   54.000   94.441    0.224    0.515    4.654
   54.250   89.308    0.215    0.448    4.600
   54.500   92.012    0.200    0.372    4.728
   54.750   93.534    0.188    0.424    5.485
   55.000   88.851    0.217    0.437    6.596
   55.250   88.531    0.240    0.451    6.839
   55.500   93.165    0.246    0.478    6.744
   55.750   87.714    0.239    0.473    5.935
   56.000   84.773    0.234    0.454    4.320
   56.250   92.280    0.241    0.444    5.501
   56.500   90.614    0.247    0.417   11.282
   56.750   85.694    0.230    0.398   13.729
   57.000   83.381    0.222    0.420   14.169
   57.250   84.707    0.224    0.429   14.755
   57.500   87.723    0.232    0.417   13.787
   57.750   91.525    0.241    0.416   10.746
   58.000   92.366    0.237    0.424    8.806
   58.250   84.345    0.231    0.433    9.458
   58.500   90.870    0.236    0.429   13.369
   58.750   84.650    0.240    0.446   14.859
   59.000   76.536    0.238    0.484   10.967
   59.250   86.161    0.243    0.484    9.764
   59.500   89.765    0.244    0.440   16.569
   59.750   87.613    0.201    0.439   17.145
   60.000   86.299    0.182    0.414   15.921
   60.250   86.668    0.195    0.396   13.599
   60.500   83.542    0.219    0.381   11.595
   60.750   74.955    0.243    0.353    8.701
   61.000   68.073    0.250    0.361   10.711
   61.250   69.469    0.249    0.398   35.655
   61.500   67.459    0.249    0.420   29.173
   61.750   53.917    0.263    0.423    3.296
   62.000   39.819    0.282    0.414   64.009
   62.250   35.784    0.291    0.402  147.210
   62.500   38.348    0.289    0.396   90.923
   62.750   45.250    0.286    0.399   71.377
   63.000   46.992    0.288    0.424   94.937
   63.250   46.463    0.290    0.459   68.590
   63.500   41.778    0.288    0.454   83.541
   63.750   36.398    0.285    0.419  134.334
   64.000   42.565    0.283    0.428   75.255
   64.250   51.658    0.282    0.461   78.204
   64.500   54.459    0.285    0.428   22.738
   64.750   49.803    0.296    0.429  102.111
   65.000   40.649    0.307    0.448  215.792
   65.250   33.967    0.307    0.415  189.420
   65.500   35.663    0.301    0.384  158.694
   65.750   40.179    0.295    0.387  106.018
   66.000   44.092    0.289    0.433   48.251
   66.250   45.970    0.286    0.467  106.501
   66.500   38.463    0.283    0.449  187.812
   66.750   23.975    0.282    0.402  162.058
   67.000   17.037    0.287    0.380  153.039
   67.250   16.962    0.294    0.410  269.917
   67.500   20.711    0.294    0.424  228.725
   67.750   23.816    0.293    0.389  148.679
   68.000   24.894    0.297    0.372  216.198
   68.250   26.121    0.300    0.393  274.509
   68.500   28.610    0.299    0.385  200.149
   68.750   30.116    0.297    0.374  351.907
   69.000   31.375    0.292    0.401  409.302
   69.250   33.392    0.289    0.398  338.733
   69.500   36.117    0.288    0.379  211.511
   69.750   36.227    0.287    0.393  177.310
   70.000   31.615    0.290    0.417  342.224
   70.250   28.702    0.300    0.432  365.966
   70.500   27.416    0.302    0.432  350.458
   70.750   23.814    0.296    0.430  335.358
   71.000   20.620    0.299    0.446  323.641
   71.250   22.545    0.306    0.460  324.284
   71.500   24.121    0.298    0.435  305.705
   71.750   16.345    0.304    0.410  246.623
   72.000   17.108    0.322    0.401  148.139
   72.250   22.644    0.332    0.420  106.283
   72.500   29.348    0.313    0.455   99.992
   72.750   36.090    0.287    0.482  150.390
   73.000   35.762    0.294    0.480  294.619
   73.250   30.376    0.307    0.438  261.610
   73.500   22.480    0.307    0.395  215.276
   73.750   21.045    0.304    0.402  180.737
   74.000   23.742    0.303    0.430  191.661
   74.250   24.023    0.301    0.432  285.333
   74.500   23.285    0.301    0.428  343.806
   74.750   21.168    0.299    0.427  278.143
   75.000   18.820    0.298    0.423  319.121
   75.250   17.158    0.297    0.408  382.639
   75.500   16.476    0.295    0.393  368.337
   75.750   16.592    0.289    0.387  314.953
   76.000   16.963    0.281    0.388  268.641
   76.250   17.333    0.283    0.409  240.407
   76.500   18.636    0.293    0.408  171.521
   76.750   20.327    0.297    0.402  184.279
   77.000   30.571    0.296    0.404  171.998
   77.250   47.772    0.285    0.407   74.151
   77.500   59.533    0.262    0.412   74.882
   77.750   69.685    0.270    0.423   78.334
   78.000   56.024    0.290    0.420   62.872
   78.250   36.143    0.302    0.414  179.055
   78.500   28.582    0.302    0.412  267.152
   78.750   28.674    0.300    0.425  172.857
   79.000   29.176    0.303    0.457  173.786
   79.250   34.489    0.306    0.462  482.135
   79.500   39.779    0.307    0.460  688.969
   79.750   37.341    0.306    0.417  692.557
   80.000   32.069    0.310    0.402  596.886
   80.250   30.114    0.296    0.443  400.822
   80.500   29.081    0.252    0.431  167.595
   80.750   30.835    0.254    0.397  202.418
   81.000   33.531    0.265    0.382  196.199
   81.250   37.839    0.280    0.375  166.763
   81.500   44.486    0.261    0.366  157.913
   81.750   52.209    0.225    0.356  105.512
   82.000   56.125    0.248    0.359   25.880
   82.250   50.077    0.274    0.396   18.236
   82.500   44.166    0.288    0.420  274.935
   82.750   39.186    0.288    0.415  372.184
   83.000   37.034    0.293    0.410  240.289
   83.250   35.529    0.275    0.396  131.575
   83.500   39.962    0.210    0.351   61.145
   83.750   73.113    0.216    0.358   29.132
   84.000   68.993    0.260    0.398    3.407
   84.250   49.214    0.296    0.450   47.519
   84.500   43.962    0.315    0.483   77.370
   84.750   51.971    0.306    0.478   33.394
   85.000   65.791    0.252    0.461   21.841
   85.250   68.957    0.201    0.439   19.008
   85.500   78.568    0.214    0.416   17.915
   85.750   82.640    0.243    0.420   13.569
   86.000   77.062    0.267    0.437    6.452
   86.250   66.722    0.307    0.438   22.101
   86.500   55.198    0.346    0.435   57.911
   86.750   62.410    0.342    0.457   37.140
   87.000   68.414    0.308    0.468   20.578
   87.250   75.576    0.284    0.458   17.944
   87.500   87.249    0.255    0.442   15.791
   87.750   93.915    0.227    0.433   13.660
   88.000   89.666    0.248    0.440   11.222
   88.250   77.984    0.269    0.460   10.605
   88.500   56.340    0.303    0.490   10.799
   88.750   61.149    0.271    0.537   15.728
   89.000   77.930    0.223    0.492   17.511
   89.250   76.501    0.232    0.387   11.866
   89.500   75.986    0.244    0.412   10.618
   89.750   86.844    0.253    0.457   11.997
   90.000   89.643    0.271    0.477    6.518
   90.250   69.012    0.284    0.435  105.904
   90.500   45.715    0.289    0.412  179.685
   90.750   40.926    0.300    0.444  124.419
   91.000   45.003    0.318    0.453   93.783
   91.250   49.527    0.326    0.460   69.055
   91.500   54.109    0.336    0.458   36.075
   91.750   57.910    0.321    0.455  136.028
   92.000   59.921    0.303    0.455  215.058
   92.250   60.577    0.308    0.445  148.698
   92.500   61.579    0.309    0.429  109.462
   92.750   62.352    0.304    0.435   59.590
   93.000   52.960    0.300    0.449   36.058
   93.250   41.451    0.310    0.459   82.373
   93.500   38.459    0.325    0.443  111.488
   93.750   46.854    0.320    0.410   49.151
   94.000   54.053    0.295    0.404   40.526
   94.250   38.261    0.297    0.415  247.777
   94.500   39.214    0.311    0.438  276.889
   94.750   52.817    0.323    0.452  200.455
   95.000   75.999    0.314    0.446  122.786
   95.250   88.162    0.290    0.433   45.620
   95.500   60.771    0.282    0.424   24.772
   95.750   46.584    0.286    0.415   16.044
   96.000   44.943    0.299    0.456  104.595
   96.250   41.896    0.317    0.492  117.944
   96.500   37.011    0.285    0.462   63.569
   96.750   32.481    0.228    0.401   57.553
