~VERSION INFORMATION
 VERS.                 2.0:   CWLS LOG ASCII STANDARD -VERSION 2.0
 WRAP.                  NO:   ONE LINE PER DEPTH STEP
~WELL INFORMATION BLOCK
#MNEM.UNIT           DATA                    DESCRIPTION OF MNEMONIC
#---------    -------------------            -------------------------------
# Generated from Intellog Unique Number	CC_88_90/WELL/3137
WELL.         TEXACO CANADA                  : Well_name    - WELL
LOC .         AD/05-15-088-08W4/0            : Location     - LOCATION
UWI .         AD/05-15-088-08W400            : Uwi          - UNIQUE WELL ID
ENTR.         JOETTE                         : Entered      - ENTERED BY
SRVC.         SCHLUMBERGER                   : Scn          - SERVICE COMPANY
DATE.         02/26/92                       : Date         - LOG DATE
STRT.M        25                             : top_depth    - START DEPTH
STOP.M        143                            : bot_depth    - STOP DEPTH
STEP.M        0.25                           : increment    - STEP LENGTH
 NULL. -999.2500:NULL Value
~CURVE INFORMATION BLOCK
#MNEM UNIT       ERCB CURVE CODE    CURVE DESCRIPTION
#-----------   ------------------   ----------------------------------
DEPT.M        00 001 00 00         : DEPTH        - DEPTH
ILD .OHMM     00 120 00 00         : RESD         - DEEP RESISTIVITY (DIL)
CALI.MM       00 280 01 00         : CAL          - CALIPER
NPHI.V/V      00 330 00 00         : PHIN         - NEUTRON POROSITY (SANDSTONE)
DPHI.V/V      00 890 00 00         : PHID         - DENSITY POROSITY (SANDSTONE)
GR  .API      00 310 00 00         : GR           - GAMMA RAY
~PARAMETER INFORMATION
#MNEM.UNIT           DATA             DESCRIPTION OF MNEMONIC
#---------         -----------     ------------------------------
GL  .M        385.51               : gl           - GROUND LEVEL ELEVATION
EREF.M        387.34               : kb           - ELEVATION OF DEPTH REFERENCE
DATM.M        387.34               : datum        - DATUM ELEVATION
TDD .M        145.69               : tdd          - TOTAL DEPTH DRILLER
RUN .         ONE                  : Run          - RUN NUMBER
ENG .         JO                   : Engineer     - RECORDING ENGINEER
WIT .         TIM                  : Witness      - WITNESSED BY
MUD .         GEL                  : Mud_type     - MUD TYPE
MATR.         SANDSTONE            : Logunit      - NEUTRON MATRIX
TMAX.C        10                   : BHT          - MAXIMUM RECORDED TEMPERATURE
BHTD.M        145.69               : BHTDEP       - MAXIMUM RECORDED TEMPERATURE
RMT .C        17                   : MDTP         - TEMPERATURE OF MUD
MUDD.KG/M     1220                 : MWT          - MUD DENSITY
NEUT.         1                    : NEUTRON      - NEUTRON TYPE
RESI.         0                    : RESIST       - RESISTIVITY TYPE
RM  .OHMM     2.56                 : RM           - RESISTIVITY OF MUD
RMC .OHMM     2.56                 : RMC          - RESISTIVITY OF MUD CAKE
RMF .OHMM     2.56                 : RMF          - RESISTIVITY OF MUD FILTRATE
SUFT.C        4                    : SUFT         - SURFACE TEMPERATURE
~A  DEPTH     RESD      CAL     PHIN     PHID       GR
# ...
   61.500   10.182  193.529    0.400    0.159   84.798
   61.750    9.097  184.521    0.389    0.184   82.392
   62.000    7.827  187.502    0.425    0.183   79.986
   62.250    6.736  195.479    0.461    0.218   78.801
   62.500    5.906  207.450    0.519    0.272   78.227
   62.750    5.177  199.444    0.572    0.308   77.671
   63.000    3.232  191.430    0.586    0.331   78.317
   63.250    2.781  194.412    0.552    0.346   80.796
   63.500    2.439  195.387    0.543    0.329   83.265
   63.750    2.732  192.377    0.538    0.314   86.965
   64.000    3.240  188.368    0.508    0.297   87.611
   64.250    3.771  186.350    0.487    0.282   86.426
   64.500    4.307  187.333    0.456    0.277   84.029
   64.750    4.475  189.315    0.441    0.270   82.844
   65.000    4.394  190.298    0.435    0.258   82.270
   65.250    4.567  190.278    0.464    0.259   81.085
   65.500    4.928  190.270    0.467    0.278   79.900
   65.750    5.521  190.254    0.442    0.278   79.326
   66.000    6.548  187.232    0.428    0.279   78.751
   66.250    7.477  183.219    0.419    0.276   78.788
   66.500    6.681  185.197    0.428    0.222   80.054
   66.750    5.642  187.188    0.423    0.206   81.922
   67.000    4.334  187.172    0.430    0.192   84.391
   67.250    4.098  184.158    0.494    0.182   86.870
   67.500    3.875  197.131    0.516    0.218   87.525
   67.750    3.528  204.106    0.540    0.247   87.570
   68.000    3.214  205.089    0.532    0.279   88.217
   68.250    3.096  207.071    0.526    0.297   88.855
   68.500    2.983  209.053    0.525    0.282   89.511
   68.750    2.874  200.044    0.511    0.302   90.157
   69.000    2.876  205.024    0.516    0.317   90.804
   69.250    2.878  203.006    0.525    0.306   91.460
   69.500    2.880  202.994    0.525    0.294   91.487
   69.750    2.881  198.981    0.520    0.296   91.523
   70.000    2.884  205.955    0.531    0.296   91.559
   70.250    2.940  201.946    0.525    0.293   91.596
   70.500    3.233  190.939    0.513    0.296   91.632
   70.750    3.623  193.920    0.505    0.300   91.668
   71.000    4.298  194.895    0.482    0.283   91.704
   71.250    4.221  191.886    0.469    0.257   88.688
   71.500    4.066  187.873    0.483    0.252   83.839
   71.750    3.993  183.860    0.470    0.251   78.991
   72.000    4.308  183.844    0.448    0.256   75.364
   72.250    5.109  183.824    0.397    0.234   69.905
   72.500    7.045  183.807    0.348    0.193   66.898
   72.750    7.602  181.793    0.325    0.155   68.155
   73.000   11.967  178.775    0.323    0.204   69.412
   73.250   13.160  176.765    0.336    0.240   71.280
   73.500   14.473  174.750    0.331    0.289   71.927
   73.750   13.948  173.735    0.326    0.292   72.574
   74.000   13.438  172.716    0.330    0.291   73.840
   74.250   13.195  172.703    0.327    0.286   75.097
   74.500   13.972  172.687    0.325    0.282   75.735
   74.750   13.214  172.671    0.357    0.281   76.992
   75.000   12.257  173.650    0.380    0.282   78.258
   75.250   10.951  175.633    0.397    0.292   80.737
   75.500    9.971  177.615    0.388    0.287   83.215
   75.750    8.107  178.598    0.398    0.276   85.083
   76.000    7.108  178.578    0.408    0.269   87.561
   76.250    6.980  178.566    0.420    0.271   84.554
   76.500    8.597  175.552    0.402    0.266   79.086
   76.750   10.195  172.538    0.407    0.256   69.354
   77.000   13.286  173.521    0.385    0.278   60.842
   77.250   19.391  174.504    0.351    0.298   54.764
   77.500   24.335  175.488    0.372    0.314   57.880
   77.750   30.544  177.466    0.386    0.315   60.960
   78.000   34.880  181.446    0.376    0.293   64.650
   78.250   38.361  185.431    0.367    0.286   70.792
   78.500   36.272  178.413    0.353    0.294   74.491
   78.750   32.404  176.398    0.345    0.288   80.031
   79.000   23.086  177.377    0.348    0.283   83.740
   79.250   16.450  177.369    0.334    0.283   84.997
   79.500   14.151  177.353    0.330    0.278   81.981
   79.750   11.505  177.337    0.336    0.262   77.123
   80.000    8.841  179.319    0.365    0.253   69.222
   80.250    8.358  184.299    0.401    0.244   58.879
   80.500    8.208  189.271    0.408    0.255   48.536
   80.750    9.732  191.261    0.379    0.267   41.847
   81.000   14.475  190.238    0.344    0.275   33.345
   81.250   19.224  186.225    0.337    0.290   37.655
   81.500   28.061  184.214    0.327    0.300   41.354
   81.750   36.569  188.191    0.330    0.295   42.001
   82.000   50.450  193.171    0.340    0.289   43.869
   82.250   47.696  177.172    0.337    0.284   44.516
   82.500   44.248  177.151    0.327    0.292   43.950
   82.750   38.797  176.136    0.329    0.293   42.756
   83.000   35.998  176.116    0.333    0.288   40.350
   83.250   36.707  176.108    0.330    0.297   32.449
   83.500   45.205  175.085    0.327    0.308   24.549
   83.750   62.353  177.067    0.328    0.313   19.090
   84.000  130.252  179.049    0.318    0.304   19.126
   84.250  157.405  180.032    0.318    0.304   24.657
   84.500  166.679  179.021    0.317    0.306   24.693
   84.750  154.657  179.005    0.313    0.302   21.066
   85.000  135.602  178.985    0.316    0.297   22.332
   85.250   89.582  178.965    0.319    0.296   25.421
   85.500   66.276  178.956    0.312    0.296   26.068
   85.750   62.667  178.940    0.307    0.302   23.662
   86.000   94.994  178.920    0.307    0.296   21.876
   86.250  116.984  179.899    0.315    0.291   21.301
   86.500  138.751  179.883    0.307    0.291   21.346
   86.750  149.701  178.868    0.322    0.300   21.365
   87.000  152.648  178.852    0.339    0.313   22.011
   87.250  152.744  179.839    0.371    0.312   24.499
   87.500  158.744  184.819    0.378    0.321   27.588
   87.750  155.874  189.790    0.382    0.320   30.066
   88.000  126.713  189.782    0.388    0.313   29.492
   88.250   80.609  187.768    0.389    0.298   26.484
   88.500   77.684  183.747    0.383    0.295   25.290
   88.750   83.815  186.728    0.393    0.321   22.283
   89.000  139.624  190.709    0.391    0.318   21.708
   89.250  165.576  194.690    0.393    0.320   22.966
   89.500  175.331  197.671    0.395    0.341   24.214
   89.750  175.441  198.654    0.401    0.357   27.312
   90.000  156.757  195.637    0.413    0.367   31.020
   90.250   94.233  192.631    0.415    0.346   34.711
   90.500   59.947  189.617    0.405    0.342   36.597
   90.750   41.909  189.597    0.402    0.344   39.066
   91.000   34.723  190.576    0.422    0.345   42.756
   91.250   32.229  190.564    0.456    0.382   43.403
   91.500   31.054  187.550    0.446    0.385   47.112
   91.750   29.918  183.537    0.427    0.354   52.643
   92.000   28.832  179.525    0.408    0.342   51.467
   92.250   28.841  181.507    0.387    0.319   49.052
   92.500   29.409  185.483    0.384    0.308   44.814
   92.750   31.740  186.463    0.395    0.296   37.524
   93.000   36.931  186.446    0.390    0.300   30.862
   93.250   49.053  184.432    0.328    0.318   30.880
   93.500   95.019  180.419    0.288    0.349   31.527
   93.750  194.778  177.405    0.247    0.355   31.563
   94.000  258.716  178.388    0.259    0.335   28.546
   94.250  254.039  179.376    0.278    0.326   24.919
   94.500  244.821  183.352    0.335    0.320   24.345
   94.750  269.174  186.334    0.356    0.314   28.053
   95.000 1028.580  186.322    0.346    0.305   35.416
   95.250 1197.340  186.305    0.336    0.305   42.168
   95.500  955.138  189.283    0.328    0.303   42.824
   95.750  466.459  195.262    0.341    0.295   42.860
   96.000  255.157  197.248    0.370    0.289   39.835
   96.250  136.963  195.230    0.380    0.305   36.818
   96.500   76.359  189.210    0.371    0.320   36.863
   96.750   80.871  188.195    0.361    0.314   41.164
   97.000   84.008  191.185    0.368    0.313   42.431
   97.250   88.957  195.161    0.383    0.317   40.644
   97.500   92.437  194.146    0.388    0.309   39.459
   97.750   89.083  193.135    0.391    0.309   39.496
