~VERSION INFORMATION
 VERS.                 2.0:   CWLS LOG ASCII STANDARD -VERSION 2.0
 WRAP.                  NO:   ONE LINE PER DEPTH STEP
~WELL INFORMATION BLOCK
#MNEM.UNIT           DATA                    DESCRIPTION OF MNEMONIC
#---------    -------------------            -------------------------------
# Generated from Intellog Unique Number	CC_88_90/WELL/3137
WELL.         TEXACO CANADA                  : Well_name    - WELL
LOC .         AD/05-15-088-08W4/0            : Location     - LOCATION
UWI .         AD/05-15-088-08W400            : Uwi          - UNIQUE WELL ID
ENTR.         JOETTE                         : Entered      - ENTERED BY
SRVC.         SCHLUMBERGER                   : Scn          - SERVICE COMPANY
DATE.         02/26/92                       : Date         - LOG DATE
STRT.M        25                             : top_depth    - START DEPTH
STOP.M        143                            : bot_depth    - STOP DEPTH
STEP.M        0.25                           : increment    - STEP LENGTH
 NULL. -999.2500:NULL Value
~CURVE INFORMATION BLOCK
#MNEM UNIT       ERCB CURVE CODE    CURVE DESCRIPTION
#-----------   ------------------   ----------------------------------
DEPT.M        00 001 00 00         : DEPTH        - DEPTH
ILD .OHMM     00 120 00 00         : RESD         - DEEP RESISTIVITY (DIL)
CALI.MM       00 280 01 00         : CAL          - CALIPER
NPHI.V/V      00 330 00 00         : PHIN         - NEUTRON POROSITY (SANDSTONE)
DPHI.V/V      00 890 00 00         : PHID         - DENSITY POROSITY (SANDSTONE)
GR  .API      00 310 00 00         : GR           - GAMMA RAY
~PARAMETER INFORMATION
#MNEM.UNIT           DATA             DESCRIPTION OF MNEMONIC
#---------         -----------     ------------------------------
GL  .M        385.51               : gl           - GROUND LEVEL ELEVATION
EREF.M        387.34               : kb           - ELEVATION OF DEPTH REFERENCE
DATM.M        387.34               : datum        - DATUM ELEVATION
TDD .M        145.69               : tdd          - TOTAL DEPTH DRILLER
RUN .         ONE                  : Run          - RUN NUMBER
ENG .         JO                   : Engineer     - RECORDING ENGINEER
WIT .         TIM                  : Witness      - WITNESSED BY
MUD .         GEL                  : Mud_type     - MUD TYPE
MATR.         SANDSTONE            : Logunit      - NEUTRON MATRIX
TMAX.C        10                   : BHT          - MAXIMUM RECORDED TEMPERATURE
BHTD.M        145.69               : BHTDEP       - MAXIMUM RECORDED TEMPERATURE
RMT .C        17                   : MDTP         - TEMPERATURE OF MUD
MUDD.KG/M     1220                 : MWT          - MUD DENSITY
NEUT.         1                    : NEUTRON      - NEUTRON TYPE
RESI.         0                    : RESIST       - RESISTIVITY TYPE
RM  .OHMM     2.56                 : RM           - RESISTIVITY OF MUD
RMC .OHMM     2.56                 : RMC          - RESISTIVITY OF MUD CAKE
RMF .OHMM     2.56                 : RMF          - RESISTIVITY OF MUD FILTRATE
SUFT.C        4                    : SUFT         - SURFACE TEMPERATURE
~A  DEPTH     RESD      CAL     PHIN     PHID       GR
   25.000    5.573  256.890    0.544    0.381   87.335
   25.250    5.681  258.872    0.550    0.381   86.761
   25.500    5.792  260.858    0.535    0.381   83.143
   25.750    6.021  262.840    0.509    0.377   83.179
   26.000    6.024  265.818    0.522    0.372   83.206
   26.250    5.915  258.811    0.535    0.382   83.853
   26.500    5.808  253.795    0.530    0.391   83.279
   26.750    5.493  253.775    0.534    0.381   80.271
   27.000    5.392  252.760    0.534    0.358   78.476
   27.250    5.295  250.745    0.527    0.352   76.061
   27.500    5.607  250.733    0.489    0.334   74.265
   27.750    6.649  250.717    0.476    0.309   74.930
   28.000    7.886  246.704    0.462    0.320   74.948
   28.250    8.672  240.693    0.468    0.320   77.445
   28.500    8.357  238.678    0.482    0.320   78.702
   28.750    7.901  238.658    0.493    0.321   77.517
   29.000    7.331  237.639    0.482    0.298   74.491
   29.250    7.619  238.626    0.468    0.298   70.263
   29.500    8.539  238.610    0.448    0.274   69.688
   29.750    9.039  237.595    0.453    0.259   72.777
   30.000    9.754  236.575    0.482    0.251   74.636
   30.250   10.329  240.556    0.488    0.258   75.893
   30.500   10.339  246.539    0.501    0.293   74.708
   30.750   10.149  250.516    0.509    0.334   73.523
   31.000    9.965  250.504    0.498    0.335   74.188
   31.250   10.960  247.490    0.468    0.325   74.224
   31.500   12.052  238.477    0.446    0.318   74.251
   31.750   13.767  236.463    0.437    0.354   73.695
   32.000   14.303  238.441    0.446    0.361   73.713
   32.250   14.583  240.419    0.464    0.346   73.749
   32.500   13.789  240.411    0.464    0.350   73.795
   32.750   11.213  238.396    0.446    0.349   73.229
   33.000    9.646  239.380    0.432    0.339   73.248
   33.250    8.301  243.360    0.435    0.343   73.284
   33.500    7.007  241.346    0.454    0.348   73.329
   33.750    6.503  240.326    0.482    0.344   73.976
   34.000    6.631  239.311    0.481    0.312   75.853
   34.250    6.636  243.292    0.467    0.303   77.711
   34.500    6.514  246.269    0.452    0.312   78.978
   34.750    6.160  243.255    0.448    0.319   80.235
   35.000    5.610  244.239    0.465    0.313   80.882
   35.250    5.404  245.222    0.477    0.308   80.918
   35.500    5.015  246.209    0.490    0.312   80.963
   35.750    4.834  248.183    0.511    0.313   81.008
   36.000    4.745  250.165    0.531    0.318   80.416
   36.250    4.660  251.156    0.520    0.318   79.850
   36.500    4.663  252.131    0.526    0.324   80.488
   36.750    4.665  252.115    0.532    0.329   82.356
   37.000    4.940  257.099    0.521    0.323   82.401
   37.250    5.331  238.098    0.481    0.332   81.216
   37.500    5.863  226.092    0.450    0.358   80.633
   37.750    6.951  210.089    0.460    0.332   78.846
   38.000    8.725  198.082    0.475    0.332   75.839
   38.250    8.730  193.058    0.466    0.327   75.246
   38.500    7.656  193.050    0.443    0.246   74.672
   38.750    6.970  194.033    0.452    0.272   81.433
   39.000    6.227  199.013    0.488    0.280   89.407
   39.250    5.564  202.994    0.508    0.280   94.938
   39.500    4.880  205.975    0.504    0.301   98.027
   39.750    4.613  202.961    0.514    0.322   99.284
   40.000    4.200  192.953    0.541    0.322   99.949
   40.250    3.754  198.928    0.553    0.338   99.374
   40.500    3.483  201.906    0.564    0.351   97.570
   40.750    3.232  203.888    0.588    0.342   96.385
   41.000    3.113  204.875    0.571    0.357   96.430
   41.250    3.000  204.855    0.555    0.370   96.466
   41.500    2.946  200.846    0.546    0.372   96.502
   41.750    2.839  200.826    0.547    0.372   97.769
   42.000    2.787  201.809    0.549    0.376   98.407
   42.250    2.686  202.796    0.543    0.385   96.611
   42.500    2.688  197.784    0.537    0.375   94.196
   42.750    2.955  195.770    0.528    0.362   90.587
   43.000    3.312  196.753    0.515    0.346   89.995
   43.250    4.002  195.737    0.502    0.324   88.837
   43.500    4.657  194.718    0.508    0.312   88.864
   43.750    5.319  195.701    0.504    0.297   88.891
   44.000    5.126  190.685    0.497    0.292   88.945
   44.250    5.032  195.669    0.506    0.296   89.583
   44.500    5.131  199.649    0.512    0.294   89.610
   44.750    5.751  197.635    0.517    0.293   90.257
   45.000    6.568  202.615    0.483    0.300   92.125
   45.250    6.697  198.602    0.452    0.305   96.435
   45.500    6.961  189.593    0.448    0.285   99.533
   45.750    7.232  191.571    0.456    0.288  100.790
   46.000    7.804  202.546    0.466    0.269  100.835
   46.250    8.580  219.517    0.461    0.270   99.650
   46.500   10.767  207.510    0.443    0.258   98.456
   46.750   16.950  196.503    0.424    0.248   97.271
   47.000   18.639  187.494    0.407    0.247   95.476
   47.250   19.737  181.479    0.407    0.244   91.238
   47.500   20.512  178.465    0.397    0.239   79.674
   47.750   20.525  177.450    0.384    0.202   71.163
   48.000   20.535  177.438    0.245    0.131   72.429
   48.250   20.939  177.413    0.208    0.091   78.561
   48.500   21.351  177.401    0.249    0.039   92.649
   48.750   19.441  177.377    0.278    0.107   96.349
   49.000   16.107  177.365    0.299    0.196   95.784
   49.250   10.055  177.353    0.334    0.219   95.209
   49.500    8.652  177.333    0.381    0.258   95.856
   49.750    7.306  178.316    0.428    0.269   96.502
   50.000    6.528  182.297    0.431    0.269   96.530
   50.250    5.944  188.280    0.435    0.257   97.176
   50.500    5.619  206.249    0.445    0.252   98.443
   50.750    5.215  202.236    0.457    0.256   99.108
   51.000    5.317  206.209    0.472    0.256   99.126
   51.250    6.072  202.200    0.490    0.257   99.772
   51.500    9.557  199.186    0.459    0.248  100.419
   51.750    9.931  185.181    0.420    0.258   96.792
   52.000   10.126  180.169    0.421    0.267   96.227
   52.250    9.220  180.153    0.416    0.269   98.094
   52.500    7.934  182.135    0.415    0.274   99.962
   52.750    7.225  190.113    0.429    0.267  101.220
   53.000    6.455  198.090    0.441    0.258  100.044
   53.250    5.990  207.067    0.453    0.272   98.239
   53.500    5.770  208.046    0.465    0.265   97.665
   53.750    5.354  202.035    0.471    0.265  100.143
   54.000    5.258  204.009    0.461    0.271  101.400
   54.250    5.362  205.000    0.454    0.263  100.835
   54.500    5.467  209.980    0.463    0.252   99.040
   54.750    6.014  218.952    0.472    0.255   99.076
   55.000    6.367  221.938    0.485    0.262   98.501
   55.250    6.741  223.916    0.496    0.266   96.096
   55.500    7.275  219.907    0.498    0.254   95.521
   55.750    7.143  205.902    0.488    0.256   96.168
   56.000    6.263  187.897    0.484    0.246   96.815
   56.250    4.379  190.878    0.454    0.257   96.249
   56.500    4.063  202.849    0.541    0.292   95.064
   56.750    3.699  205.834    0.563    0.330   94.481
   57.000    3.433  200.822    0.578    0.342   95.128
   57.250    3.635  192.808    0.537    0.335   95.164
   57.500    4.073  194.795    0.512    0.274   93.997
   57.750    4.922  199.770    0.515    0.255   93.405
   58.000    6.062  197.756    0.508    0.236   92.220
   58.250    7.055  192.748    0.458    0.246   91.645
   58.500    7.472  184.734    0.434    0.250   90.469
   58.750    7.475  183.715    0.443    0.250   88.674
   59.000    7.341  183.703    0.443    0.251   86.259
   59.250    7.207  184.682    0.437    0.254   82.021
   59.500    7.212  186.668    0.437    0.253   77.793
   59.750    7.354  193.642    0.449    0.244   75.997
   60.000    8.243  198.626    0.456    0.207   74.193
   60.250    8.894  193.614    0.375    0.175   74.858
   60.500   10.156  179.605    0.350    0.127   77.937
   60.750   10.959  178.590    0.360    0.078   84.690
   61.000   11.388  182.571    0.367    0.114   86.557
   61.250   10.768  187.550    0.381    0.118   86.594
