~VERSION INFORMATION
 VERS.                 2.0:   CWLS LOG ASCII STANDARD -VERSION 2.0
 WRAP.                  NO:   ONE LINE PER DEPTH STEP
~WELL INFORMATION BLOCK
#MNEM.UNIT           DATA                    DESCRIPTION OF MNEMONIC
#---------    -------------------            -------------------------------
# Generated from Intellog Unique Number	CC_88_90/WELL/3137
WELL.         TEXACO CANADA                  : Well_name    - WELL
LOC .         AD/05-15-088-08W4/0            : Location     - LOCATION
UWI .         AD/05-15-088-08W400            : Uwi          - UNIQUE WELL ID
ENTR.         JOETTE                         : Entered      - ENTERED BY
SRVC.         SCHLUMBERGER                   : Scn          - SERVICE COMPANY
DATE.         02/26/92                       : Date         - LOG DATE
STRT.M        25                             : top_depth    - START DEPTH
STOP.M        143                            : bot_depth    - STOP DEPTH
STEP.M        0.25                           : increment    - STEP LENGTH
 NULL. -999.2500:NULL Value
~CURVE INFORMATION BLOCK
#MNEM UNIT       ERCB CURVE CODE    CURVE DESCRIPTION
#-----------   ------------------   ----------------------------------
DEPT.M        00 001 00 00         : DEPTH        - DEPTH
ILD .OHMM     00 120 00 00         : RESD         - DEEP RESISTIVITY (DIL)
CALI.MM       00 280 01 00         : CAL          - CALIPER
NPHI.V/V      00 330 00 00         : PHIN         - NEUTRON POROSITY (SANDSTONE)
DPHI.V/V      00 890 00 00         : PHID         - DENSITY POROSITY (SANDSTONE)
GR  .API      00 310 00 00         : GR           - GAMMA RAY
~PARAMETER INFORMATION
#MNEM.UNIT           DATA             DESCRIPTION OF MNEMONIC
#---------         -----------     ------------------------------
GL  .M        385.51               : gl           - GROUND LEVEL ELEVATION
EREF.M        387.34               : kb           - ELEVATION OF DEPTH REFERENCE
DATM.M        387.34               : datum        - DATUM ELEVATION
TDD .M        145.69               : tdd          - TOTAL DEPTH DRILLER
RUN .         ONE                  : Run          - RUN NUMBER
ENG .         JO                   : Engineer     - RECORDING ENGINEER
WIT .         TIM                  : Witness      - WITNESSED BY
MUD .         GEL                  : Mud_type     - MUD TYPE
MATR.         SANDSTONE            : Logunit      - NEUTRON MATRIX
TMAX.C        10                   : BHT          - MAXIMUM RECORDED TEMPERATURE
BHTD.M        145.69               : BHTDEP       - MAXIMUM RECORDED TEMPERATURE
RMT .C        17                   : MDTP         - TEMPERATURE OF MUD
MUDD.KG/M     1220                 : MWT          - MUD DENSITY
NEUT.         1                    : NEUTRON      - NEUTRON TYPE
RESI.         0                    : RESIST       - RESISTIVITY TYPE
RM  .OHMM     2.56                 : RM           - RESISTIVITY OF MUD
RMC .OHMM     2.56                 : RMC          - RESISTIVITY OF MUD CAKE
RMF .OHMM     2.56                 : RMF          - RESISTIVITY OF MUD FILTRATE
SUFT.C        4                    : SUFT         - SURFACE TEMPERATURE
~A  DEPTH     RESD      CAL     PHIN     PHID       GR
# ...
   98.000   84.219  191.120    0.388    0.315   39.532
   98.250   65.948  193.098    0.379    0.324   41.391
   98.500   67.246  196.084    0.377    0.320   42.648
   98.750   67.288  201.056    0.379    0.319   44.516
   99.000   64.837  201.044    0.384    0.318   45.773
   99.250   61.316  198.030    0.383    0.322   45.836
   99.500   52.748  194.017    0.364    0.311   45.253
   99.750   39.025  190.004    0.332    0.286   44.077
  100.000   32.949  185.991    0.324    0.273   44.104
  100.250   28.890  182.977    0.322    0.286   44.742
  100.500   29.459  179.964    0.314    0.297   48.441
  100.750   34.940  177.937    0.309    0.302   58.246
  101.000   38.415  177.925    0.334    0.298   78.439
  101.250   35.650  177.909    0.333    0.278   88.855
  101.500   20.634  180.886    0.319    0.251   99.890
  101.750   12.172  181.878    0.364    0.221  106.642
  102.000    9.005  184.859    0.379    0.187  110.952
  102.250    7.896  187.840    0.391    0.190  114.652
  102.500    7.189  188.820    0.403    0.194  115.927
  102.750    6.927  187.800    0.413    0.199  115.963
  103.000    7.199  187.792    0.413    0.186  115.380
  103.250    6.937  188.775    0.407    0.197  114.195
  103.500    6.198  190.745    0.402    0.200  113.620
  103.750    6.086  191.736    0.406    0.199  113.055
  104.000    6.091  191.720    0.413    0.199  112.481
  104.250    6.094  192.699    0.418    0.190  112.517
  104.500    6.213  194.678    0.426    0.195  112.553
  104.750    6.336  194.670    0.433    0.194  111.979
  105.000    6.341  196.648    0.441    0.195  110.174
  105.250    6.343  197.631    0.448    0.199  105.326
  105.500    6.350  197.619    0.461    0.215   94.983
  105.750    6.352  196.604    0.449    0.203   85.250
  106.000    6.854  193.590    0.434    0.219   78.571
  106.250    7.682  176.583    0.352    0.259   81.668
  106.500    8.607  172.571    0.327    0.273   84.748
  106.750   10.402  177.546    0.371    0.234   83.573
  107.000   12.104  178.529    0.365    0.219   81.166
  107.250   12.114  173.521    0.352    0.219   78.150
  107.500   13.070  175.504    0.347    0.250   75.744
  107.750   14.928  178.477    0.379    0.246   73.329
  108.000   19.454  178.465    0.384    0.265   70.923
  108.250   23.070  177.450    0.377    0.273   66.685
  108.500   24.429  174.432    0.382    0.285   61.837
  108.750   26.863  172.417    0.380    0.325   59.431
  109.000   33.082  173.400    0.380    0.342   63.750
  109.250   43.120  176.386    0.385    0.329   69.281
  109.500   45.661  181.366    0.382    0.311   76.644
  109.750   37.124  184.347    0.351    0.296   75.459
  110.000   28.522  182.325    0.348    0.263   69.390
  110.250   22.756  180.314    0.356    0.278   62.710
  110.500   23.646  177.305    0.368    0.292   57.862
  110.750   26.498  173.284    0.348    0.308   53.014
  111.000   30.841  172.272    0.356    0.325   48.776
  111.250   35.213  173.255    0.370    0.355   54.917
  111.500   45.032  177.232    0.393    0.344   62.900
  111.750   60.945  178.219    0.389    0.339   70.873
  112.000   52.446  176.201    0.380    0.335   77.024
  112.250   45.124  180.185    0.391    0.289   73.388
  112.500   33.385  183.167    0.403    0.259   66.708
  112.750   27.656  183.151    0.399    0.295   57.586
  113.000   18.621  181.132    0.394    0.323   47.243
  113.250   19.715  179.118    0.389    0.338   52.163
  113.500   33.468  177.103    0.384    0.335   57.084
  113.750   37.505  176.080    0.391    0.322   60.783
  114.000   34.149  176.068    0.394    0.310   62.050
  114.250   23.427  177.055    0.398    0.294   58.432
  114.500   13.308  178.038    0.403    0.289   56.627
  114.750   10.033  177.023    0.398    0.313   53.611
  115.000    7.708  174.005    0.403    0.328   48.771
  115.250    9.493  170.991    0.413    0.338   45.135
  115.500   11.257  168.981    0.405    0.342   45.171
  115.750   14.950  168.965    0.399    0.334   44.606
  116.000   15.535  169.940    0.397    0.326   40.970
  116.250   14.691  170.923    0.404    0.322   36.741
  116.500   14.426  171.910    0.404    0.337   37.388
  116.750   14.708  171.894    0.402    0.347   39.857
  117.000   14.719  171.873    0.408    0.347   41.115
  117.250   15.295  171.857    0.412    0.339   39.948
  117.500   15.893  171.841    0.408    0.333   39.355
  117.750   17.150  172.820    0.398    0.337   38.170
  118.000   18.507  172.812    0.388    0.332   36.384
  118.250   20.357  173.791    0.374    0.332   33.367
  118.500   20.363  175.770    0.372    0.332   29.731
  118.750   19.622  177.752    0.383    0.326   27.945
  119.000   17.535  178.735    0.384    0.317   31.034
  119.250   15.665  176.720    0.364    0.322   32.300
  119.500   13.478  175.705    0.368    0.332   32.336
  119.750   11.597  174.690    0.376    0.333   32.373
  120.000    9.608  175.669    0.367    0.326   32.409
  120.250    8.114  175.661    0.346    0.322   32.445
  120.500    8.119  175.641    0.366    0.328   31.260
  120.750    9.810  176.628    0.393    0.328   32.508
  121.000   19.736  178.602    0.401    0.327   36.217
  121.250   22.537  178.590    0.402    0.330   33.811
  121.500   28.822  178.570    0.388    0.334   32.626
  121.750   34.179  178.558    0.368    0.327   30.830
  122.000   48.966  178.537    0.346    0.321   29.645
  122.250   55.908  178.525    0.355    0.317   30.292
  122.500   65.061  179.504    0.361    0.324   33.390
  122.750   81.648  179.488    0.366    0.326   34.638
  123.000  119.182  181.471    0.361    0.325   33.462
  123.250  128.588  182.458    0.362    0.325   32.897
  123.500  133.639  184.436    0.369    0.325   32.915
  123.750  131.243  184.420    0.375    0.321   32.350
  124.000  131.326  184.404    0.369    0.315   29.944
  124.250  133.891  184.388    0.340    0.315   27.538
  124.500  144.480  185.367    0.334    0.313   26.353
  124.750  161.904  186.354    0.345    0.303   26.389
  125.000  184.915  187.337    0.385    0.300   27.036
  125.250  174.846  188.320    0.405    0.314   29.532
  125.500  162.209  190.302    0.401    0.335   29.550
  125.750  153.400  191.285    0.371    0.331   30.206
  126.000  145.048  193.268    0.377    0.328   32.074
  126.250  139.762  194.247    0.389    0.328   33.933
  126.500  127.237  194.230    0.385    0.323   41.305
  126.750  103.449  193.215    0.390    0.318   49.278
  127.000   68.341  190.201    0.400    0.309   51.155
  127.250   49.616  178.191    0.369    0.298   49.979
  127.500   31.568  176.180    0.364    0.298   49.386
  127.750   36.049  176.164    0.373    0.294   50.033
  128.000   40.390  176.148    0.389    0.315   58.016
  128.250   50.696  176.128    0.398    0.342   65.378
  128.500   54.714  175.113    0.405    0.338   72.130
  128.750   49.811  174.098    0.420    0.327   77.662
  129.000   40.498  174.081    0.381    0.315   83.202
  129.250   31.707  175.064    0.381    0.305   84.459
  129.500   23.905  178.046    0.411    0.293   83.885
  129.750   19.436  181.027    0.413    0.279   83.319
  130.000   17.041  184.005    0.405    0.269   82.134
  130.250   15.226  184.988    0.397    0.269   80.940
  130.500   13.607  192.969    0.394    0.288   76.101
  130.750   12.866  189.956    0.404    0.306   71.244
  131.000   13.367  182.941    0.418    0.312   64.573
  131.250   16.775  181.922    0.440    0.309   62.158
  131.500   21.862  181.910    0.422    0.323   57.920
  131.750   33.134  181.910    0.419    0.341   53.692
  132.000   49.287  182.869    0.420    0.343   50.056
  132.250   70.589  184.851    0.412    0.343   50.092
  132.500   83.710  184.843    0.402    0.323   55.623
  132.750   88.641  184.819    0.404    0.322   54.438
  133.000   82.261  184.807    0.395    0.317   52.643
  133.250   76.315  183.787    0.393    0.305   55.741
  133.500   64.445  183.779    0.409    0.305   55.166
  133.750   58.678  181.753    0.413    0.318   52.150
  134.000   53.420  180.745    0.412    0.339   49.142
  134.250   47.730  179.722    0.412    0.352   52.222
